$GPRMC,004300.90,A,3724.51225,N,12641.82677,E,4.097,211.51,110420,,,A*63
$GPRMC,004301.10,A,3724.51225,N,12641.82677,E,4.097,211.51,110420,,,A*63
$GPRMC,004301.30,A,3724.51225,N,12641.82677,E,4.097,211.51,110420,,,A*63
$GPRMC,004301.50,A,3724.51225,N,12641.82677,E,4.097,211.51,110420,,,A*63
$GPRMC,004301.70,A,3724.51225,N,12641.82677,E,4.097,211.51,110420,,,A*63
$GPRMC,004301.90,A,3724.51225,N,12641.82677,E,4.097,211.51,110420,,,A*63
$GPRMC,004302.10,A,3724.51225,N,12641.82677,E,4.097,211.51,110420,,,A*63
$GPRMC,004302.30,A,3724.51225,N,12641.82677,E,4.097,211.51,110420,,,A*63
$GPRMC,004302.50,A,3724.51225,N,12641.82677,E,4.097,211.51,110420,,,A*63
$GPRMC,004302.70,A,3724.51225,N,12641.82677,E,4.097,211.51,110420,,,A*63
$GPRMC,004302.90,A,3724.51225,N,12641.82677,E,4.097,211.51,110420,,,A*63
$GPRMC,004303.10,A,3724.51225,N,12641.82677,E,4.097,211.51,110420,,,A*63
$GPRMC,004303.30,A,3724.51225,N,12641.82677,E,4.097,211.51,110420,,,A*63
$GPRMC,004303.50,A,3724.51225,N,12641.82677,E,4.097,211.51,110420,,,A*63
$GPRMC,004303.70,A,3724.51225,N,12641.82677,E,4.097,211.51,110420,,,A*63
$GPRMC,004303.90,A,3724.51225,N,12641.82677,E,4.097,211.51,110420,,,A*63
$GPRMC,004304.10,A,3724.51225,N,12641.82677,E,4.097,211.51,110420,,,A*63
$GPRMC,004304.30,A,3724.51225,N,12641.82677,E,4.097,211.51,110420,,,A*63
$GPRMC,004304.50,A,3724.51225,N,12641.82677,E,4.097,211.51,110420,,,A*63
$GPRMC,004304.70,A,3724.51225,N,12641.82677,E,4.097,211.51,110420,,,A*63
$GPRMC,004304.90,A,3724.51225,N,12641.82677,E,4.097,211.51,110420,,,A*63
$GPRMC,004305.10,A,3724.51225,N,12641.82677,E,4.097,211.51,110420,,,A*63
$GPRMC,004305.30,A,3724.51225,N,12641.82677,E,4.097,211.51,110420,,,A*63
$GPRMC,004305.50,A,3724.51225,N,12641.82677,E,4.097,211.51,110420,,,A*63
$GPRMC,004305.70,A,3724.51225,N,12641.82677,E,4.097,211.51,110420,,,A*63
$GPRMC,004305.90,A,3724.51225,N,12641.82677,E,4.097,211.51,110420,,,A*63
$GPRMC,004306.10,A,3724.51225,N,12641.82677,E,4.097,211.51,110420,,,A*63
$GPRMC,004306.30,A,3724.51225,N,12641.82677,E,4.097,211.51,110420,,,A*63
$GPRMC,004306.50,A,3724.51225,N,12641.82677,E,4.097,211.51,110420,,,A*63
$GPRMC,004306.70,A,3724.51225,N,12641.82677,E,4.097,211.51,110420,,,A*63
$GPRMC,004306.90,A,3724.51225,N,12641.82677,E,4.097,211.51,110420,,,A*63
$GPRMC,004307.10,A,3724.51225,N,12641.82677,E,4.097,211.51,110420,,,A*63
$GPRMC,004307.30,A,3724.51225,N,12641.82677,E,4.097,211.51,110420,,,A*63
$GPRMC,004307.50,A,3724.51225,N,12641.82677,E,4.097,211.51,110420,,,A*63
$GPRMC,004307.70,A,3724.51225,N,12641.82677,E,4.097,211.51,110420,,,A*63
$GPRMC,004307.90,A,3724.51225,N,12641.82677,E,4.097,211.51,110420,,,A*63
$GPRMC,004308.10,A,3724.51225,N,12641.82677,E,4.097,211.51,110420,,,A*63
$GPRMC,004308.30,A,3724.51225,N,12641.82677,E,4.097,211.51,110420,,,A*63
$GPRMC,004308.50,A,3724.51225,N,12641.82677,E,4.097,211.51,110420,,,A*63
$GPRMC,004308.70,A,3724.51225,N,12641.82677,E,4.097,211.51,110420,,,A*63
$GPRMC,004308.90,A,3724.51225,N,12641.82677,E,4.097,211.51,110420,,,A*63
$GPRMC,004309.10,A,3724.51225,N,12641.82677,E,4.097,211.51,110420,,,A*63
$GPRMC,004309.30,A,3724.51225,N,12641.82677,E,4.097,211.51,110420,,,A*63
$GPRMC,004309.50,A,3724.51225,N,12641.82677,E,4.097,211.51,110420,,,A*63
$GPRMC,004309.70,A,3724.51225,N,12641.82677,E,4.097,211.51,110420,,,A*63
$GPRMC,004309.90,A,3724.51225,N,12641.82677,E,4.097,211.51,110420,,,A*63
$GPRMC,004310.10,A,3724.51225,N,12641.82677,E,4.097,211.51,110420,,,A*63
$GPRMC,004310.30,A,3724.51225,N,12641.82677,E,4.097,211.51,110420,,,A*63
$GPRMC,004310.50,A,3724.51225,N,12641.82677,E,4.097,211.51,110420,,,A*63
$GPRMC,004310.70,A,3724.51225,N,12641.82677,E,4.097,211.51,110420,,,A*63
$GPRMC,004310.90,A,3724.51225,N,12641.82677,E,4.097,211.51,110420,,,A*63
$GPRMC,004311.10,A,3724.51225,N,12641.82677,E,4.097,211.51,110420,,,A*63
$GPRMC,004311.30,A,3724.51225,N,12641.82677,E,4.097,211.51,110420,,,A*63
$GPRMC,004311.50,A,3724.51225,N,12641.82677,E,4.097,211.51,110420,,,A*63
$GPRMC,004311.70,A,3724.51225,N,12641.82677,E,4.097,211.51,110420,,,A*63
$GPRMC,004311.90,A,3724.51225,N,12641.82677,E,4.097,211.51,110420,,,A*63
$GPRMC,004312.10,A,3724.51225,N,12641.82677,E,4.097,211.51,110420,,,A*63
$GPRMC,004312.30,A,3724.51225,N,12641.82677,E,4.097,211.51,110420,,,A*63
$GPRMC,004312.50,A,3724.51225,N,12641.82677,E,4.097,211.51,110420,,,A*63
$GPRMC,004312.70,A,3724.51225,N,12641.82677,E,4.097,211.51,110420,,,A*63
$GPRMC,004312.90,A,3724.51225,N,12641.82677,E,4.097,211.51,110420,,,A*63
$GPRMC,004313.10,A,3724.51225,N,12641.82677,E,4.097,211.51,110420,,,A*63
$GPRMC,004313.30,A,3724.51225,N,12641.82677,E,4.097,211.51,110420,,,A*63
$GPRMC,004313.50,A,3724.51225,N,12641.82677,E,4.097,211.51,110420,,,A*63
$GPRMC,004313.70,A,3724.51225,N,12641.82677,E,4.097,211.51,110420,,,A*63
$GPRMC,004313.90,A,3724.51225,N,12641.82677,E,4.097,211.51,110420,,,A*63
$GPRMC,004314.10,A,3724.51225,N,12641.82677,E,4.097,211.51,110420,,,A*63
$GPRMC,004314.30,A,3724.51225,N,12641.82677,E,4.097,211.51,110420,,,A*63
$GPRMC,004314.50,A,3724.51225,N,12641.82677,E,4.097,211.51,110420,,,A*63
$GPRMC,004314.70,A,3724.51225,N,12641.82677,E,4.097,211.51,110420,,,A*63
$GPRMC,004314.90,A,3724.51225,N,12641.82677,E,4.097,211.51,110420,,,A*63
$GPRMC,004315.10,A,3724.51225,N,12641.82677,E,4.097,211.51,110420,,,A*63
$GPRMC,004315.30,A,3724.51225,N,12641.82677,E,4.097,211.51,110420,,,A*63
$GPRMC,004315.50,A,3724.51225,N,12641.82677,E,4.097,211.51,110420,,,A*63
$GPRMC,004315.70,A,3724.51225,N,12641.82677,E,4.097,211.51,110420,,,A*63
$GPRMC,004315.90,A,3724.51225,N,12641.82677,E,4.097,211.51,110420,,,A*63
$GPRMC,004316.10,A,3724.51225,N,12641.82677,E,4.097,211.51,110420,,,A*63
$GPRMC,004316.30,A,3724.51225,N,12641.82677,E,4.097,211.51,110420,,,A*63
$GPRMC,004316.50,A,3724.51225,N,12641.82677,E,4.097,211.51,110420,,,A*63
$GPRMC,004316.70,A,3724.51225,N,12641.82677,E,4.097,211.51,110420,,,A*63
$GPRMC,004316.90,A,3724.51225,N,12641.82677,E,4.097,211.51,110420,,,A*63
$GPRMC,004317.10,A,3724.51225,N,12641.82677,E,4.097,211.51,110420,,,A*63
$GPRMC,004317.30,A,3724.51225,N,12641.82677,E,4.097,211.51,110420,,,A*63
$GPRMC,004317.50,A,3724.51225,N,12641.82677,E,4.097,211.51,110420,,,A*63
$GPRMC,004317.70,A,3724.51225,N,12641.82677,E,4.097,211.51,110420,,,A*63
$GPRMC,004317.90,A,3724.51225,N,12641.82677,E,4.097,211.51,110420,,,A*63
$GPRMC,004318.10,A,3724.51225,N,12641.82677,E,4.097,211.51,110420,,,A*63
$GPRMC,004318.30,A,3724.51225,N,12641.82677,E,4.097,211.51,110420,,,A*63
$GPRMC,004318.50,A,3724.51225,N,12641.82677,E,4.097,211.51,110420,,,A*63
$GPRMC,004318.70,A,3724.51225,N,12641.82677,E,4.097,211.51,110420,,,A*63
$GPRMC,004318.90,A,3724.51225,N,12641.82677,E,4.097,211.51,110420,,,A*63
$GPRMC,004319.10,A,3724.51225,N,12641.82677,E,4.097,211.51,110420,,,A*63
$GPRMC,004319.30,A,3724.51225,N,12641.82677,E,4.097,211.51,110420,,,A*63
$GPRMC,004319.50,A,3724.51225,N,12641.82677,E,4.097,211.51,110420,,,A*63
$GPRMC,004319.70,A,3724.51225,N,12641.82677,E,4.097,211.51,110420,,,A*63
$GPRMC,004319.90,A,3724.51225,N,12641.82677,E,4.097,211.51,110420,,,A*63
$GPRMC,004320.10,A,3724.51225,N,12641.82677,E,4.097,211.51,110420,,,A*63
$GPRMC,004320.30,A,3724.51225,N,12641.82677,E,4.097,211.51,110420,,,A*63
$GPRMC,004320.50,A,3724.51225,N,12641.82677,E,4.097,211.51,110420,,,A*63
$GPRMC,004320.70,A,3724.51225,N,12641.82677,E,4.097,211.51,110420,,,A*63
$GPRMC,004320.90,A,3724.51225,N,12641.82677,E,4.097,211.51,110420,,,A*63
$GPRMC,004321.10,A,3724.51225,N,12641.82677,E,4.097,211.51,110420,,,A*63
$GPRMC,004321.30,A,3724.51225,N,12641.82677,E,4.097,211.51,110420,,,A*63
$GPRMC,004321.50,A,3724.51225,N,12641.82677,E,4.097,211.51,110420,,,A*63
$GPRMC,004321.70,A,3724.51225,N,12641.82677,E,4.097,211.51,110420,,,A*63
$GPRMC,004321.90,A,3724.51225,N,12641.82677,E,4.097,211.51,110420,,,A*63
$GPRMC,004322.10,A,3724.51225,N,12641.82677,E,4.097,211.51,110420,,,A*63
$GPRMC,004322.30,A,3724.51225,N,12641.82677,E,4.097,211.51,110420,,,A*63
$GPRMC,004322.50,A,3724.51225,N,12641.82677,E,4.097,211.51,110420,,,A*63
$GPRMC,004322.70,A,3724.51225,N,12641.82677,E,4.097,211.51,110420,,,A*63
$GPRMC,004322.90,A,3724.51225,N,12641.82677,E,4.097,211.51,110420,,,A*63
$GPRMC,004323.10,A,3724.51225,N,12641.82677,E,4.097,211.51,110420,,,A*63
$GPRMC,004323.30,A,3724.51225,N,12641.82677,E,4.097,211.51,110420,,,A*63
$GPRMC,004323.50,A,3724.51225,N,12641.82677,E,4.097,211.51,110420,,,A*63
$GPRMC,004323.70,A,3724.51225,N,12641.82677,E,4.097,211.51,110420,,,A*63
$GPRMC,004323.90,A,3724.51225,N,12641.82677,E,4.097,211.51,110420,,,A*63
$GPRMC,004324.10,A,3724.51225,N,12641.82677,E,4.097,211.51,110420,,,A*63
$GPRMC,004324.30,A,3724.51225,N,12641.82677,E,4.097,211.51,110420,,,A*63
$GPRMC,004324.50,A,3724.51225,N,12641.82677,E,4.097,211.51,110420,,,A*63
$GPRMC,004324.70,A,3724.51225,N,12641.82677,E,4.097,211.51,110420,,,A*63
$GPRMC,004324.90,A,3724.51225,N,12641.82677,E,4.097,211.51,110420,,,A*63
$GPRMC,004325.10,A,3724.51225,N,12641.82677,E,4.097,211.51,110420,,,A*63
$GPRMC,004325.30,A,3724.51225,N,12641.82677,E,4.097,211.51,110420,,,A*63
$GPRMC,004325.50,A,3724.51225,N,12641.82677,E,4.097,211.51,110420,,,A*63
$GPRMC,004325.70,A,3724.51225,N,12641.82677,E,4.097,211.51,110420,,,A*63
$GPRMC,004325.90,A,3724.51225,N,12641.82677,E,4.097,211.51,110420,,,A*63
$GPRMC,004326.10,A,3724.51225,N,12641.82677,E,4.097,211.51,110420,,,A*63
$GPRMC,004326.30,A,3724.51225,N,12641.82677,E,4.097,211.51,110420,,,A*63
$GPRMC,004326.50,A,3724.51225,N,12641.82677,E,4.097,211.51,110420,,,A*63
$GPRMC,004326.70,A,3724.51225,N,12641.82677,E,4.097,211.51,110420,,,A*63
$GPRMC,004326.90,A,3724.51225,N,12641.82677,E,4.097,211.51,110420,,,A*63
$GPRMC,004327.10,A,3724.51225,N,12641.82677,E,4.097,211.51,110420,,,A*63
$GPRMC,004327.30,A,3724.51225,N,12641.82677,E,4.097,211.51,110420,,,A*63
$GPRMC,004327.50,A,3724.51225,N,12641.82677,E,4.097,211.51,110420,,,A*63
$GPRMC,004327.70,A,3724.51225,N,12641.82677,E,4.097,211.51,110420,,,A*63
$GPRMC,004327.90,A,3724.51225,N,12641.82677,E,4.097,211.51,110420,,,A*63
$GPRMC,004328.10,A,3724.51225,N,12641.82677,E,4.097,211.51,110420,,,A*63
$GPRMC,004328.30,A,3724.51225,N,12641.82677,E,4.097,211.51,110420,,,A*63
$GPRMC,004328.50,A,3724.51225,N,12641.82677,E,4.097,211.51,110420,,,A*63
$GPRMC,004328.70,A,3724.51225,N,12641.82677,E,4.097,211.51,110420,,,A*63
$GPRMC,004328.90,A,3724.51225,N,12641.82677,E,4.097,211.51,110420,,,A*63
$GPRMC,004329.10,A,3724.51225,N,12641.82677,E,4.097,211.51,110420,,,A*63
$GPRMC,004329.30,A,3724.51225,N,12641.82677,E,4.097,211.51,110420,,,A*63
$GPRMC,004329.50,A,3724.51225,N,12641.82677,E,4.097,211.51,110420,,,A*63
$GPRMC,004329.70,A,3724.51225,N,12641.82677,E,4.097,211.51,110420,,,A*63
$GPRMC,004329.90,A,3724.51225,N,12641.82677,E,4.097,211.51,110420,,,A*63
$GPRMC,004330.10,A,3724.51225,N,12641.82677,E,4.097,211.51,110420,,,A*63
$GPRMC,004330.30,A,3724.51225,N,12641.82677,E,4.097,211.51,110420,,,A*63
$GPRMC,004330.50,A,3724.51225,N,12641.82677,E,4.097,211.51,110420,,,A*63
$GPRMC,004330.70,A,3724.51225,N,12641.82677,E,4.097,211.51,110420,,,A*63
$GPRMC,004330.90,A,3724.51225,N,12641.82677,E,4.097,211.51,110420,,,A*63
$GPRMC,004331.10,A,3724.51225,N,12641.82677,E,4.097,211.51,110420,,,A*63
$GPRMC,004331.30,A,3724.51225,N,12641.82677,E,4.097,211.51,110420,,,A*63
$GPRMC,004331.50,A,3724.51225,N,12641.82677,E,4.097,211.51,110420,,,A*63
$GPRMC,004331.70,A,3724.51225,N,12641.82677,E,4.097,211.51,110420,,,A*63
$GPRMC,004331.90,A,3724.51225,N,12641.82677,E,4.097,211.51,110420,,,A*63
$GPRMC,004332.10,A,3724.51225,N,12641.82677,E,4.097,211.51,110420,,,A*63
$GPRMC,004332.30,A,3724.51225,N,12641.82677,E,4.097,211.51,110420,,,A*63
$GPRMC,004332.50,A,3724.51225,N,12641.82677,E,4.097,211.51,110420,,,A*63
$GPRMC,004332.70,A,3724.51225,N,12641.82677,E,4.097,211.51,110420,,,A*63
$GPRMC,004332.90,A,3724.51225,N,12641.82677,E,4.097,211.51,110420,,,A*63
$GPRMC,004333.10,A,3724.51225,N,12641.82677,E,4.097,211.51,110420,,,A*63
$GPRMC,004333.30,A,3724.51225,N,12641.82677,E,4.097,211.51,110420,,,A*63
$GPRMC,004333.50,A,3724.51225,N,12641.82677,E,4.097,211.51,110420,,,A*63
$GPRMC,004333.70,A,3724.51225,N,12641.82677,E,4.097,211.51,110420,,,A*63
$GPRMC,004333.90,A,3724.51225,N,12641.82677,E,4.097,211.51,110420,,,A*63
$GPRMC,004334.10,A,3724.51225,N,12641.82677,E,4.097,211.51,110420,,,A*63
$GPRMC,004334.30,A,3724.51225,N,12641.82677,E,4.097,211.51,110420,,,A*63
$GPRMC,004334.50,A,3724.51225,N,12641.82677,E,4.097,211.51,110420,,,A*63
$GPRMC,004334.70,A,3724.51225,N,12641.82677,E,4.097,211.51,110420,,,A*63
$GPRMC,004334.90,A,3724.51225,N,12641.82677,E,4.097,211.51,110420,,,A*63
$GPRMC,004335.10,A,3724.51225,N,12641.82677,E,4.097,211.51,110420,,,A*63
$GPRMC,004335.30,A,3724.51225,N,12641.82677,E,4.097,211.51,110420,,,A*63
$GPRMC,004335.50,A,3724.51225,N,12641.82677,E,4.097,211.51,110420,,,A*63
$GPRMC,004335.70,A,3724.51225,N,12641.82677,E,4.097,211.51,110420,,,A*63
$GPRMC,004335.90,A,3724.51225,N,12641.82677,E,4.097,211.51,110420,,,A*63
$GPRMC,004336.10,A,3724.51225,N,12641.82677,E,4.097,211.51,110420,,,A*63
$GPRMC,004336.30,A,3724.51225,N,12641.82677,E,4.097,211.51,110420,,,A*63
$GPRMC,004336.50,A,3724.51225,N,12641.82677,E,4.097,211.51,110420,,,A*63
$GPRMC,004336.70,A,3724.51225,N,12641.82677,E,4.097,211.51,110420,,,A*63
$GPRMC,004336.90,A,3724.51225,N,12641.82677,E,4.097,211.51,110420,,,A*63
$GPRMC,004337.10,A,3724.51225,N,12641.82677,E,4.097,211.51,110420,,,A*63
$GPRMC,004337.30,A,3724.51225,N,12641.82677,E,4.097,211.51,110420,,,A*63
$GPRMC,004337.50,A,3724.51225,N,12641.82677,E,4.097,211.51,110420,,,A*63
$GPRMC,004337.70,A,3724.51225,N,12641.82677,E,4.097,211.51,110420,,,A*63
$GPRMC,004337.90,A,3724.51225,N,12641.82677,E,4.097,211.51,110420,,,A*63
$GPRMC,004338.10,A,3724.51225,N,12641.82677,E,4.097,211.51,110420,,,A*63
$GPRMC,004338.30,A,3724.51225,N,12641.82677,E,4.097,211.51,110420,,,A*63
$GPRMC,004338.50,A,3724.51225,N,12641.82677,E,4.097,211.51,110420,,,A*63
$GPRMC,004338.70,A,3724.51225,N,12641.82677,E,4.097,211.51,110420,,,A*63
$GPRMC,004338.90,A,3724.51225,N,12641.82677,E,4.097,211.51,110420,,,A*63
$GPRMC,004339.10,A,3724.51225,N,12641.82677,E,4.097,211.51,110420,,,A*63
$GPRMC,004339.30,A,3724.51225,N,12641.82677,E,4.097,211.51,110420,,,A*63
$GPRMC,004339.50,A,3724.51225,N,12641.82677,E,4.097,211.51,110420,,,A*63
$GPRMC,004339.70,A,3724.51225,N,12641.82677,E,4.097,211.51,110420,,,A*63
$GPRMC,004339.90,A,3724.51225,N,12641.82677,E,4.097,211.51,110420,,,A*63
$GPRMC,004340.10,A,3724.51225,N,12641.82677,E,4.097,211.51,110420,,,A*63
$GPRMC,004340.30,A,3724.51225,N,12641.82677,E,4.097,211.51,110420,,,A*63
$GPRMC,004340.50,A,3724.51225,N,12641.82677,E,4.097,211.51,110420,,,A*63
$GPRMC,004340.70,A,3724.51225,N,12641.82677,E,4.097,211.51,110420,,,A*63
$GPRMC,004340.90,A,3724.51225,N,12641.82677,E,4.097,211.51,110420,,,A*63
$GPRMC,004341.10,A,3724.51225,N,12641.82677,E,4.097,211.51,110420,,,A*63
$GPRMC,004341.30,A,3724.51225,N,12641.82677,E,4.097,211.51,110420,,,A*63
$GPRMC,004341.50,A,3724.51225,N,12641.82677,E,4.097,211.51,110420,,,A*63
$GPRMC,004341.70,A,3724.51225,N,12641.82677,E,4.097,211.51,110420,,,A*63
$GPRMC,004341.90,A,3724.51225,N,12641.82677,E,4.097,211.51,110420,,,A*63
$GPRMC,004342.10,A,3724.51225,N,12641.82677,E,4.097,211.51,110420,,,A*63
$GPRMC,004342.30,A,3724.51225,N,12641.82677,E,4.097,211.51,110420,,,A*63
$GPRMC,004342.50,A,3724.51225,N,12641.82677,E,4.097,211.51,110420,,,A*63
$GPRMC,004342.70,A,3724.51225,N,12641.82677,E,4.097,211.51,110420,,,A*63
$GPRMC,004342.90,A,3724.51225,N,12641.82677,E,4.097,211.51,110420,,,A*63
$GPRMC,004343.10,A,3724.51225,N,12641.82677,E,4.097,211.51,110420,,,A*63
$GPRMC,004343.30,A,3724.51225,N,12641.82677,E,4.097,211.51,110420,,,A*63
$GPRMC,004343.50,A,3724.51225,N,12641.82677,E,4.097,211.51,110420,,,A*63
$GPRMC,004343.70,A,3724.51225,N,12641.82677,E,4.097,211.51,110420,,,A*63
$GPRMC,004343.90,A,3724.51225,N,12641.82677,E,4.097,211.51,110420,,,A*63
$GPRMC,004344.10,A,3724.51225,N,12641.82677,E,4.097,211.51,110420,,,A*63
$GPRMC,004344.30,A,3724.51225,N,12641.82677,E,4.097,211.51,110420,,,A*63
$GPRMC,004344.50,A,3724.51225,N,12641.82677,E,4.097,211.51,110420,,,A*63
$GPRMC,004344.70,A,3724.51225,N,12641.82677,E,4.097,211.51,110420,,,A*63
$GPRMC,004344.90,A,3724.51225,N,12641.82677,E,4.097,211.51,110420,,,A*63
$GPRMC,004345.10,A,3724.51225,N,12641.82677,E,4.097,211.51,110420,,,A*63
$GPRMC,004345.30,A,3724.51225,N,12641.82677,E,4.097,211.51,110420,,,A*63
$GPRMC,004345.50,A,3724.51225,N,12641.82677,E,4.097,211.51,110420,,,A*63
$GPRMC,004345.70,A,3724.51225,N,12641.82677,E,4.097,211.51,110420,,,A*63
$GPRMC,004345.90,A,3724.51225,N,12641.82677,E,4.097,211.51,110420,,,A*63
$GPRMC,004346.10,A,3724.51225,N,12641.82677,E,4.097,211.51,110420,,,A*63
$GPRMC,004346.30,A,3724.51225,N,12641.82677,E,4.097,211.51,110420,,,A*63
$GPRMC,004346.50,A,3724.51225,N,12641.82677,E,4.097,211.51,110420,,,A*63
$GPRMC,004346.70,A,3724.51225,N,12641.82677,E,4.097,211.51,110420,,,A*63
$GPRMC,004346.90,A,3724.51225,N,12641.82677,E,4.097,211.51,110420,,,A*63
$GPRMC,004347.10,A,3724.51225,N,12641.82677,E,4.097,211.51,110420,,,A*63
$GPRMC,004347.30,A,3724.51225,N,12641.82677,E,4.097,211.51,110420,,,A*63
$GPRMC,004347.50,A,3724.51225,N,12641.82677,E,4.097,211.51,110420,,,A*63
$GPRMC,004347.70,A,3724.51225,N,12641.82677,E,4.097,211.51,110420,,,A*63
$GPRMC,004347.90,A,3724.51225,N,12641.82677,E,4.097,211.51,110420,,,A*63
$GPRMC,004348.10,A,3724.51225,N,12641.82677,E,4.097,211.51,110420,,,A*63
$GPRMC,004348.30,A,3724.51225,N,12641.82677,E,4.097,211.51,110420,,,A*63
$GPRMC,004348.50,A,3724.51225,N,12641.82677,E,4.097,211.51,110420,,,A*63
$GPRMC,004348.70,A,3724.51225,N,12641.82677,E,4.097,211.51,110420,,,A*63
$GPRMC,004348.90,A,3724.51225,N,12641.82677,E,4.097,211.51,110420,,,A*63
$GPRMC,004349.10,A,3724.51225,N,12641.82677,E,4.097,211.51,110420,,,A*63
$GPRMC,004349.30,A,3724.51225,N,12641.82677,E,4.097,211.51,110420,,,A*63
$GPRMC,004349.50,A,3724.51225,N,12641.82677,E,4.097,211.51,110420,,,A*63
$GPRMC,004349.70,A,3724.51225,N,12641.82677,E,4.097,211.51,110420,,,A*63
$GPRMC,004349.90,A,3724.51225,N,12641.82677,E,4.097,211.51,110420,,,A*63
$GPRMC,004350.10,A,3724.51225,N,12641.82677,E,4.097,211.51,110420,,,A*63
$GPRMC,004350.30,A,3724.51225,N,12641.82677,E,4.097,211.51,110420,,,A*63
$GPRMC,004350.50,A,3724.51225,N,12641.82677,E,4.097,211.51,110420,,,A*63
$GPRMC,004350.70,A,3724.51225,N,12641.82677,E,4.097,211.51,110420,,,A*63
$GPRMC,004350.90,A,3724.51225,N,12641.82677,E,4.097,211.51,110420,,,A*63
$GPRMC,004351.10,A,3724.51225,N,12641.82677,E,4.097,211.51,110420,,,A*63
$GPRMC,004351.30,A,3724.51225,N,12641.82677,E,4.097,211.51,110420,,,A*63
$GPRMC,004351.50,A,3724.51225,N,12641.82677,E,4.097,211.51,110420,,,A*63
$GPRMC,004351.70,A,3724.51225,N,12641.82677,E,4.097,211.51,110420,,,A*63
$GPRMC,004351.90,A,3724.51225,N,12641.82677,E,4.097,211.51,110420,,,A*63
$GPRMC,004352.10,A,3724.51225,N,12641.82677,E,4.097,211.51,110420,,,A*63
$GPRMC,004352.30,A,3724.51225,N,12641.82677,E,4.097,211.51,110420,,,A*63
$GPRMC,004352.50,A,3724.51225,N,12641.82677,E,4.097,211.51,110420,,,A*63
$GPRMC,004352.70,A,3724.51225,N,12641.82677,E,4.097,211.51,110420,,,A*63
$GPRMC,004352.90,A,3724.51225,N,12641.82677,E,4.097,211.51,110420,,,A*63
$GPRMC,004353.10,A,3724.51225,N,12641.82677,E,4.097,211.51,110420,,,A*63
$GPRMC,004353.30,A,3724.51225,N,12641.82677,E,4.097,211.51,110420,,,A*63
$GPRMC,004353.50,A,3724.51225,N,12641.82677,E,4.097,211.51,110420,,,A*63
$GPRMC,004353.70,A,3724.51225,N,12641.82677,E,4.097,211.51,110420,,,A*63
$GPRMC,004353.90,A,3724.51225,N,12641.82677,E,4.097,211.51,110420,,,A*63
$GPRMC,004354.10,A,3724.51225,N,12641.82677,E,4.097,211.51,110420,,,A*63
$GPRMC,004354.30,A,3724.51225,N,12641.82677,E,4.097,211.51,110420,,,A*63
$GPRMC,004354.50,A,3724.51225,N,12641.82677,E,4.097,211.51,110420,,,A*63
$GPRMC,004354.70,A,3724.51225,N,12641.82677,E,4.097,211.51,110420,,,A*63
$GPRMC,004354.90,A,3724.51225,N,12641.82677,E,4.097,211.51,110420,,,A*63
$GPRMC,004355.10,A,3724.51225,N,12641.82677,E,4.097,211.51,110420,,,A*63
$GPRMC,004355.30,A,3724.51225,N,12641.82677,E,4.097,211.51,110420,,,A*63
$GPRMC,004355.50,A,3724.51225,N,12641.82677,E,4.097,211.51,110420,,,A*63
$GPRMC,004355.70,A,3724.51225,N,12641.82677,E,4.097,211.51,110420,,,A*63
$GPRMC,004355.90,A,3724.51225,N,12641.82677,E,4.097,211.51,110420,,,A*63
$GPRMC,004356.10,A,3724.51225,N,12641.82677,E,4.097,211.51,110420,,,A*63
$GPRMC,004356.30,A,3724.51225,N,12641.82677,E,4.097,211.51,110420,,,A*63
$GPRMC,004356.50,A,3724.51225,N,12641.82677,E,4.097,211.51,110420,,,A*63
$GPRMC,004356.70,A,3724.51225,N,12641.82677,E,4.097,211.51,110420,,,A*63
$GPRMC,004356.90,A,3724.51225,N,12641.82677,E,4.097,211.51,110420,,,A*63
$GPRMC,004357.10,A,3724.51225,N,12641.82677,E,4.097,211.51,110420,,,A*63
$GPRMC,004357.30,A,3724.51225,N,12641.82677,E,4.097,211.51,110420,,,A*63
$GPRMC,004357.50,A,3724.51225,N,12641.82677,E,4.097,211.51,110420,,,A*63
$GPRMC,004357.70,A,3724.51225,N,12641.82677,E,4.097,211.51,110420,,,A*63
$GPRMC,004357.90,A,3724.51225,N,12641.82677,E,4.097,211.51,110420,,,A*63
$GPRMC,004358.10,A,3724.51225,N,12641.82677,E,4.097,211.51,110420,,,A*63
$GPRMC,004358.30,A,3724.51225,N,12641.82677,E,4.097,211.51,110420,,,A*63
$GPRMC,004358.50,A,3724.51225,N,12641.82677,E,4.097,211.51,110420,,,A*63
$GPRMC,004358.70,A,3724.51225,N,12641.82677,E,4.097,211.51,110420,,,A*63
$GPRMC,004358.90,A,3724.51225,N,12641.82677,E,4.097,211.51,110420,,,A*63
$GPRMC,004359.10,A,3724.51225,N,12641.82677,E,4.097,211.51,110420,,,A*63
$GPRMC,004359.30,A,3724.51225,N,12641.82677,E,4.097,211.51,110420,,,A*63
$GPRMC,004359.50,A,3724.51225,N,12641.82677,E,4.097,211.51,110420,,,A*63
$GPRMC,004359.70,A,3724.51225,N,12641.82677,E,4.097,211.51,110420,,,A*63
$GPRMC,004359.90,A,3724.51225,N,12641.82677,E,4.097,211.51,110420,,,A*63
$GPRMC,004400.10,A,3724.51225,N,12641.82677,E,4.097,211.51,110420,,,A*63
$GPRMC,004400.30,A,3724.51225,N,12641.82677,E,4.097,211.51,110420,,,A*63
$GPRMC,004400.50,A,3724.51225,N,12641.82677,E,4.097,211.51,110420,,,A*63
$GPRMC,004400.70,A,3724.51225,N,12641.82677,E,4.097,211.51,110420,,,A*63
$GPRMC,004400.90,A,3724.51225,N,12641.82677,E,4.097,211.51,110420,,,A*63
$GPRMC,004401.10,A,3724.51225,N,12641.82677,E,4.097,211.51,110420,,,A*63
$GPRMC,004401.30,A,3724.51225,N,12641.82677,E,4.097,211.51,110420,,,A*63
$GPRMC,004401.50,A,3724.51225,N,12641.82677,E,4.097,211.51,110420,,,A*63
$GPRMC,004401.70,A,3724.51225,N,12641.82677,E,4.097,211.51,110420,,,A*63
$GPRMC,004401.90,A,3724.51225,N,12641.82677,E,4.097,211.51,110420,,,A*63
$GPRMC,004402.10,A,3724.51225,N,12641.82677,E,4.097,211.51,110420,,,A*63
$GPRMC,004402.30,A,3724.51225,N,12641.82677,E,4.097,211.51,110420,,,A*63
$GPRMC,004402.50,A,3724.51225,N,12641.82677,E,4.097,211.51,110420,,,A*63
$GPRMC,004402.70,A,3724.51225,N,12641.82677,E,4.097,211.51,110420,,,A*63
$GPRMC,004402.90,A,3724.51225,N,12641.82677,E,4.097,211.51,110420,,,A*63
$GPRMC,004403.10,A,3724.51225,N,12641.82677,E,4.097,211.51,110420,,,A*63
$GPRMC,004403.30,A,3724.51225,N,12641.82677,E,4.097,211.51,110420,,,A*63
$GPRMC,004403.50,A,3724.51225,N,12641.82677,E,4.097,211.51,110420,,,A*63
$GPRMC,004403.70,A,3724.51225,N,12641.82677,E,4.097,211.51,110420,,,A*63
$GPRMC,004403.90,A,3724.51225,N,12641.82677,E,4.097,211.51,110420,,,A*63
$GPRMC,004404.10,A,3724.51225,N,12641.82677,E,4.097,211.51,110420,,,A*63
$GPRMC,004404.30,A,3724.51225,N,12641.82677,E,4.097,211.51,110420,,,A*63
$GPRMC,004404.50,A,3724.51225,N,12641.82677,E,4.097,211.51,110420,,,A*63
$GPRMC,004404.70,A,3724.51225,N,12641.82677,E,4.097,211.51,110420,,,A*63
$GPRMC,004404.90,A,3724.51225,N,12641.82677,E,4.097,211.51,110420,,,A*63
$GPRMC,004405.10,A,3724.51225,N,12641.82677,E,4.097,211.51,110420,,,A*63
$GPRMC,004405.30,A,3724.51225,N,12641.82677,E,4.097,211.51,110420,,,A*63
$GPRMC,004405.50,A,3724.51225,N,12641.82677,E,4.097,211.51,110420,,,A*63
$GPRMC,004405.70,A,3724.51225,N,12641.82677,E,4.097,211.51,110420,,,A*63
$GPRMC,004405.90,A,3724.51225,N,12641.82677,E,4.097,211.51,110420,,,A*63
$GPRMC,004406.10,A,3724.51225,N,12641.82677,E,4.097,211.51,110420,,,A*63
$GPRMC,004406.30,A,3724.51225,N,12641.82677,E,4.097,211.51,110420,,,A*63
$GPRMC,004406.50,A,3724.51225,N,12641.82677,E,4.097,211.51,110420,,,A*63
$GPRMC,004406.70,A,3724.51225,N,12641.82677,E,4.097,211.51,110420,,,A*63
$GPRMC,004406.90,A,3724.51225,N,12641.82677,E,4.097,211.51,110420,,,A*63
$GPRMC,004407.10,A,3724.51225,N,12641.82677,E,4.097,211.51,110420,,,A*63
$GPRMC,004407.30,A,3724.51225,N,12641.82677,E,4.097,211.51,110420,,,A*63
$GPRMC,004407.50,A,3724.51225,N,12641.82677,E,4.097,211.51,110420,,,A*63
$GPRMC,004407.70,A,3724.51225,N,12641.82677,E,4.097,211.51,110420,,,A*63
$GPRMC,004407.90,A,3724.51225,N,12641.82677,E,4.097,211.51,110420,,,A*63
$GPRMC,004408.10,A,3724.51225,N,12641.82677,E,4.097,211.51,110420,,,A*63
$GPRMC,004408.30,A,3724.51225,N,12641.82677,E,4.097,211.51,110420,,,A*63
$GPRMC,004408.50,A,3724.51225,N,12641.82677,E,4.097,211.51,110420,,,A*63
$GPRMC,004408.70,A,3724.51225,N,12641.82677,E,4.097,211.51,110420,,,A*63
$GPRMC,004408.90,A,3724.51225,N,12641.82677,E,4.097,211.51,110420,,,A*63
$GPRMC,004409.10,A,3724.51225,N,12641.82677,E,4.097,211.51,110420,,,A*63
$GPRMC,004409.30,A,3724.51225,N,12641.82677,E,4.097,211.51,110420,,,A*63
$GPRMC,004409.50,A,3724.51225,N,12641.82677,E,4.097,211.51,110420,,,A*63
$GPRMC,004409.70,A,3724.51225,N,12641.82677,E,4.097,211.51,110420,,,A*63
$GPRMC,004409.90,A,3724.51225,N,12641.82677,E,4.097,211.51,110420,,,A*63
$GPRMC,004410.10,A,3724.51225,N,12641.82677,E,4.097,211.51,110420,,,A*63
$GPRMC,004410.30,A,3724.51225,N,12641.82677,E,4.097,211.51,110420,,,A*63
$GPRMC,004410.50,A,3724.51225,N,12641.82677,E,4.097,211.51,110420,,,A*63
$GPRMC,004410.70,A,3724.51225,N,12641.82677,E,4.097,211.51,110420,,,A*63
$GPRMC,004410.90,A,3724.51225,N,12641.82677,E,4.097,211.51,110420,,,A*63
$GPRMC,004411.10,A,3724.51225,N,12641.82677,E,4.097,211.51,110420,,,A*63
$GPRMC,004411.30,A,3724.51225,N,12641.82677,E,4.097,211.51,110420,,,A*63
$GPRMC,004411.50,A,3724.51225,N,12641.82677,E,4.097,211.51,110420,,,A*63
$GPRMC,004411.70,A,3724.51225,N,12641.82677,E,4.097,211.51,110420,,,A*63
$GPRMC,004411.90,A,3724.51225,N,12641.82677,E,4.097,211.51,110420,,,A*63
$GPRMC,004412.10,A,3724.51225,N,12641.82677,E,4.097,211.51,110420,,,A*63
$GPRMC,004412.30,A,3724.51225,N,12641.82677,E,4.097,211.51,110420,,,A*63
$GPRMC,004412.50,A,3724.51225,N,12641.82677,E,4.097,211.51,110420,,,A*63
$GPRMC,004412.70,A,3724.51225,N,12641.82677,E,4.097,211.51,110420,,,A*63
$GPRMC,004412.90,A,3724.51225,N,12641.82677,E,4.097,211.51,110420,,,A*63
$GPRMC,004413.10,A,3724.51225,N,12641.82677,E,4.097,211.51,110420,,,A*63
$GPRMC,004413.30,A,3724.51225,N,12641.82677,E,4.097,211.51,110420,,,A*63
$GPRMC,004413.50,A,3724.51225,N,12641.82677,E,4.097,211.51,110420,,,A*63
$GPRMC,004413.70,A,3724.51225,N,12641.82677,E,4.097,211.51,110420,,,A*63
$GPRMC,004413.90,A,3724.51225,N,12641.82677,E,4.097,211.51,110420,,,A*63
$GPRMC,004414.10,A,3724.51225,N,12641.82677,E,4.097,211.51,110420,,,A*63
$GPRMC,004414.30,A,3724.51225,N,12641.82677,E,4.097,211.51,110420,,,A*63
$GPRMC,004414.50,A,3724.51225,N,12641.82677,E,4.097,211.51,110420,,,A*63
$GPRMC,004414.70,A,3724.51225,N,12641.82677,E,4.097,211.51,110420,,,A*63
$GPRMC,004414.90,A,3724.51225,N,12641.82677,E,4.097,211.51,110420,,,A*63
$GPRMC,004415.10,A,3724.51225,N,12641.82677,E,4.097,211.51,110420,,,A*63
$GPRMC,004415.30,A,3724.51225,N,12641.82677,E,4.097,211.51,110420,,,A*63
$GPRMC,004415.50,A,3724.51225,N,12641.82677,E,4.097,211.51,110420,,,A*63
$GPRMC,004415.70,A,3724.51225,N,12641.82677,E,4.097,211.51,110420,,,A*63
$GPRMC,004415.90,A,3724.51225,N,12641.82677,E,4.097,211.51,110420,,,A*63
$GPRMC,004416.10,A,3724.51225,N,12641.82677,E,4.097,211.51,110420,,,A*63
$GPRMC,004416.30,A,3724.51225,N,12641.82677,E,4.097,211.51,110420,,,A*63
$GPRMC,004416.50,A,3724.51225,N,12641.82677,E,4.097,211.51,110420,,,A*63
$GPRMC,004416.70,A,3724.51225,N,12641.82677,E,4.097,211.51,110420,,,A*63
$GPRMC,004416.90,A,3724.51225,N,12641.82677,E,4.097,211.51,110420,,,A*63
$GPRMC,004417.10,A,3724.51225,N,12641.82677,E,4.097,211.51,110420,,,A*63
$GPRMC,004417.30,A,3724.51225,N,12641.82677,E,4.097,211.51,110420,,,A*63
$GPRMC,004417.50,A,3724.51225,N,12641.82677,E,4.097,211.51,110420,,,A*63
$GPRMC,004417.70,A,3724.51225,N,12641.82677,E,4.097,211.51,110420,,,A*63
$GPRMC,004417.90,A,3724.51225,N,12641.82677,E,4.097,211.51,110420,,,A*63
$GPRMC,004418.10,A,3724.51225,N,12641.82677,E,4.097,211.51,110420,,,A*63
$GPRMC,004418.30,A,3724.51225,N,12641.82677,E,4.097,211.51,110420,,,A*63
$GPRMC,004418.50,A,3724.51225,N,12641.82677,E,4.097,211.51,110420,,,A*63
$GPRMC,004418.70,A,3724.51225,N,12641.82677,E,4.097,211.51,110420,,,A*63
$GPRMC,004418.90,A,3724.51225,N,12641.82677,E,4.097,211.51,110420,,,A*63
$GPRMC,004419.10,A,3724.51225,N,12641.82677,E,4.097,211.51,110420,,,A*63
$GPRMC,004419.30,A,3724.51225,N,12641.82677,E,4.097,211.51,110420,,,A*63
$GPRMC,004419.50,A,3724.51225,N,12641.82677,E,4.097,211.51,110420,,,A*63
$GPRMC,004419.70,A,3724.51225,N,12641.82677,E,4.097,211.51,110420,,,A*63
$GPRMC,004419.90,A,3724.51225,N,12641.82677,E,4.097,211.51,110420,,,A*63
$GPRMC,004420.10,A,3724.51225,N,12641.82677,E,4.097,211.51,110420,,,A*63
$GPRMC,004420.30,A,3724.51225,N,12641.82677,E,4.097,211.51,110420,,,A*63
$GPRMC,004420.50,A,3724.51225,N,12641.82677,E,4.097,211.51,110420,,,A*63
$GPRMC,004420.70,A,3724.51225,N,12641.82677,E,4.097,211.51,110420,,,A*63
$GPRMC,004420.90,A,3724.51225,N,12641.82677,E,4.097,211.51,110420,,,A*63
$GPRMC,004421.10,A,3724.51225,N,12641.82677,E,4.097,211.51,110420,,,A*63
$GPRMC,004421.30,A,3724.51225,N,12641.82677,E,4.097,211.51,110420,,,A*63
$GPRMC,004421.50,A,3724.51225,N,12641.82677,E,4.097,211.51,110420,,,A*63
$GPRMC,004421.70,A,3724.51225,N,12641.82677,E,4.097,211.51,110420,,,A*63
$GPRMC,004421.90,A,3724.51225,N,12641.82677,E,4.097,211.51,110420,,,A*63
$GPRMC,004422.10,A,3724.51225,N,12641.82677,E,4.097,211.51,110420,,,A*63
$GPRMC,004422.30,A,3724.51225,N,12641.82677,E,4.097,211.51,110420,,,A*63
$GPRMC,004422.50,A,3724.51225,N,12641.82677,E,4.097,211.51,110420,,,A*63
$GPRMC,004422.70,A,3724.51225,N,12641.82677,E,4.097,211.51,110420,,,A*63
$GPRMC,004422.90,A,3724.51225,N,12641.82677,E,4.097,211.51,110420,,,A*63
$GPRMC,004423.10,A,3724.51225,N,12641.82677,E,4.097,211.51,110420,,,A*63
$GPRMC,004423.30,A,3724.51225,N,12641.82677,E,4.097,211.51,110420,,,A*63
$GPRMC,004423.50,A,3724.51225,N,12641.82677,E,4.097,211.51,110420,,,A*63
$GPRMC,004423.70,A,3724.51225,N,12641.82677,E,4.097,211.51,110420,,,A*63
$GPRMC,004423.90,A,3724.51225,N,12641.82677,E,4.097,211.51,110420,,,A*63
$GPRMC,004424.10,A,3724.51225,N,12641.82677,E,4.097,211.51,110420,,,A*63
$GPRMC,004424.30,A,3724.51225,N,12641.82677,E,4.097,211.51,110420,,,A*63
$GPRMC,004424.50,A,3724.51225,N,12641.82677,E,4.097,211.51,110420,,,A*63
$GPRMC,004424.70,A,3724.51225,N,12641.82677,E,4.097,211.51,110420,,,A*63
$GPRMC,004424.90,A,3724.51225,N,12641.82677,E,4.097,211.51,110420,,,A*63
$GPRMC,004425.10,A,3724.51225,N,12641.82677,E,4.097,211.51,110420,,,A*63
$GPRMC,004425.30,A,3724.51225,N,12641.82677,E,4.097,211.51,110420,,,A*63
$GPRMC,004425.50,A,3724.51225,N,12641.82677,E,4.097,211.51,110420,,,A*63
$GPRMC,004425.70,A,3724.51225,N,12641.82677,E,4.097,211.51,110420,,,A*63
$GPRMC,004425.90,A,3724.51225,N,12641.82677,E,4.097,211.51,110420,,,A*63
$GPRMC,004426.10,A,3724.51225,N,12641.82677,E,4.097,211.51,110420,,,A*63
$GPRMC,004426.30,A,3724.51225,N,12641.82677,E,4.097,211.51,110420,,,A*63
$GPRMC,004426.50,A,3724.51225,N,12641.82677,E,4.097,211.51,110420,,,A*63
$GPRMC,004426.70,A,3724.51225,N,12641.82677,E,4.097,211.51,110420,,,A*63
$GPRMC,004426.90,A,3724.51225,N,12641.82677,E,4.097,211.51,110420,,,A*63
$GPRMC,004427.10,A,3724.51225,N,12641.82677,E,4.097,211.51,110420,,,A*63
$GPRMC,004427.30,A,3724.51225,N,12641.82677,E,4.097,211.51,110420,,,A*63
$GPRMC,004427.50,A,3724.51225,N,12641.82677,E,4.097,211.51,110420,,,A*63
$GPRMC,004427.70,A,3724.51225,N,12641.82677,E,4.097,211.51,110420,,,A*63
$GPRMC,004427.90,A,3724.51225,N,12641.82677,E,4.097,211.51,110420,,,A*63
$GPRMC,004428.10,A,3724.51225,N,12641.82677,E,4.097,211.51,110420,,,A*63
$GPRMC,004428.30,A,3724.51225,N,12641.82677,E,4.097,211.51,110420,,,A*63
$GPRMC,004428.50,A,3724.51225,N,12641.82677,E,4.097,211.51,110420,,,A*63
$GPRMC,004428.70,A,3724.51225,N,12641.82677,E,4.097,211.51,110420,,,A*63
$GPRMC,004428.90,A,3724.51225,N,12641.82677,E,4.097,211.51,110420,,,A*63
$GPRMC,004429.10,A,3724.51225,N,12641.82677,E,4.097,211.51,110420,,,A*63
$GPRMC,004429.30,A,3724.51225,N,12641.82677,E,4.097,211.51,110420,,,A*63
$GPRMC,004429.50,A,3724.51225,N,12641.82677,E,4.097,211.51,110420,,,A*63
$GPRMC,004429.70,A,3724.51225,N,12641.82677,E,4.097,211.51,110420,,,A*63
$GPRMC,004429.90,A,3724.51225,N,12641.82677,E,4.097,211.51,110420,,,A*63
$GPRMC,004430.10,A,3724.51225,N,12641.82677,E,4.097,211.51,110420,,,A*63
$GPRMC,004430.30,A,3724.51225,N,12641.82677,E,4.097,211.51,110420,,,A*63
$GPRMC,004430.50,A,3724.51225,N,12641.82677,E,4.097,211.51,110420,,,A*63
$GPRMC,004430.70,A,3724.51225,N,12641.82677,E,4.097,211.51,110420,,,A*63
$GPRMC,004430.90,A,3724.51225,N,12641.82677,E,4.097,211.51,110420,,,A*63
$GPRMC,004431.10,A,3724.51225,N,12641.82677,E,4.097,211.51,110420,,,A*63
$GPRMC,004431.30,A,3724.51225,N,12641.82677,E,4.097,211.51,110420,,,A*63
$GPRMC,004431.50,A,3724.51225,N,12641.82677,E,4.097,211.51,110420,,,A*63
$GPRMC,004431.70,A,3724.51225,N,12641.82677,E,4.097,211.51,110420,,,A*63
$GPRMC,004431.90,A,3724.51225,N,12641.82677,E,4.097,211.51,110420,,,A*63
$GPRMC,004432.10,A,3724.51225,N,12641.82677,E,4.097,211.51,110420,,,A*63
$GPRMC,004432.30,A,3724.51225,N,12641.82677,E,4.097,211.51,110420,,,A*63
$GPRMC,004432.50,A,3724.51225,N,12641.82677,E,4.097,211.51,110420,,,A*63
$GPRMC,004432.70,A,3724.51225,N,12641.82677,E,4.097,211.51,110420,,,A*63
$GPRMC,004432.90,A,3724.51225,N,12641.82677,E,4.097,211.51,110420,,,A*63
$GPRMC,004433.10,A,3724.51225,N,12641.82677,E,4.097,211.51,110420,,,A*63
$GPRMC,004433.30,A,3724.51225,N,12641.82677,E,4.097,211.51,110420,,,A*63
$GPRMC,004433.50,A,3724.51225,N,12641.82677,E,4.097,211.51,110420,,,A*63
$GPRMC,004433.70,A,3724.51225,N,12641.82677,E,4.097,211.51,110420,,,A*63
$GPRMC,004433.90,A,3724.51225,N,12641.82677,E,4.097,211.51,110420,,,A*63
$GPRMC,004434.10,A,3724.51225,N,12641.82677,E,4.097,211.51,110420,,,A*63
$GPRMC,004434.30,A,3724.51225,N,12641.82677,E,4.097,211.51,110420,,,A*63
$GPRMC,004434.50,A,3724.51225,N,12641.82677,E,4.097,211.51,110420,,,A*63
$GPRMC,004434.70,A,3724.51225,N,12641.82677,E,4.097,211.51,110420,,,A*63
$GPRMC,004434.90,A,3724.51225,N,12641.82677,E,4.097,211.51,110420,,,A*63
$GPRMC,004435.10,A,3724.51225,N,12641.82677,E,4.097,211.51,110420,,,A*63
$GPRMC,004435.30,A,3724.51225,N,12641.82677,E,4.097,211.51,110420,,,A*63
$GPRMC,004435.50,A,3724.51225,N,12641.82677,E,4.097,211.51,110420,,,A*63
$GPRMC,004435.70,A,3724.51225,N,12641.82677,E,4.097,211.51,110420,,,A*63
$GPRMC,004435.90,A,3724.51225,N,12641.82677,E,4.097,211.51,110420,,,A*63
$GPRMC,004436.10,A,3724.51225,N,12641.82677,E,4.097,211.51,110420,,,A*63
$GPRMC,004436.30,A,3724.51225,N,12641.82677,E,4.097,211.51,110420,,,A*63
$GPRMC,004436.50,A,3724.51225,N,12641.82677,E,4.097,211.51,110420,,,A*63
$GPRMC,004436.70,A,3724.51225,N,12641.82677,E,4.097,211.51,110420,,,A*63
$GPRMC,004436.90,A,3724.51225,N,12641.82677,E,4.097,211.51,110420,,,A*63
$GPRMC,004437.10,A,3724.51225,N,12641.82677,E,4.097,211.51,110420,,,A*63
$GPRMC,004437.30,A,3724.51225,N,12641.82677,E,4.097,211.51,110420,,,A*63
$GPRMC,004437.50,A,3724.51225,N,12641.82677,E,4.097,211.51,110420,,,A*63
$GPRMC,004437.70,A,3724.51225,N,12641.82677,E,4.097,211.51,110420,,,A*63
$GPRMC,004437.90,A,3724.51225,N,12641.82677,E,4.097,211.51,110420,,,A*63
$GPRMC,004438.10,A,3724.51225,N,12641.82677,E,4.097,211.51,110420,,,A*63
$GPRMC,004438.30,A,3724.51225,N,12641.82677,E,4.097,211.51,110420,,,A*63
$GPRMC,004438.50,A,3724.51225,N,12641.82677,E,4.097,211.51,110420,,,A*63
$GPRMC,004438.70,A,3724.51225,N,12641.82677,E,4.097,211.51,110420,,,A*63
$GPRMC,004438.90,A,3724.51225,N,12641.82677,E,4.097,211.51,110420,,,A*63
$GPRMC,004439.10,A,3724.51225,N,12641.82677,E,4.097,211.51,110420,,,A*63
$GPRMC,004439.30,A,3724.51225,N,12641.82677,E,4.097,211.51,110420,,,A*63
$GPRMC,004439.50,A,3724.51225,N,12641.82677,E,4.097,211.51,110420,,,A*63
$GPRMC,004439.70,A,3724.51225,N,12641.82677,E,4.097,211.51,110420,,,A*63
$GPRMC,004439.90,A,3724.51225,N,12641.82677,E,4.097,211.51,110420,,,A*63
$GPRMC,004440.10,A,3724.51225,N,12641.82677,E,4.097,211.51,110420,,,A*63
$GPRMC,004440.30,A,3724.51225,N,12641.82677,E,4.097,211.51,110420,,,A*63
$GPRMC,004440.50,A,3724.51225,N,12641.82677,E,4.097,211.51,110420,,,A*63
$GPRMC,004440.70,A,3724.51225,N,12641.82677,E,4.097,211.51,110420,,,A*63
$GPRMC,004440.90,A,3724.51225,N,12641.82677,E,4.097,211.51,110420,,,A*63
$GPRMC,004441.10,A,3724.51225,N,12641.82677,E,4.097,211.51,110420,,,A*63
$GPRMC,004441.30,A,3724.51225,N,12641.82677,E,4.097,211.51,110420,,,A*63
$GPRMC,004441.50,A,3724.51225,N,12641.82677,E,4.097,211.51,110420,,,A*63
$GPRMC,004441.70,A,3724.51225,N,12641.82677,E,4.097,211.51,110420,,,A*63
$GPRMC,004441.90,A,3724.51225,N,12641.82677,E,4.097,211.51,110420,,,A*63
$GPRMC,004442.10,A,3724.51225,N,12641.82677,E,4.097,211.51,110420,,,A*63
$GPRMC,004442.30,A,3724.51225,N,12641.82677,E,4.097,211.51,110420,,,A*63
$GPRMC,004442.50,A,3724.51225,N,12641.82677,E,4.097,211.51,110420,,,A*63
$GPRMC,004442.70,A,3724.51225,N,12641.82677,E,4.097,211.51,110420,,,A*63
$GPRMC,004442.90,A,3724.51225,N,12641.82677,E,4.097,211.51,110420,,,A*63
$GPRMC,004443.10,A,3724.51225,N,12641.82677,E,4.097,211.51,110420,,,A*63
$GPRMC,004443.30,A,3724.51225,N,12641.82677,E,4.097,211.51,110420,,,A*63
$GPRMC,004443.50,A,3724.51225,N,12641.82677,E,4.097,211.51,110420,,,A*63
$GPRMC,004443.70,A,3724.51225,N,12641.82677,E,4.097,211.51,110420,,,A*63
$GPRMC,004443.90,A,3724.51225,N,12641.82677,E,4.097,211.51,110420,,,A*63
$GPRMC,004444.10,A,3724.51225,N,12641.82677,E,4.097,211.51,110420,,,A*63
$GPRMC,004444.30,A,3724.51225,N,12641.82677,E,4.097,211.51,110420,,,A*63
$GPRMC,004444.50,A,3724.51225,N,12641.82677,E,4.097,211.51,110420,,,A*63
$GPRMC,004444.70,A,3724.51225,N,12641.82677,E,4.097,211.51,110420,,,A*63
$GPRMC,004444.90,A,3724.51225,N,12641.82677,E,4.097,211.51,110420,,,A*63
$GPRMC,004445.10,A,3724.51225,N,12641.82677,E,4.097,211.51,110420,,,A*63
$GPRMC,004445.30,A,3724.51225,N,12641.82677,E,4.097,211.51,110420,,,A*63
$GPRMC,004445.50,A,3724.51225,N,12641.82677,E,4.097,211.51,110420,,,A*63
$GPRMC,004445.70,A,3724.51225,N,12641.82677,E,4.097,211.51,110420,,,A*63
$GPRMC,004445.90,A,3724.51225,N,12641.82677,E,4.097,211.51,110420,,,A*63
$GPRMC,004446.10,A,3724.51225,N,12641.82677,E,4.097,211.51,110420,,,A*63
$GPRMC,004446.30,A,3724.51225,N,12641.82677,E,4.097,211.51,110420,,,A*63
$GPRMC,004446.50,A,3724.51225,N,12641.82677,E,4.097,211.51,110420,,,A*63
$GPRMC,004446.70,A,3724.51225,N,12641.82677,E,4.097,211.51,110420,,,A*63
$GPRMC,004446.90,A,3724.51225,N,12641.82677,E,4.097,211.51,110420,,,A*63
$GPRMC,004447.10,A,3724.51225,N,12641.82677,E,4.097,211.51,110420,,,A*63
$GPRMC,004447.30,A,3724.51225,N,12641.82677,E,4.097,211.51,110420,,,A*63
$GPRMC,004447.50,A,3724.51225,N,12641.82677,E,4.097,211.51,110420,,,A*63
$GPRMC,004447.70,A,3724.51225,N,12641.82677,E,4.097,211.51,110420,,,A*63
$GPRMC,004447.90,A,3724.51225,N,12641.82677,E,4.097,211.51,110420,,,A*63
$GPRMC,004448.10,A,3724.51225,N,12641.82677,E,4.097,211.51,110420,,,A*63
$GPRMC,004448.30,A,3724.51225,N,12641.82677,E,4.097,211.51,110420,,,A*63
$GPRMC,004448.50,A,3724.51225,N,12641.82677,E,4.097,211.51,110420,,,A*63
$GPRMC,004448.70,A,3724.51225,N,12641.82677,E,4.097,211.51,110420,,,A*63
$GPRMC,004448.90,A,3724.51225,N,12641.82677,E,4.097,211.51,110420,,,A*63
$GPRMC,004449.10,A,3724.51225,N,12641.82677,E,4.097,211.51,110420,,,A*63
$GPRMC,004449.30,A,3724.51225,N,12641.82677,E,4.097,211.51,110420,,,A*63
$GPRMC,004449.50,A,3724.51225,N,12641.82677,E,4.097,211.51,110420,,,A*63
$GPRMC,004449.70,A,3724.51225,N,12641.82677,E,4.097,211.51,110420,,,A*63
$GPRMC,004449.90,A,3724.51225,N,12641.82677,E,4.097,211.51,110420,,,A*63
$GPRMC,004450.10,A,3724.51225,N,12641.82677,E,4.097,211.51,110420,,,A*63
$GPRMC,004450.30,A,3724.51225,N,12641.82677,E,4.097,211.51,110420,,,A*63
$GPRMC,004450.50,A,3724.51225,N,12641.82677,E,4.097,211.51,110420,,,A*63
$GPRMC,004450.70,A,3724.51225,N,12641.82677,E,4.097,211.51,110420,,,A*63
$GPRMC,004450.90,A,3724.51225,N,12641.82677,E,4.097,211.51,110420,,,A*63
$GPRMC,004451.10,A,3724.51225,N,12641.82677,E,4.097,211.51,110420,,,A*63
$GPRMC,004451.30,A,3724.51225,N,12641.82677,E,4.097,211.51,110420,,,A*63
$GPRMC,004451.50,A,3724.51225,N,12641.82677,E,4.097,211.51,110420,,,A*63
$GPRMC,004451.70,A,3724.51225,N,12641.82677,E,4.097,211.51,110420,,,A*63
$GPRMC,004451.90,A,3724.51225,N,12641.82677,E,4.097,211.51,110420,,,A*63
$GPRMC,004452.10,A,3724.51225,N,12641.82677,E,4.097,211.51,110420,,,A*63
$GPRMC,004452.30,A,3724.51225,N,12641.82677,E,4.097,211.51,110420,,,A*63
$GPRMC,004452.50,A,3724.51225,N,12641.82677,E,4.097,211.51,110420,,,A*63
$GPRMC,004452.70,A,3724.51225,N,12641.82677,E,4.097,211.51,110420,,,A*63
$GPRMC,004452.90,A,3724.51225,N,12641.82677,E,4.097,211.51,110420,,,A*63
$GPRMC,004453.10,A,3724.51225,N,12641.82677,E,4.097,211.51,110420,,,A*63
$GPRMC,004453.30,A,3724.51225,N,12641.82677,E,4.097,211.51,110420,,,A*63
$GPRMC,004453.50,A,3724.51225,N,12641.82677,E,4.097,211.51,110420,,,A*63
$GPRMC,004453.70,A,3724.51225,N,12641.82677,E,4.097,211.51,110420,,,A*63
$GPRMC,004453.90,A,3724.51225,N,12641.82677,E,4.097,211.51,110420,,,A*63
$GPRMC,004454.10,A,3724.51225,N,12641.82677,E,4.097,211.51,110420,,,A*63
$GPRMC,004454.30,A,3724.51225,N,12641.82677,E,4.097,211.51,110420,,,A*63
$GPRMC,004454.50,A,3724.51225,N,12641.82677,E,4.097,211.51,110420,,,A*63
$GPRMC,004454.70,A,3724.51225,N,12641.82677,E,4.097,211.51,110420,,,A*63
$GPRMC,004454.90,A,3724.51225,N,12641.82677,E,4.097,211.51,110420,,,A*63
$GPRMC,004455.10,A,3724.51225,N,12641.82677,E,4.097,211.51,110420,,,A*63
$GPRMC,004455.30,A,3724.51225,N,12641.82677,E,4.097,211.51,110420,,,A*63
$GPRMC,004455.50,A,3724.51225,N,12641.82677,E,4.097,211.51,110420,,,A*63
$GPRMC,004455.70,A,3724.51225,N,12641.82677,E,4.097,211.51,110420,,,A*63
$GPRMC,004455.90,A,3724.51225,N,12641.82677,E,4.097,211.51,110420,,,A*63
$GPRMC,004456.10,A,3724.51225,N,12641.82677,E,4.097,211.51,110420,,,A*63
$GPRMC,004456.30,A,3724.51225,N,12641.82677,E,4.097,211.51,110420,,,A*63
$GPRMC,004456.50,A,3724.51225,N,12641.82677,E,4.097,211.51,110420,,,A*63
$GPRMC,004456.70,A,3724.51225,N,12641.82677,E,4.097,211.51,110420,,,A*63
$GPRMC,004456.90,A,3724.51225,N,12641.82677,E,4.097,211.51,110420,,,A*63
$GPRMC,004457.10,A,3724.51225,N,12641.82677,E,4.097,211.51,110420,,,A*63
$GPRMC,004457.30,A,3724.51225,N,12641.82677,E,4.097,211.51,110420,,,A*63
$GPRMC,004457.50,A,3724.51225,N,12641.82677,E,4.097,211.51,110420,,,A*63
$GPRMC,004457.70,A,3724.51225,N,12641.82677,E,4.097,211.51,110420,,,A*63
$GPRMC,004457.90,A,3724.51225,N,12641.82677,E,4.097,211.51,110420,,,A*63
$GPRMC,004458.10,A,3724.51225,N,12641.82677,E,4.097,211.51,110420,,,A*63
$GPRMC,004458.30,A,3724.51225,N,12641.82677,E,4.097,211.51,110420,,,A*63
$GPRMC,004458.50,A,3724.51225,N,12641.82677,E,4.097,211.51,110420,,,A*63
$GPRMC,004458.70,A,3724.51225,N,12641.82677,E,4.097,211.51,110420,,,A*63
$GPRMC,004458.90,A,3724.51225,N,12641.82677,E,4.097,211.51,110420,,,A*63
$GPRMC,004459.10,A,3724.51225,N,12641.82677,E,4.097,211.51,110420,,,A*63
$GPRMC,004459.30,A,3724.51225,N,12641.82677,E,4.097,211.51,110420,,,A*63
$GPRMC,004459.50,A,3724.51225,N,12641.82677,E,4.097,211.51,110420,,,A*63
$GPRMC,004459.70,A,3724.51225,N,12641.82677,E,4.097,211.51,110420,,,A*63
$GPRMC,004459.90,A,3724.51225,N,12641.82677,E,4.097,211.51,110420,,,A*63
$GPRMC,004500.10,A,3724.51225,N,12641.82677,E,4.097,211.51,110420,,,A*63
$GPRMC,004500.30,A,3724.51225,N,12641.82677,E,4.097,211.51,110420,,,A*63
$GPRMC,004500.50,A,3724.51225,N,12641.82677,E,4.097,211.51,110420,,,A*63
$GPRMC,004500.70,A,3724.51225,N,12641.82677,E,4.097,211.51,110420,,,A*63
$GPRMC,004500.90,A,3724.51225,N,12641.82677,E,4.097,211.51,110420,,,A*63
$GPRMC,004501.10,A,3724.51225,N,12641.82677,E,4.097,211.51,110420,,,A*63
$GPRMC,004501.30,A,3724.51225,N,12641.82677,E,4.097,211.51,110420,,,A*63
$GPRMC,004501.50,A,3724.51225,N,12641.82677,E,4.097,211.51,110420,,,A*63
$GPRMC,004501.70,A,3724.51225,N,12641.82677,E,4.097,211.51,110420,,,A*63
$GPRMC,004501.90,A,3724.51225,N,12641.82677,E,4.097,211.51,110420,,,A*63
$GPRMC,004502.10,A,3724.51225,N,12641.82677,E,4.097,211.51,110420,,,A*63
$GPRMC,004502.30,A,3724.51225,N,12641.82677,E,4.097,211.51,110420,,,A*63
$GPRMC,004502.50,A,3724.51225,N,12641.82677,E,4.097,211.51,110420,,,A*63
$GPRMC,004502.70,A,3724.51225,N,12641.82677,E,4.097,211.51,110420,,,A*63
$GPRMC,004502.90,A,3724.51225,N,12641.82677,E,4.097,211.51,110420,,,A*63
$GPRMC,004503.10,A,3724.51225,N,12641.82677,E,4.097,211.51,110420,,,A*63
$GPRMC,004503.30,A,3724.51225,N,12641.82677,E,4.097,211.51,110420,,,A*63
$GPRMC,004503.50,A,3724.51225,N,12641.82677,E,4.097,211.51,110420,,,A*63
$GPRMC,004503.70,A,3724.51225,N,12641.82677,E,4.097,211.51,110420,,,A*63
$GPRMC,004503.90,A,3724.51225,N,12641.82677,E,4.097,211.51,110420,,,A*63
$GPRMC,004504.10,A,3724.51225,N,12641.82677,E,4.097,211.51,110420,,,A*63
$GPRMC,004504.30,A,3724.51225,N,12641.82677,E,4.097,211.51,110420,,,A*63
$GPRMC,004504.50,A,3724.51225,N,12641.82677,E,4.097,211.51,110420,,,A*63
$GPRMC,004504.70,A,3724.51225,N,12641.82677,E,4.097,211.51,110420,,,A*63
$GPRMC,004504.90,A,3724.51225,N,12641.82677,E,4.097,211.51,110420,,,A*63
$GPRMC,004505.10,A,3724.51225,N,12641.82677,E,4.097,211.51,110420,,,A*63
$GPRMC,004505.30,A,3724.51225,N,12641.82677,E,4.097,211.51,110420,,,A*63
$GPRMC,004505.50,A,3724.51225,N,12641.82677,E,4.097,211.51,110420,,,A*63
$GPRMC,004505.70,A,3724.51225,N,12641.82677,E,4.097,211.51,110420,,,A*63
$GPRMC,004505.90,A,3724.51225,N,12641.82677,E,4.097,211.51,110420,,,A*63
$GPRMC,004506.10,A,3724.51225,N,12641.82677,E,4.097,211.51,110420,,,A*63
$GPRMC,004506.30,A,3724.51225,N,12641.82677,E,4.097,211.51,110420,,,A*63
$GPRMC,004506.50,A,3724.51225,N,12641.82677,E,4.097,211.51,110420,,,A*63
$GPRMC,004506.70,A,3724.51225,N,12641.82677,E,4.097,211.51,110420,,,A*63
$GPRMC,004506.90,A,3724.51225,N,12641.82677,E,4.097,211.51,110420,,,A*63
$GPRMC,004507.10,A,3724.51225,N,12641.82677,E,4.097,211.51,110420,,,A*63
$GPRMC,004507.30,A,3724.51225,N,12641.82677,E,4.097,211.51,110420,,,A*63
$GPRMC,004507.50,A,3724.51225,N,12641.82677,E,4.097,211.51,110420,,,A*63
$GPRMC,004507.70,A,3724.51225,N,12641.82677,E,4.097,211.51,110420,,,A*63
$GPRMC,004507.90,A,3724.51225,N,12641.82677,E,4.097,211.51,110420,,,A*63
$GPRMC,004508.10,A,3724.51225,N,12641.82677,E,4.097,211.51,110420,,,A*63
$GPRMC,004508.30,A,3724.51225,N,12641.82677,E,4.097,211.51,110420,,,A*63
$GPRMC,004508.50,A,3724.51225,N,12641.82677,E,4.097,211.51,110420,,,A*63
$GPRMC,004508.70,A,3724.51225,N,12641.82677,E,4.097,211.51,110420,,,A*63
$GPRMC,004508.90,A,3724.51225,N,12641.82677,E,4.097,211.51,110420,,,A*63
$GPRMC,004509.10,A,3724.51225,N,12641.82677,E,4.097,211.51,110420,,,A*63
$GPRMC,004509.30,A,3724.51225,N,12641.82677,E,4.097,211.51,110420,,,A*63
$GPRMC,004509.50,A,3724.51225,N,12641.82677,E,4.097,211.51,110420,,,A*63
$GPRMC,004509.70,A,3724.51225,N,12641.82677,E,4.097,211.51,110420,,,A*63
$GPRMC,004509.90,A,3724.51225,N,12641.82677,E,4.097,211.51,110420,,,A*63
$GPRMC,004510.10,A,3724.51225,N,12641.82677,E,4.097,211.51,110420,,,A*63
$GPRMC,004510.30,A,3724.51225,N,12641.82677,E,4.097,211.51,110420,,,A*63
$GPRMC,004510.50,A,3724.51225,N,12641.82677,E,4.097,211.51,110420,,,A*63
$GPRMC,004510.70,A,3724.51225,N,12641.82677,E,4.097,211.51,110420,,,A*63
$GPRMC,004510.90,A,3724.51225,N,12641.82677,E,4.097,211.51,110420,,,A*63
$GPRMC,004511.10,A,3724.51225,N,12641.82677,E,4.097,211.51,110420,,,A*63
$GPRMC,004511.30,A,3724.51225,N,12641.82677,E,4.097,211.51,110420,,,A*63
$GPRMC,004511.50,A,3724.51225,N,12641.82677,E,4.097,211.51,110420,,,A*63
$GPRMC,004511.70,A,3724.51225,N,12641.82677,E,4.097,211.51,110420,,,A*63
$GPRMC,004511.90,A,3724.51225,N,12641.82677,E,4.097,211.51,110420,,,A*63
$GPRMC,004512.10,A,3724.51225,N,12641.82677,E,4.097,211.51,110420,,,A*63
$GPRMC,004512.30,A,3724.51225,N,12641.82677,E,4.097,211.51,110420,,,A*63
$GPRMC,004512.50,A,3724.51225,N,12641.82677,E,4.097,211.51,110420,,,A*63
$GPRMC,004512.70,A,3724.51225,N,12641.82677,E,4.097,211.51,110420,,,A*63
$GPRMC,004512.90,A,3724.51225,N,12641.82677,E,4.097,211.51,110420,,,A*63
$GPRMC,004513.10,A,3724.51225,N,12641.82677,E,4.097,211.51,110420,,,A*63
$GPRMC,004513.30,A,3724.51225,N,12641.82677,E,4.097,211.51,110420,,,A*63
$GPRMC,004513.50,A,3724.51225,N,12641.82677,E,4.097,211.51,110420,,,A*63
$GPRMC,004513.70,A,3724.51225,N,12641.82677,E,4.097,211.51,110420,,,A*63
$GPRMC,004513.90,A,3724.51225,N,12641.82677,E,4.097,211.51,110420,,,A*63
$GPRMC,004514.10,A,3724.51225,N,12641.82677,E,4.097,211.51,110420,,,A*63
$GPRMC,004514.30,A,3724.51225,N,12641.82677,E,4.097,211.51,110420,,,A*63
$GPRMC,004514.50,A,3724.51225,N,12641.82677,E,4.097,211.51,110420,,,A*63
$GPRMC,004514.70,A,3724.51225,N,12641.82677,E,4.097,211.51,110420,,,A*63
$GPRMC,004514.90,A,3724.51225,N,12641.82677,E,4.097,211.51,110420,,,A*63
$GPRMC,004515.10,A,3724.51225,N,12641.82677,E,4.097,211.51,110420,,,A*63
$GPRMC,004515.30,A,3724.51225,N,12641.82677,E,4.097,211.51,110420,,,A*63
$GPRMC,004515.50,A,3724.51225,N,12641.82677,E,4.097,211.51,110420,,,A*63
$GPRMC,004515.70,A,3724.51225,N,12641.82677,E,4.097,211.51,110420,,,A*63
$GPRMC,004515.90,A,3724.51225,N,12641.82677,E,4.097,211.51,110420,,,A*63
$GPRMC,004516.10,A,3724.51225,N,12641.82677,E,4.097,211.51,110420,,,A*63
$GPRMC,004516.30,A,3724.51225,N,12641.82677,E,4.097,211.51,110420,,,A*63
$GPRMC,004516.50,A,3724.51225,N,12641.82677,E,4.097,211.51,110420,,,A*63
$GPRMC,004516.70,A,3724.51225,N,12641.82677,E,4.097,211.51,110420,,,A*63
$GPRMC,004516.90,A,3724.51225,N,12641.82677,E,4.097,211.51,110420,,,A*63
$GPRMC,004517.10,A,3724.51225,N,12641.82677,E,4.097,211.51,110420,,,A*63
$GPRMC,004517.30,A,3724.51225,N,12641.82677,E,4.097,211.51,110420,,,A*63
$GPRMC,004517.50,A,3724.51225,N,12641.82677,E,4.097,211.51,110420,,,A*63
$GPRMC,004517.70,A,3724.51225,N,12641.82677,E,4.097,211.51,110420,,,A*63
$GPRMC,004517.90,A,3724.51225,N,12641.82677,E,4.097,211.51,110420,,,A*63
$GPRMC,004518.10,A,3724.51225,N,12641.82677,E,4.097,211.51,110420,,,A*63
$GPRMC,004518.30,A,3724.51225,N,12641.82677,E,4.097,211.51,110420,,,A*63
$GPRMC,004518.50,A,3724.51225,N,12641.82677,E,4.097,211.51,110420,,,A*63
$GPRMC,004518.70,A,3724.51225,N,12641.82677,E,4.097,211.51,110420,,,A*63
$GPRMC,004518.90,A,3724.51225,N,12641.82677,E,4.097,211.51,110420,,,A*63
$GPRMC,004519.10,A,3724.51225,N,12641.82677,E,4.097,211.51,110420,,,A*63
$GPRMC,004519.30,A,3724.51225,N,12641.82677,E,4.097,211.51,110420,,,A*63
$GPRMC,004519.50,A,3724.51225,N,12641.82677,E,4.097,211.51,110420,,,A*63
$GPRMC,004519.70,A,3724.51225,N,12641.82677,E,4.097,211.51,110420,,,A*63
$GPRMC,004519.90,A,3724.51225,N,12641.82677,E,4.097,211.51,110420,,,A*63
$GPRMC,004520.10,A,3724.51225,N,12641.82677,E,4.097,211.51,110420,,,A*63
$GPRMC,004520.30,A,3724.51225,N,12641.82677,E,4.097,211.51,110420,,,A*63
$GPRMC,004520.50,A,3724.51225,N,12641.82677,E,4.097,211.51,110420,,,A*63
$GPRMC,004520.70,A,3724.51225,N,12641.82677,E,4.097,211.51,110420,,,A*63
$GPRMC,004520.90,A,3724.51225,N,12641.82677,E,4.097,211.51,110420,,,A*63
$GPRMC,004521.10,A,3724.51225,N,12641.82677,E,4.097,211.51,110420,,,A*63
$GPRMC,004521.30,A,3724.51225,N,12641.82677,E,4.097,211.51,110420,,,A*63
$GPRMC,004521.50,A,3724.51225,N,12641.82677,E,4.097,211.51,110420,,,A*63
$GPRMC,004521.70,A,3724.51225,N,12641.82677,E,4.097,211.51,110420,,,A*63
$GPRMC,004521.90,A,3724.51225,N,12641.82677,E,4.097,211.51,110420,,,A*63
$GPRMC,004522.10,A,3724.51225,N,12641.82677,E,4.097,211.51,110420,,,A*63
$GPRMC,004522.30,A,3724.51225,N,12641.82677,E,4.097,211.51,110420,,,A*63
$GPRMC,004522.50,A,3724.51225,N,12641.82677,E,4.097,211.51,110420,,,A*63
$GPRMC,004522.70,A,3724.51225,N,12641.82677,E,4.097,211.51,110420,,,A*63
$GPRMC,004522.90,A,3724.51225,N,12641.82677,E,4.097,211.51,110420,,,A*63
$GPRMC,004523.10,A,3724.51225,N,12641.82677,E,4.097,211.51,110420,,,A*63
$GPRMC,004523.30,A,3724.51225,N,12641.82677,E,4.097,211.51,110420,,,A*63
$GPRMC,004523.50,A,3724.51225,N,12641.82677,E,4.097,211.51,110420,,,A*63
$GPRMC,004523.70,A,3724.51225,N,12641.82677,E,4.097,211.51,110420,,,A*63
$GPRMC,004523.90,A,3724.51225,N,12641.82677,E,4.097,211.51,110420,,,A*63
$GPRMC,004524.10,A,3724.51225,N,12641.82677,E,4.097,211.51,110420,,,A*63
$GPRMC,004524.30,A,3724.51225,N,12641.82677,E,4.097,211.51,110420,,,A*63
$GPRMC,004524.50,A,3724.51225,N,12641.82677,E,4.097,211.51,110420,,,A*63
$GPRMC,004524.70,A,3724.51225,N,12641.82677,E,4.097,211.51,110420,,,A*63
$GPRMC,004524.90,A,3724.51225,N,12641.82677,E,4.097,211.51,110420,,,A*63
$GPRMC,004525.10,A,3724.51225,N,12641.82677,E,4.097,211.51,110420,,,A*63
$GPRMC,004525.30,A,3724.51225,N,12641.82677,E,4.097,211.51,110420,,,A*63
$GPRMC,004525.50,A,3724.51225,N,12641.82677,E,4.097,211.51,110420,,,A*63
$GPRMC,004525.70,A,3724.51225,N,12641.82677,E,4.097,211.51,110420,,,A*63
$GPRMC,004525.90,A,3724.51225,N,12641.82677,E,4.097,211.51,110420,,,A*63
$GPRMC,004526.10,A,3724.51225,N,12641.82677,E,4.097,211.51,110420,,,A*63
$GPRMC,004526.30,A,3724.51225,N,12641.82677,E,4.097,211.51,110420,,,A*63
$GPRMC,004526.50,A,3724.51225,N,12641.82677,E,4.097,211.51,110420,,,A*63
$GPRMC,004526.70,A,3724.51225,N,12641.82677,E,4.097,211.51,110420,,,A*63
$GPRMC,004526.90,A,3724.51225,N,12641.82677,E,4.097,211.51,110420,,,A*63
$GPRMC,004527.10,A,3724.51225,N,12641.82677,E,4.097,211.51,110420,,,A*63
$GPRMC,004527.30,A,3724.51225,N,12641.82677,E,4.097,211.51,110420,,,A*63
$GPRMC,004527.50,A,3724.51225,N,12641.82677,E,4.097,211.51,110420,,,A*63
$GPRMC,004527.70,A,3724.51225,N,12641.82677,E,4.097,211.51,110420,,,A*63
$GPRMC,004527.90,A,3724.51225,N,12641.82677,E,4.097,211.51,110420,,,A*63
$GPRMC,004528.10,A,3724.51225,N,12641.82677,E,4.097,211.51,110420,,,A*63
$GPRMC,004528.30,A,3724.51225,N,12641.82677,E,4.097,211.51,110420,,,A*63
$GPRMC,004528.50,A,3724.51225,N,12641.82677,E,4.097,211.51,110420,,,A*63
$GPRMC,004528.70,A,3724.51225,N,12641.82677,E,4.097,211.51,110420,,,A*63
$GPRMC,004528.90,A,3724.51225,N,12641.82677,E,4.097,211.51,110420,,,A*63
$GPRMC,004529.10,A,3724.51225,N,12641.82677,E,4.097,211.51,110420,,,A*63
$GPRMC,004529.30,A,3724.51225,N,12641.82677,E,4.097,211.51,110420,,,A*63
$GPRMC,004529.50,A,3724.51225,N,12641.82677,E,4.097,211.51,110420,,,A*63
$GPRMC,004529.70,A,3724.51225,N,12641.82677,E,4.097,211.51,110420,,,A*63
$GPRMC,004529.90,A,3724.51225,N,12641.82677,E,4.097,211.51,110420,,,A*63
$GPRMC,004530.10,A,3724.51225,N,12641.82677,E,4.097,211.51,110420,,,A*63
$GPRMC,004530.30,A,3724.51225,N,12641.82677,E,4.097,211.51,110420,,,A*63
$GPRMC,004530.50,A,3724.51225,N,12641.82677,E,4.097,211.51,110420,,,A*63
$GPRMC,004530.70,A,3724.51225,N,12641.82677,E,4.097,211.51,110420,,,A*63
$GPRMC,004530.90,A,3724.51225,N,12641.82677,E,4.097,211.51,110420,,,A*63
$GPRMC,004531.10,A,3724.51225,N,12641.82677,E,4.097,211.51,110420,,,A*63
$GPRMC,004531.30,A,3724.51225,N,12641.82677,E,4.097,211.51,110420,,,A*63
$GPRMC,004531.50,A,3724.51225,N,12641.82677,E,4.097,211.51,110420,,,A*63
$GPRMC,004531.70,A,3724.51225,N,12641.82677,E,4.097,211.51,110420,,,A*63
$GPRMC,004531.90,A,3724.51225,N,12641.82677,E,4.097,211.51,110420,,,A*63
$GPRMC,004532.10,A,3724.51225,N,12641.82677,E,4.097,211.51,110420,,,A*63
$GPRMC,004532.30,A,3724.51225,N,12641.82677,E,4.097,211.51,110420,,,A*63
$GPRMC,004532.50,A,3724.51225,N,12641.82677,E,4.097,211.51,110420,,,A*63
$GPRMC,004532.70,A,3724.51225,N,12641.82677,E,4.097,211.51,110420,,,A*63
$GPRMC,004532.90,A,3724.51225,N,12641.82677,E,4.097,211.51,110420,,,A*63
$GPRMC,004533.10,A,3724.51225,N,12641.82677,E,4.097,211.51,110420,,,A*63
$GPRMC,004533.30,A,3724.51225,N,12641.82677,E,4.097,211.51,110420,,,A*63
$GPRMC,004533.50,A,3724.51225,N,12641.82677,E,4.097,211.51,110420,,,A*63
$GPRMC,004533.70,A,3724.51225,N,12641.82677,E,4.097,211.51,110420,,,A*63
$GPRMC,004533.90,A,3724.51225,N,12641.82677,E,4.097,211.51,110420,,,A*63
$GPRMC,004534.10,A,3724.51225,N,12641.82677,E,4.097,211.51,110420,,,A*63
$GPRMC,004534.30,A,3724.51225,N,12641.82677,E,4.097,211.51,110420,,,A*63
$GPRMC,004534.50,A,3724.51225,N,12641.82677,E,4.097,211.51,110420,,,A*63
$GPRMC,004534.70,A,3724.51225,N,12641.82677,E,4.097,211.51,110420,,,A*63
$GPRMC,004534.90,A,3724.51225,N,12641.82677,E,4.097,211.51,110420,,,A*63
$GPRMC,004535.10,A,3724.51225,N,12641.82677,E,4.097,211.51,110420,,,A*63
$GPRMC,004535.30,A,3724.51225,N,12641.82677,E,4.097,211.51,110420,,,A*63
$GPRMC,004535.50,A,3724.51225,N,12641.82677,E,4.097,211.51,110420,,,A*63
$GPRMC,004535.70,A,3724.51225,N,12641.82677,E,4.097,211.51,110420,,,A*63
$GPRMC,004535.90,A,3724.51225,N,12641.82677,E,4.097,211.51,110420,,,A*63
$GPRMC,004536.10,A,3724.51225,N,12641.82677,E,4.097,211.51,110420,,,A*63
$GPRMC,004536.30,A,3724.51225,N,12641.82677,E,4.097,211.51,110420,,,A*63
$GPRMC,004536.50,A,3724.51225,N,12641.82677,E,4.097,211.51,110420,,,A*63
$GPRMC,004536.70,A,3724.51225,N,12641.82677,E,4.097,211.51,110420,,,A*63
$GPRMC,004536.90,A,3724.51225,N,12641.82677,E,4.097,211.51,110420,,,A*63
$GPRMC,004537.10,A,3724.51225,N,12641.82677,E,4.097,211.51,110420,,,A*63
$GPRMC,004537.30,A,3724.51225,N,12641.82677,E,4.097,211.51,110420,,,A*63
$GPRMC,004537.50,A,3724.51225,N,12641.82677,E,4.097,211.51,110420,,,A*63
$GPRMC,004537.70,A,3724.51225,N,12641.82677,E,4.097,211.51,110420,,,A*63
$GPRMC,004537.90,A,3724.51225,N,12641.82677,E,4.097,211.51,110420,,,A*63
$GPRMC,004538.10,A,3724.51225,N,12641.82677,E,4.097,211.51,110420,,,A*63
$GPRMC,004538.30,A,3724.51225,N,12641.82677,E,4.097,211.51,110420,,,A*63
$GPRMC,004538.50,A,3724.51225,N,12641.82677,E,4.097,211.51,110420,,,A*63
$GPRMC,004538.70,A,3724.51225,N,12641.82677,E,4.097,211.51,110420,,,A*63
$GPRMC,004538.90,A,3724.51225,N,12641.82677,E,4.097,211.51,110420,,,A*63
$GPRMC,004539.10,A,3724.51225,N,12641.82677,E,4.097,211.51,110420,,,A*63
$GPRMC,004539.30,A,3724.51225,N,12641.82677,E,4.097,211.51,110420,,,A*63
$GPRMC,004539.50,A,3724.51225,N,12641.82677,E,4.097,211.51,110420,,,A*63
$GPRMC,004539.70,A,3724.51225,N,12641.82677,E,4.097,211.51,110420,,,A*63
$GPRMC,004539.90,A,3724.51225,N,12641.82677,E,4.097,211.51,110420,,,A*63
$GPRMC,004540.10,A,3724.51225,N,12641.82677,E,4.097,211.51,110420,,,A*63
$GPRMC,004540.30,A,3724.51225,N,12641.82677,E,4.097,211.51,110420,,,A*63
$GPRMC,004540.50,A,3724.51225,N,12641.82677,E,4.097,211.51,110420,,,A*63
$GPRMC,004540.70,A,3724.51225,N,12641.82677,E,4.097,211.51,110420,,,A*63
$GPRMC,004540.90,A,3724.51225,N,12641.82677,E,4.097,211.51,110420,,,A*63
$GPRMC,004541.10,A,3724.51225,N,12641.82677,E,4.097,211.51,110420,,,A*63
$GPRMC,004541.30,A,3724.51225,N,12641.82677,E,4.097,211.51,110420,,,A*63
$GPRMC,004541.50,A,3724.51225,N,12641.82677,E,4.097,211.51,110420,,,A*63
$GPRMC,004541.70,A,3724.51225,N,12641.82677,E,4.097,211.51,110420,,,A*63
$GPRMC,004541.90,A,3724.51225,N,12641.82677,E,4.097,211.51,110420,,,A*63
$GPRMC,004542.10,A,3724.51225,N,12641.82677,E,4.097,211.51,110420,,,A*63
$GPRMC,004542.30,A,3724.51225,N,12641.82677,E,4.097,211.51,110420,,,A*63
$GPRMC,004542.50,A,3724.51225,N,12641.82677,E,4.097,211.51,110420,,,A*63
$GPRMC,004542.70,A,3724.51225,N,12641.82677,E,4.097,211.51,110420,,,A*63
$GPRMC,004542.90,A,3724.51225,N,12641.82677,E,4.097,211.51,110420,,,A*63
$GPRMC,004543.10,A,3724.51225,N,12641.82677,E,4.097,211.51,110420,,,A*63
$GPRMC,004543.30,A,3724.51225,N,12641.82677,E,4.097,211.51,110420,,,A*63
$GPRMC,004543.50,A,3724.51225,N,12641.82677,E,4.097,211.51,110420,,,A*63
$GPRMC,004543.70,A,3724.51225,N,12641.82677,E,4.097,211.51,110420,,,A*63
$GPRMC,004543.90,A,3724.51225,N,12641.82677,E,4.097,211.51,110420,,,A*63
$GPRMC,004544.10,A,3724.51225,N,12641.82677,E,4.097,211.51,110420,,,A*63
$GPRMC,004544.30,A,3724.51225,N,12641.82677,E,4.097,211.51,110420,,,A*63
$GPRMC,004544.50,A,3724.51225,N,12641.82677,E,4.097,211.51,110420,,,A*63
$GPRMC,004544.70,A,3724.51225,N,12641.82677,E,4.097,211.51,110420,,,A*63
$GPRMC,004544.90,A,3724.51225,N,12641.82677,E,4.097,211.51,110420,,,A*63
