$GPRMC,004312.80,A,3724.51225,N,12641.82677,E,4.097,211.51,110420,,,A*63
$GPRMC,004313.00,A,3724.51225,N,12641.82677,E,4.097,211.51,110420,,,A*63
$GPRMC,004313.20,A,3724.51225,N,12641.82677,E,4.097,211.51,110420,,,A*63
$GPRMC,004313.40,A,3724.51225,N,12641.82677,E,4.097,211.51,110420,,,A*63
$GPRMC,004313.60,A,3724.51225,N,12641.82677,E,4.097,211.51,110420,,,A*63
$GPRMC,004313.80,A,3724.51225,N,12641.82677,E,4.097,211.51,110420,,,A*63
$GPRMC,004314.00,A,3724.51225,N,12641.82677,E,4.097,211.51,110420,,,A*63
$GPRMC,004314.20,A,3724.51225,N,12641.82677,E,4.097,211.51,110420,,,A*63
$GPRMC,004314.40,A,3724.51225,N,12641.82677,E,4.097,211.51,110420,,,A*63
$GPRMC,004314.60,A,3724.51225,N,12641.82677,E,4.097,211.51,110420,,,A*63
$GPRMC,004314.80,A,3724.51225,N,12641.82677,E,4.097,211.51,110420,,,A*63
$GPRMC,004315.00,A,3724.51225,N,12641.82677,E,4.097,211.51,110420,,,A*63
$GPRMC,004315.20,A,3724.51225,N,12641.82677,E,4.097,211.51,110420,,,A*63
$GPRMC,004315.40,A,3724.51225,N,12641.82677,E,4.097,211.51,110420,,,A*63
$GPRMC,004315.60,A,3724.51225,N,12641.82677,E,4.097,211.51,110420,,,A*63
$GPRMC,004315.80,A,3724.51225,N,12641.82677,E,4.097,211.51,110420,,,A*63
$GPRMC,004316.00,A,3724.51225,N,12641.82677,E,4.097,211.51,110420,,,A*63
$GPRMC,004316.20,A,3724.51225,N,12641.82677,E,4.097,211.51,110420,,,A*63
$GPRMC,004316.40,A,3724.51225,N,12641.82677,E,4.097,211.51,110420,,,A*63
$GPRMC,004316.60,A,3724.51225,N,12641.82677,E,4.097,211.51,110420,,,A*63
$GPRMC,004316.80,A,3724.51225,N,12641.82677,E,4.097,211.51,110420,,,A*63
$GPRMC,004317.00,A,3724.51225,N,12641.82677,E,4.097,211.51,110420,,,A*63
$GPRMC,004317.20,A,3724.51225,N,12641.82677,E,4.097,211.51,110420,,,A*63
$GPRMC,004317.40,A,3724.51225,N,12641.82677,E,4.097,211.51,110420,,,A*63
$GPRMC,004317.60,A,3724.51225,N,12641.82677,E,4.097,211.51,110420,,,A*63
$GPRMC,004317.80,A,3724.51225,N,12641.82677,E,4.097,211.51,110420,,,A*63
$GPRMC,004318.00,A,3724.51225,N,12641.82677,E,4.097,211.51,110420,,,A*63
$GPRMC,004318.20,A,3724.51225,N,12641.82677,E,4.097,211.51,110420,,,A*63
$GPRMC,004318.40,A,3724.51225,N,12641.82677,E,4.097,211.51,110420,,,A*63
$GPRMC,004318.60,A,3724.51225,N,12641.82677,E,4.097,211.51,110420,,,A*63
$GPRMC,004318.80,A,3724.51225,N,12641.82677,E,4.097,211.51,110420,,,A*63
$GPRMC,004319.00,A,3724.51225,N,12641.82677,E,4.097,211.51,110420,,,A*63
$GPRMC,004319.20,A,3724.51225,N,12641.82677,E,4.097,211.51,110420,,,A*63
$GPRMC,004319.40,A,3724.51225,N,12641.82677,E,4.097,211.51,110420,,,A*63
$GPRMC,004319.60,A,3724.51225,N,12641.82677,E,4.097,211.51,110420,,,A*63
$GPRMC,004319.80,A,3724.51225,N,12641.82677,E,4.097,211.51,110420,,,A*63
$GPRMC,004320.00,A,3724.51225,N,12641.82677,E,4.097,211.51,110420,,,A*63
$GPRMC,004320.20,A,3724.51225,N,12641.82677,E,4.097,211.51,110420,,,A*63
$GPRMC,004320.40,A,3724.51225,N,12641.82677,E,4.097,211.51,110420,,,A*63
$GPRMC,004320.60,A,3724.51225,N,12641.82677,E,4.097,211.51,110420,,,A*63
$GPRMC,004320.80,A,3724.51225,N,12641.82677,E,4.097,211.51,110420,,,A*63
$GPRMC,004321.00,A,3724.51225,N,12641.82677,E,4.097,211.51,110420,,,A*63
$GPRMC,004321.20,A,3724.51225,N,12641.82677,E,4.097,211.51,110420,,,A*63
$GPRMC,004321.40,A,3724.51225,N,12641.82677,E,4.097,211.51,110420,,,A*63
$GPRMC,004321.60,A,3724.51225,N,12641.82677,E,4.097,211.51,110420,,,A*63
$GPRMC,004321.80,A,3724.51225,N,12641.82677,E,4.097,211.51,110420,,,A*63
$GPRMC,004322.00,A,3724.51225,N,12641.82677,E,4.097,211.51,110420,,,A*63
$GPRMC,004322.20,A,3724.51225,N,12641.82677,E,4.097,211.51,110420,,,A*63
$GPRMC,004322.40,A,3724.51225,N,12641.82677,E,4.097,211.51,110420,,,A*63
$GPRMC,004322.60,A,3724.51225,N,12641.82677,E,4.097,211.51,110420,,,A*63
$GPRMC,004322.80,A,3724.51225,N,12641.82677,E,4.097,211.51,110420,,,A*63
$GPRMC,004323.00,A,3724.51225,N,12641.82677,E,4.097,211.51,110420,,,A*63
$GPRMC,004323.20,A,3724.51225,N,12641.82677,E,4.097,211.51,110420,,,A*63
$GPRMC,004323.40,A,3724.51225,N,12641.82677,E,4.097,211.51,110420,,,A*63
$GPRMC,004323.60,A,3724.51225,N,12641.82677,E,4.097,211.51,110420,,,A*63
$GPRMC,004323.80,A,3724.51225,N,12641.82677,E,4.097,211.51,110420,,,A*63
$GPRMC,004324.00,A,3724.51225,N,12641.82677,E,4.097,211.51,110420,,,A*63
$GPRMC,004324.20,A,3724.51225,N,12641.82677,E,4.097,211.51,110420,,,A*63
$GPRMC,004324.40,A,3724.51225,N,12641.82677,E,4.097,211.51,110420,,,A*63
$GPRMC,004324.60,A,3724.51225,N,12641.82677,E,4.097,211.51,110420,,,A*63
$GPRMC,004324.80,A,3724.51225,N,12641.82677,E,4.097,211.51,110420,,,A*63
$GPRMC,004325.00,A,3724.51225,N,12641.82677,E,4.097,211.51,110420,,,A*63
$GPRMC,004325.20,A,3724.51225,N,12641.82677,E,4.097,211.51,110420,,,A*63
$GPRMC,004325.40,A,3724.51225,N,12641.82677,E,4.097,211.51,110420,,,A*63
$GPRMC,004325.60,A,3724.51225,N,12641.82677,E,4.097,211.51,110420,,,A*63
$GPRMC,004325.80,A,3724.51225,N,12641.82677,E,4.097,211.51,110420,,,A*63
$GPRMC,004326.00,A,3724.51225,N,12641.82677,E,4.097,211.51,110420,,,A*63
$GPRMC,004326.20,A,3724.51225,N,12641.82677,E,4.097,211.51,110420,,,A*63
$GPRMC,004326.40,A,3724.51225,N,12641.82677,E,4.097,211.51,110420,,,A*63
$GPRMC,004326.60,A,3724.51225,N,12641.82677,E,4.097,211.51,110420,,,A*63
$GPRMC,004326.80,A,3724.51225,N,12641.82677,E,4.097,211.51,110420,,,A*63
$GPRMC,004327.00,A,3724.51225,N,12641.82677,E,4.097,211.51,110420,,,A*63
$GPRMC,004327.20,A,3724.51225,N,12641.82677,E,4.097,211.51,110420,,,A*63
$GPRMC,004327.40,A,3724.51225,N,12641.82677,E,4.097,211.51,110420,,,A*63
$GPRMC,004327.60,A,3724.51225,N,12641.82677,E,4.097,211.51,110420,,,A*63
$GPRMC,004327.80,A,3724.51225,N,12641.82677,E,4.097,211.51,110420,,,A*63
$GPRMC,004328.00,A,3724.51225,N,12641.82677,E,4.097,211.51,110420,,,A*63
$GPRMC,004328.20,A,3724.51225,N,12641.82677,E,4.097,211.51,110420,,,A*63
$GPRMC,004328.40,A,3724.51225,N,12641.82677,E,4.097,211.51,110420,,,A*63
$GPRMC,004328.60,A,3724.51225,N,12641.82677,E,4.097,211.51,110420,,,A*63
$GPRMC,004328.80,A,3724.51225,N,12641.82677,E,4.097,211.51,110420,,,A*63
$GPRMC,004329.00,A,3724.51225,N,12641.82677,E,4.097,211.51,110420,,,A*63
$GPRMC,004329.20,A,3724.51225,N,12641.82677,E,4.097,211.51,110420,,,A*63
$GPRMC,004329.40,A,3724.51225,N,12641.82677,E,4.097,211.51,110420,,,A*63
$GPRMC,004329.60,A,3724.51225,N,12641.82677,E,4.097,211.51,110420,,,A*63
$GPRMC,004329.80,A,3724.51225,N,12641.82677,E,4.097,211.51,110420,,,A*63
$GPRMC,004330.00,A,3724.51225,N,12641.82677,E,4.097,211.51,110420,,,A*63
$GPRMC,004330.20,A,3724.51225,N,12641.82677,E,4.097,211.51,110420,,,A*63
$GPRMC,004330.40,A,3724.51225,N,12641.82677,E,4.097,211.51,110420,,,A*63
$GPRMC,004330.60,A,3724.51225,N,12641.82677,E,4.097,211.51,110420,,,A*63
$GPRMC,004330.80,A,3724.51225,N,12641.82677,E,4.097,211.51,110420,,,A*63
$GPRMC,004331.00,A,3724.51225,N,12641.82677,E,4.097,211.51,110420,,,A*63
$GPRMC,004331.20,A,3724.51225,N,12641.82677,E,4.097,211.51,110420,,,A*63
$GPRMC,004331.40,A,3724.51225,N,12641.82677,E,4.097,211.51,110420,,,A*63
$GPRMC,004331.60,A,3724.51225,N,12641.82677,E,4.097,211.51,110420,,,A*63
$GPRMC,004331.80,A,3724.51225,N,12641.82677,E,4.097,211.51,110420,,,A*63
$GPRMC,004332.00,A,3724.51225,N,12641.82677,E,4.097,211.51,110420,,,A*63
$GPRMC,004332.20,A,3724.51225,N,12641.82677,E,4.097,211.51,110420,,,A*63
$GPRMC,004332.40,A,3724.51225,N,12641.82677,E,4.097,211.51,110420,,,A*63
$GPRMC,004332.60,A,3724.51225,N,12641.82677,E,4.097,211.51,110420,,,A*63
$GPRMC,004332.80,A,3724.51225,N,12641.82677,E,4.097,211.51,110420,,,A*63
$GPRMC,004333.00,A,3724.51225,N,12641.82677,E,4.097,211.51,110420,,,A*63
$GPRMC,004333.20,A,3724.51225,N,12641.82677,E,4.097,211.51,110420,,,A*63
$GPRMC,004333.40,A,3724.51225,N,12641.82677,E,4.097,211.51,110420,,,A*63
$GPRMC,004333.60,A,3724.51225,N,12641.82677,E,4.097,211.51,110420,,,A*63
$GPRMC,004333.80,A,3724.51225,N,12641.82677,E,4.097,211.51,110420,,,A*63
$GPRMC,004334.00,A,3724.51225,N,12641.82677,E,4.097,211.51,110420,,,A*63
$GPRMC,004334.20,A,3724.51225,N,12641.82677,E,4.097,211.51,110420,,,A*63
$GPRMC,004334.40,A,3724.51225,N,12641.82677,E,4.097,211.51,110420,,,A*63
$GPRMC,004334.60,A,3724.51225,N,12641.82677,E,4.097,211.51,110420,,,A*63
$GPRMC,004334.80,A,3724.51225,N,12641.82677,E,4.097,211.51,110420,,,A*63
$GPRMC,004335.00,A,3724.51225,N,12641.82677,E,4.097,211.51,110420,,,A*63
$GPRMC,004335.20,A,3724.51225,N,12641.82677,E,4.097,211.51,110420,,,A*63
$GPRMC,004335.40,A,3724.51225,N,12641.82677,E,4.097,211.51,110420,,,A*63
$GPRMC,004335.60,A,3724.51225,N,12641.82677,E,4.097,211.51,110420,,,A*63
$GPRMC,004335.80,A,3724.51225,N,12641.82677,E,4.097,211.51,110420,,,A*63
$GPRMC,004336.00,A,3724.51225,N,12641.82677,E,4.097,211.51,110420,,,A*63
$GPRMC,004336.20,A,3724.51225,N,12641.82677,E,4.097,211.51,110420,,,A*63
$GPRMC,004336.40,A,3724.51225,N,12641.82677,E,4.097,211.51,110420,,,A*63
$GPRMC,004336.60,A,3724.51225,N,12641.82677,E,4.097,211.51,110420,,,A*63
$GPRMC,004336.80,A,3724.51225,N,12641.82677,E,4.097,211.51,110420,,,A*63
$GPRMC,004337.00,A,3724.51225,N,12641.82677,E,4.097,211.51,110420,,,A*63
$GPRMC,004337.20,A,3724.51225,N,12641.82677,E,4.097,211.51,110420,,,A*63
$GPRMC,004337.40,A,3724.51225,N,12641.82677,E,4.097,211.51,110420,,,A*63
$GPRMC,004337.60,A,3724.51225,N,12641.82677,E,4.097,211.51,110420,,,A*63
$GPRMC,004337.80,A,3724.51225,N,12641.82677,E,4.097,211.51,110420,,,A*63
$GPRMC,004338.00,A,3724.51225,N,12641.82677,E,4.097,211.51,110420,,,A*63
$GPRMC,004338.20,A,3724.51225,N,12641.82677,E,4.097,211.51,110420,,,A*63
$GPRMC,004338.40,A,3724.51225,N,12641.82677,E,4.097,211.51,110420,,,A*63
$GPRMC,004338.60,A,3724.51225,N,12641.82677,E,4.097,211.51,110420,,,A*63
$GPRMC,004338.80,A,3724.51225,N,12641.82677,E,4.097,211.51,110420,,,A*63
$GPRMC,004339.00,A,3724.51225,N,12641.82677,E,4.097,211.51,110420,,,A*63
$GPRMC,004339.20,A,3724.51225,N,12641.82677,E,4.097,211.51,110420,,,A*63
$GPRMC,004339.40,A,3724.51225,N,12641.82677,E,4.097,211.51,110420,,,A*63
$GPRMC,004339.60,A,3724.51225,N,12641.82677,E,4.097,211.51,110420,,,A*63
$GPRMC,004339.80,A,3724.51225,N,12641.82677,E,4.097,211.51,110420,,,A*63
$GPRMC,004340.00,A,3724.51225,N,12641.82677,E,4.097,211.51,110420,,,A*63
$GPRMC,004340.20,A,3724.51225,N,12641.82677,E,4.097,211.51,110420,,,A*63
$GPRMC,004340.40,A,3724.51225,N,12641.82677,E,4.097,211.51,110420,,,A*63
$GPRMC,004340.60,A,3724.51225,N,12641.82677,E,4.097,211.51,110420,,,A*63
$GPRMC,004340.80,A,3724.51225,N,12641.82677,E,4.097,211.51,110420,,,A*63
$GPRMC,004341.00,A,3724.51225,N,12641.82677,E,4.097,211.51,110420,,,A*63
$GPRMC,004341.20,A,3724.51225,N,12641.82677,E,4.097,211.51,110420,,,A*63
$GPRMC,004341.40,A,3724.51225,N,12641.82677,E,4.097,211.51,110420,,,A*63
$GPRMC,004341.60,A,3724.51225,N,12641.82677,E,4.097,211.51,110420,,,A*63
$GPRMC,004341.80,A,3724.51225,N,12641.82677,E,4.097,211.51,110420,,,A*63
$GPRMC,004342.00,A,3724.51225,N,12641.82677,E,4.097,211.51,110420,,,A*63
$GPRMC,004342.20,A,3724.51225,N,12641.82677,E,4.097,211.51,110420,,,A*63
$GPRMC,004342.40,A,3724.51225,N,12641.82677,E,4.097,211.51,110420,,,A*63
$GPRMC,004342.60,A,3724.51225,N,12641.82677,E,4.097,211.51,110420,,,A*63
$GPRMC,004342.80,A,3724.51225,N,12641.82677,E,4.097,211.51,110420,,,A*63
$GPRMC,004343.00,A,3724.51225,N,12641.82677,E,4.097,211.51,110420,,,A*63
$GPRMC,004343.20,A,3724.51225,N,12641.82677,E,4.097,211.51,110420,,,A*63
$GPRMC,004343.40,A,3724.51225,N,12641.82677,E,4.097,211.51,110420,,,A*63
$GPRMC,004343.60,A,3724.51225,N,12641.82677,E,4.097,211.51,110420,,,A*63
$GPRMC,004343.80,A,3724.51225,N,12641.82677,E,4.097,211.51,110420,,,A*63
$GPRMC,004344.00,A,3724.51225,N,12641.82677,E,4.097,211.51,110420,,,A*63
$GPRMC,004344.20,A,3724.51225,N,12641.82677,E,4.097,211.51,110420,,,A*63
$GPRMC,004344.40,A,3724.51225,N,12641.82677,E,4.097,211.51,110420,,,A*63
$GPRMC,004344.60,A,3724.51225,N,12641.82677,E,4.097,211.51,110420,,,A*63
$GPRMC,004344.80,A,3724.51225,N,12641.82677,E,4.097,211.51,110420,,,A*63
$GPRMC,004345.00,A,3724.51225,N,12641.82677,E,4.097,211.51,110420,,,A*63
$GPRMC,004345.20,A,3724.51225,N,12641.82677,E,4.097,211.51,110420,,,A*63
$GPRMC,004345.40,A,3724.51225,N,12641.82677,E,4.097,211.51,110420,,,A*63
$GPRMC,004345.60,A,3724.51225,N,12641.82677,E,4.097,211.51,110420,,,A*63
$GPRMC,004345.80,A,3724.51225,N,12641.82677,E,4.097,211.51,110420,,,A*63
$GPRMC,004346.00,A,3724.51225,N,12641.82677,E,4.097,211.51,110420,,,A*63
$GPRMC,004346.20,A,3724.51225,N,12641.82677,E,4.097,211.51,110420,,,A*63
$GPRMC,004346.40,A,3724.51225,N,12641.82677,E,4.097,211.51,110420,,,A*63
$GPRMC,004346.60,A,3724.51225,N,12641.82677,E,4.097,211.51,110420,,,A*63
$GPRMC,004346.80,A,3724.51225,N,12641.82677,E,4.097,211.51,110420,,,A*63
$GPRMC,004347.00,A,3724.51225,N,12641.82677,E,4.097,211.51,110420,,,A*63
$GPRMC,004347.20,A,3724.51225,N,12641.82677,E,4.097,211.51,110420,,,A*63
$GPRMC,004347.40,A,3724.51225,N,12641.82677,E,4.097,211.51,110420,,,A*63
$GPRMC,004347.60,A,3724.51225,N,12641.82677,E,4.097,211.51,110420,,,A*63
$GPRMC,004347.80,A,3724.51225,N,12641.82677,E,4.097,211.51,110420,,,A*63
$GPRMC,004348.00,A,3724.51225,N,12641.82677,E,4.097,211.51,110420,,,A*63
$GPRMC,004348.20,A,3724.51225,N,12641.82677,E,4.097,211.51,110420,,,A*63
$GPRMC,004348.40,A,3724.51225,N,12641.82677,E,4.097,211.51,110420,,,A*63
$GPRMC,004348.60,A,3724.51225,N,12641.82677,E,4.097,211.51,110420,,,A*63
$GPRMC,004348.80,A,3724.51225,N,12641.82677,E,4.097,211.51,110420,,,A*63
$GPRMC,004349.00,A,3724.51225,N,12641.82677,E,4.097,211.51,110420,,,A*63
$GPRMC,004349.20,A,3724.51225,N,12641.82677,E,4.097,211.51,110420,,,A*63
$GPRMC,004349.40,A,3724.51225,N,12641.82677,E,4.097,211.51,110420,,,A*63
$GPRMC,004349.60,A,3724.51225,N,12641.82677,E,4.097,211.51,110420,,,A*63
$GPRMC,004349.80,A,3724.51225,N,12641.82677,E,4.097,211.51,110420,,,A*63
$GPRMC,004350.00,A,3724.51225,N,12641.82677,E,4.097,211.51,110420,,,A*63
$GPRMC,004350.20,A,3724.51225,N,12641.82677,E,4.097,211.51,110420,,,A*63
$GPRMC,004350.40,A,3724.51225,N,12641.82677,E,4.097,211.51,110420,,,A*63
$GPRMC,004350.60,A,3724.51225,N,12641.82677,E,4.097,211.51,110420,,,A*63
$GPRMC,004350.80,A,3724.51225,N,12641.82677,E,4.097,211.51,110420,,,A*63
$GPRMC,004351.00,A,3724.51225,N,12641.82677,E,4.097,211.51,110420,,,A*63
$GPRMC,004351.20,A,3724.51225,N,12641.82677,E,4.097,211.51,110420,,,A*63
$GPRMC,004351.40,A,3724.51225,N,12641.82677,E,4.097,211.51,110420,,,A*63
$GPRMC,004351.60,A,3724.51225,N,12641.82677,E,4.097,211.51,110420,,,A*63
$GPRMC,004351.80,A,3724.51225,N,12641.82677,E,4.097,211.51,110420,,,A*63
$GPRMC,004352.00,A,3724.51225,N,12641.82677,E,4.097,211.51,110420,,,A*63
$GPRMC,004352.20,A,3724.51225,N,12641.82677,E,4.097,211.51,110420,,,A*63
$GPRMC,004352.40,A,3724.51225,N,12641.82677,E,4.097,211.51,110420,,,A*63
$GPRMC,004352.60,A,3724.51225,N,12641.82677,E,4.097,211.51,110420,,,A*63
$GPRMC,004352.80,A,3724.51225,N,12641.82677,E,4.097,211.51,110420,,,A*63
$GPRMC,004353.00,A,3724.51225,N,12641.82677,E,4.097,211.51,110420,,,A*63
$GPRMC,004353.20,A,3724.51225,N,12641.82677,E,4.097,211.51,110420,,,A*63
$GPRMC,004353.40,A,3724.51225,N,12641.82677,E,4.097,211.51,110420,,,A*63
$GPRMC,004353.60,A,3724.51225,N,12641.82677,E,4.097,211.51,110420,,,A*63
$GPRMC,004353.80,A,3724.51225,N,12641.82677,E,4.097,211.51,110420,,,A*63
$GPRMC,004354.00,A,3724.51225,N,12641.82677,E,4.097,211.51,110420,,,A*63
$GPRMC,004354.20,A,3724.51225,N,12641.82677,E,4.097,211.51,110420,,,A*63
$GPRMC,004354.40,A,3724.51225,N,12641.82677,E,4.097,211.51,110420,,,A*63
$GPRMC,004354.60,A,3724.51225,N,12641.82677,E,4.097,211.51,110420,,,A*63
$GPRMC,004354.80,A,3724.51225,N,12641.82677,E,4.097,211.51,110420,,,A*63
$GPRMC,004355.00,A,3724.51225,N,12641.82677,E,4.097,211.51,110420,,,A*63
$GPRMC,004355.20,A,3724.51225,N,12641.82677,E,4.097,211.51,110420,,,A*63
$GPRMC,004355.40,A,3724.51225,N,12641.82677,E,4.097,211.51,110420,,,A*63
$GPRMC,004355.60,A,3724.51225,N,12641.82677,E,4.097,211.51,110420,,,A*63
$GPRMC,004355.80,A,3724.51225,N,12641.82677,E,4.097,211.51,110420,,,A*63
$GPRMC,004356.00,A,3724.51225,N,12641.82677,E,4.097,211.51,110420,,,A*63
$GPRMC,004356.20,A,3724.51225,N,12641.82677,E,4.097,211.51,110420,,,A*63
$GPRMC,004356.40,A,3724.51225,N,12641.82677,E,4.097,211.51,110420,,,A*63
$GPRMC,004356.60,A,3724.51225,N,12641.82677,E,4.097,211.51,110420,,,A*63
$GPRMC,004356.80,A,3724.51225,N,12641.82677,E,4.097,211.51,110420,,,A*63
$GPRMC,004357.00,A,3724.51225,N,12641.82677,E,4.097,211.51,110420,,,A*63
$GPRMC,004357.20,A,3724.51225,N,12641.82677,E,4.097,211.51,110420,,,A*63
$GPRMC,004357.40,A,3724.51225,N,12641.82677,E,4.097,211.51,110420,,,A*63
$GPRMC,004357.60,A,3724.51225,N,12641.82677,E,4.097,211.51,110420,,,A*63
$GPRMC,004357.80,A,3724.51225,N,12641.82677,E,4.097,211.51,110420,,,A*63
$GPRMC,004358.00,A,3724.51225,N,12641.82677,E,4.097,211.51,110420,,,A*63
$GPRMC,004358.20,A,3724.51225,N,12641.82677,E,4.097,211.51,110420,,,A*63
$GPRMC,004358.40,A,3724.51225,N,12641.82677,E,4.097,211.51,110420,,,A*63
$GPRMC,004358.60,A,3724.51225,N,12641.82677,E,4.097,211.51,110420,,,A*63
$GPRMC,004358.80,A,3724.51225,N,12641.82677,E,4.097,211.51,110420,,,A*63
$GPRMC,004359.00,A,3724.51225,N,12641.82677,E,4.097,211.51,110420,,,A*63
$GPRMC,004359.20,A,3724.51225,N,12641.82677,E,4.097,211.51,110420,,,A*63
$GPRMC,004359.40,A,3724.51225,N,12641.82677,E,4.097,211.51,110420,,,A*63
$GPRMC,004359.60,A,3724.51225,N,12641.82677,E,4.097,211.51,110420,,,A*63
$GPRMC,004359.80,A,3724.51225,N,12641.82677,E,4.097,211.51,110420,,,A*63
$GPRMC,004400.00,A,3724.51225,N,12641.82677,E,4.097,211.51,110420,,,A*63
$GPRMC,004400.20,A,3724.51225,N,12641.82677,E,4.097,211.51,110420,,,A*63
$GPRMC,004400.40,A,3724.51225,N,12641.82677,E,4.097,211.51,110420,,,A*63
$GPRMC,004400.60,A,3724.51225,N,12641.82677,E,4.097,211.51,110420,,,A*63
$GPRMC,004400.80,A,3724.51225,N,12641.82677,E,4.097,211.51,110420,,,A*63
$GPRMC,004401.00,A,3724.51225,N,12641.82677,E,4.097,211.51,110420,,,A*63
$GPRMC,004401.20,A,3724.51225,N,12641.82677,E,4.097,211.51,110420,,,A*63
$GPRMC,004401.40,A,3724.51225,N,12641.82677,E,4.097,211.51,110420,,,A*63
$GPRMC,004401.60,A,3724.51225,N,12641.82677,E,4.097,211.51,110420,,,A*63
$GPRMC,004401.80,A,3724.51225,N,12641.82677,E,4.097,211.51,110420,,,A*63
$GPRMC,004402.00,A,3724.51225,N,12641.82677,E,4.097,211.51,110420,,,A*63
$GPRMC,004402.20,A,3724.51225,N,12641.82677,E,4.097,211.51,110420,,,A*63
$GPRMC,004402.40,A,3724.51225,N,12641.82677,E,4.097,211.51,110420,,,A*63
$GPRMC,004402.60,A,3724.51225,N,12641.82677,E,4.097,211.51,110420,,,A*63
$GPRMC,004402.80,A,3724.51225,N,12641.82677,E,4.097,211.51,110420,,,A*63
$GPRMC,004403.00,A,3724.51225,N,12641.82677,E,4.097,211.51,110420,,,A*63
$GPRMC,004403.20,A,3724.51225,N,12641.82677,E,4.097,211.51,110420,,,A*63
$GPRMC,004403.40,A,3724.51225,N,12641.82677,E,4.097,211.51,110420,,,A*63
$GPRMC,004403.60,A,3724.51225,N,12641.82677,E,4.097,211.51,110420,,,A*63
$GPRMC,004403.80,A,3724.51225,N,12641.82677,E,4.097,211.51,110420,,,A*63
$GPRMC,004404.00,A,3724.51225,N,12641.82677,E,4.097,211.51,110420,,,A*63
$GPRMC,004404.20,A,3724.51225,N,12641.82677,E,4.097,211.51,110420,,,A*63
$GPRMC,004404.40,A,3724.51225,N,12641.82677,E,4.097,211.51,110420,,,A*63
$GPRMC,004404.60,A,3724.51225,N,12641.82677,E,4.097,211.51,110420,,,A*63
$GPRMC,004404.80,A,3724.51225,N,12641.82677,E,4.097,211.51,110420,,,A*63
$GPRMC,004405.00,A,3724.51225,N,12641.82677,E,4.097,211.51,110420,,,A*63
$GPRMC,004405.20,A,3724.51225,N,12641.82677,E,4.097,211.51,110420,,,A*63
$GPRMC,004405.40,A,3724.51225,N,12641.82677,E,4.097,211.51,110420,,,A*63
$GPRMC,004405.60,A,3724.51225,N,12641.82677,E,4.097,211.51,110420,,,A*63
$GPRMC,004405.80,A,3724.51225,N,12641.82677,E,4.097,211.51,110420,,,A*63
$GPRMC,004406.00,A,3724.51225,N,12641.82677,E,4.097,211.51,110420,,,A*63
$GPRMC,004406.20,A,3724.51225,N,12641.82677,E,4.097,211.51,110420,,,A*63
$GPRMC,004406.40,A,3724.51225,N,12641.82677,E,4.097,211.51,110420,,,A*63
$GPRMC,004406.60,A,3724.51225,N,12641.82677,E,4.097,211.51,110420,,,A*63
$GPRMC,004406.80,A,3724.51225,N,12641.82677,E,4.097,211.51,110420,,,A*63
$GPRMC,004407.00,A,3724.51225,N,12641.82677,E,4.097,211.51,110420,,,A*63
$GPRMC,004407.20,A,3724.51225,N,12641.82677,E,4.097,211.51,110420,,,A*63
$GPRMC,004407.40,A,3724.51225,N,12641.82677,E,4.097,211.51,110420,,,A*63
$GPRMC,004407.60,A,3724.51225,N,12641.82677,E,4.097,211.51,110420,,,A*63
$GPRMC,004407.80,A,3724.51225,N,12641.82677,E,4.097,211.51,110420,,,A*63
$GPRMC,004408.00,A,3724.51225,N,12641.82677,E,4.097,211.51,110420,,,A*63
$GPRMC,004408.20,A,3724.51225,N,12641.82677,E,4.097,211.51,110420,,,A*63
$GPRMC,004408.40,A,3724.51225,N,12641.82677,E,4.097,211.51,110420,,,A*63
$GPRMC,004408.60,A,3724.51225,N,12641.82677,E,4.097,211.51,110420,,,A*63
$GPRMC,004408.80,A,3724.51225,N,12641.82677,E,4.097,211.51,110420,,,A*63
$GPRMC,004409.00,A,3724.51225,N,12641.82677,E,4.097,211.51,110420,,,A*63
$GPRMC,004409.20,A,3724.51225,N,12641.82677,E,4.097,211.51,110420,,,A*63
$GPRMC,004409.40,A,3724.51225,N,12641.82677,E,4.097,211.51,110420,,,A*63
$GPRMC,004409.60,A,3724.51225,N,12641.82677,E,4.097,211.51,110420,,,A*63
$GPRMC,004409.80,A,3724.51225,N,12641.82677,E,4.097,211.51,110420,,,A*63
$GPRMC,004410.00,A,3724.51225,N,12641.82677,E,4.097,211.51,110420,,,A*63
$GPRMC,004410.20,A,3724.51225,N,12641.82677,E,4.097,211.51,110420,,,A*63
$GPRMC,004410.40,A,3724.51225,N,12641.82677,E,4.097,211.51,110420,,,A*63
$GPRMC,004410.60,A,3724.51225,N,12641.82677,E,4.097,211.51,110420,,,A*63
$GPRMC,004410.80,A,3724.51225,N,12641.82677,E,4.097,211.51,110420,,,A*63
$GPRMC,004411.00,A,3724.51225,N,12641.82677,E,4.097,211.51,110420,,,A*63
$GPRMC,004411.20,A,3724.51225,N,12641.82677,E,4.097,211.51,110420,,,A*63
$GPRMC,004411.40,A,3724.51225,N,12641.82677,E,4.097,211.51,110420,,,A*63
$GPRMC,004411.60,A,3724.51225,N,12641.82677,E,4.097,211.51,110420,,,A*63
$GPRMC,004411.80,A,3724.51225,N,12641.82677,E,4.097,211.51,110420,,,A*63
$GPRMC,004412.00,A,3724.51225,N,12641.82677,E,4.097,211.51,110420,,,A*63
$GPRMC,004412.20,A,3724.51225,N,12641.82677,E,4.097,211.51,110420,,,A*63
$GPRMC,004412.40,A,3724.51225,N,12641.82677,E,4.097,211.51,110420,,,A*63
$GPRMC,004412.60,A,3724.51225,N,12641.82677,E,4.097,211.51,110420,,,A*63
$GPRMC,004412.80,A,3724.51225,N,12641.82677,E,4.097,211.51,110420,,,A*63
$GPRMC,004413.00,A,3724.51225,N,12641.82677,E,4.097,211.51,110420,,,A*63
$GPRMC,004413.20,A,3724.51225,N,12641.82677,E,4.097,211.51,110420,,,A*63
$GPRMC,004413.40,A,3724.51225,N,12641.82677,E,4.097,211.51,110420,,,A*63
$GPRMC,004413.60,A,3724.51225,N,12641.82677,E,4.097,211.51,110420,,,A*63
$GPRMC,004413.80,A,3724.51225,N,12641.82677,E,4.097,211.51,110420,,,A*63
$GPRMC,004414.00,A,3724.51225,N,12641.82677,E,4.097,211.51,110420,,,A*63
$GPRMC,004414.20,A,3724.51225,N,12641.82677,E,4.097,211.51,110420,,,A*63
$GPRMC,004414.40,A,3724.51225,N,12641.82677,E,4.097,211.51,110420,,,A*63
$GPRMC,004414.60,A,3724.51225,N,12641.82677,E,4.097,211.51,110420,,,A*63
$GPRMC,004414.80,A,3724.51225,N,12641.82677,E,4.097,211.51,110420,,,A*63
$GPRMC,004415.00,A,3724.51225,N,12641.82677,E,4.097,211.51,110420,,,A*63
$GPRMC,004415.20,A,3724.51225,N,12641.82677,E,4.097,211.51,110420,,,A*63
$GPRMC,004415.40,A,3724.51225,N,12641.82677,E,4.097,211.51,110420,,,A*63
$GPRMC,004415.60,A,3724.51225,N,12641.82677,E,4.097,211.51,110420,,,A*63
$GPRMC,004415.80,A,3724.51225,N,12641.82677,E,4.097,211.51,110420,,,A*63
$GPRMC,004416.00,A,3724.51225,N,12641.82677,E,4.097,211.51,110420,,,A*63
$GPRMC,004416.20,A,3724.51225,N,12641.82677,E,4.097,211.51,110420,,,A*63
$GPRMC,004416.40,A,3724.51225,N,12641.82677,E,4.097,211.51,110420,,,A*63
$GPRMC,004416.60,A,3724.51225,N,12641.82677,E,4.097,211.51,110420,,,A*63
$GPRMC,004416.80,A,3724.51225,N,12641.82677,E,4.097,211.51,110420,,,A*63
$GPRMC,004417.00,A,3724.51225,N,12641.82677,E,4.097,211.51,110420,,,A*63
$GPRMC,004417.20,A,3724.51225,N,12641.82677,E,4.097,211.51,110420,,,A*63
$GPRMC,004417.40,A,3724.51225,N,12641.82677,E,4.097,211.51,110420,,,A*63
$GPRMC,004417.60,A,3724.51225,N,12641.82677,E,4.097,211.51,110420,,,A*63
$GPRMC,004417.80,A,3724.51225,N,12641.82677,E,4.097,211.51,110420,,,A*63
$GPRMC,004418.00,A,3724.51225,N,12641.82677,E,4.097,211.51,110420,,,A*63
$GPRMC,004418.20,A,3724.51225,N,12641.82677,E,4.097,211.51,110420,,,A*63
$GPRMC,004418.40,A,3724.51225,N,12641.82677,E,4.097,211.51,110420,,,A*63
$GPRMC,004418.60,A,3724.51225,N,12641.82677,E,4.097,211.51,110420,,,A*63
$GPRMC,004418.80,A,3724.51225,N,12641.82677,E,4.097,211.51,110420,,,A*63
$GPRMC,004419.00,A,3724.51225,N,12641.82677,E,4.097,211.51,110420,,,A*63
$GPRMC,004419.20,A,3724.51225,N,12641.82677,E,4.097,211.51,110420,,,A*63
$GPRMC,004419.40,A,3724.51225,N,12641.82677,E,4.097,211.51,110420,,,A*63
$GPRMC,004419.60,A,3724.51225,N,12641.82677,E,4.097,211.51,110420,,,A*63
$GPRMC,004419.80,A,3724.51225,N,12641.82677,E,4.097,211.51,110420,,,A*63
$GPRMC,004420.00,A,3724.51225,N,12641.82677,E,4.097,211.51,110420,,,A*63
$GPRMC,004420.20,A,3724.51225,N,12641.82677,E,4.097,211.51,110420,,,A*63
$GPRMC,004420.40,A,3724.51225,N,12641.82677,E,4.097,211.51,110420,,,A*63
$GPRMC,004420.60,A,3724.51225,N,12641.82677,E,4.097,211.51,110420,,,A*63
$GPRMC,004420.80,A,3724.51225,N,12641.82677,E,4.097,211.51,110420,,,A*63
$GPRMC,004421.00,A,3724.51225,N,12641.82677,E,4.097,211.51,110420,,,A*63
$GPRMC,004421.20,A,3724.51225,N,12641.82677,E,4.097,211.51,110420,,,A*63
$GPRMC,004421.40,A,3724.51225,N,12641.82677,E,4.097,211.51,110420,,,A*63
$GPRMC,004421.60,A,3724.51225,N,12641.82677,E,4.097,211.51,110420,,,A*63
$GPRMC,004421.80,A,3724.51225,N,12641.82677,E,4.097,211.51,110420,,,A*63
$GPRMC,004422.00,A,3724.51225,N,12641.82677,E,4.097,211.51,110420,,,A*63
$GPRMC,004422.20,A,3724.51225,N,12641.82677,E,4.097,211.51,110420,,,A*63
$GPRMC,004422.40,A,3724.51225,N,12641.82677,E,4.097,211.51,110420,,,A*63
$GPRMC,004422.60,A,3724.51225,N,12641.82677,E,4.097,211.51,110420,,,A*63
$GPRMC,004422.80,A,3724.51225,N,12641.82677,E,4.097,211.51,110420,,,A*63
$GPRMC,004423.00,A,3724.51225,N,12641.82677,E,4.097,211.51,110420,,,A*63
$GPRMC,004423.20,A,3724.51225,N,12641.82677,E,4.097,211.51,110420,,,A*63
$GPRMC,004423.40,A,3724.51225,N,12641.82677,E,4.097,211.51,110420,,,A*63
$GPRMC,004423.60,A,3724.51225,N,12641.82677,E,4.097,211.51,110420,,,A*63
$GPRMC,004423.80,A,3724.51225,N,12641.82677,E,4.097,211.51,110420,,,A*63
$GPRMC,004424.00,A,3724.51225,N,12641.82677,E,4.097,211.51,110420,,,A*63
$GPRMC,004424.20,A,3724.51225,N,12641.82677,E,4.097,211.51,110420,,,A*63
$GPRMC,004424.40,A,3724.51225,N,12641.82677,E,4.097,211.51,110420,,,A*63
$GPRMC,004424.60,A,3724.51225,N,12641.82677,E,4.097,211.51,110420,,,A*63
$GPRMC,004424.80,A,3724.51225,N,12641.82677,E,4.097,211.51,110420,,,A*63
$GPRMC,004425.00,A,3724.51225,N,12641.82677,E,4.097,211.51,110420,,,A*63
$GPRMC,004425.20,A,3724.51225,N,12641.82677,E,4.097,211.51,110420,,,A*63
$GPRMC,004425.40,A,3724.51225,N,12641.82677,E,4.097,211.51,110420,,,A*63
$GPRMC,004425.60,A,3724.51225,N,12641.82677,E,4.097,211.51,110420,,,A*63
$GPRMC,004425.80,A,3724.51225,N,12641.82677,E,4.097,211.51,110420,,,A*63
$GPRMC,004426.00,A,3724.51225,N,12641.82677,E,4.097,211.51,110420,,,A*63
$GPRMC,004426.20,A,3724.51225,N,12641.82677,E,4.097,211.51,110420,,,A*63
$GPRMC,004426.40,A,3724.51225,N,12641.82677,E,4.097,211.51,110420,,,A*63
$GPRMC,004426.60,A,3724.51225,N,12641.82677,E,4.097,211.51,110420,,,A*63
$GPRMC,004426.80,A,3724.51225,N,12641.82677,E,4.097,211.51,110420,,,A*63
$GPRMC,004427.00,A,3724.51225,N,12641.82677,E,4.097,211.51,110420,,,A*63
$GPRMC,004427.20,A,3724.51225,N,12641.82677,E,4.097,211.51,110420,,,A*63
$GPRMC,004427.40,A,3724.51225,N,12641.82677,E,4.097,211.51,110420,,,A*63
$GPRMC,004427.60,A,3724.51225,N,12641.82677,E,4.097,211.51,110420,,,A*63
$GPRMC,004427.80,A,3724.51225,N,12641.82677,E,4.097,211.51,110420,,,A*63
$GPRMC,004428.00,A,3724.51225,N,12641.82677,E,4.097,211.51,110420,,,A*63
$GPRMC,004428.20,A,3724.51225,N,12641.82677,E,4.097,211.51,110420,,,A*63
$GPRMC,004428.40,A,3724.51225,N,12641.82677,E,4.097,211.51,110420,,,A*63
$GPRMC,004428.60,A,3724.51225,N,12641.82677,E,4.097,211.51,110420,,,A*63
$GPRMC,004428.80,A,3724.51225,N,12641.82677,E,4.097,211.51,110420,,,A*63
$GPRMC,004429.00,A,3724.51225,N,12641.82677,E,4.097,211.51,110420,,,A*63
$GPRMC,004429.20,A,3724.51225,N,12641.82677,E,4.097,211.51,110420,,,A*63
$GPRMC,004429.40,A,3724.51225,N,12641.82677,E,4.097,211.51,110420,,,A*63
$GPRMC,004429.60,A,3724.51225,N,12641.82677,E,4.097,211.51,110420,,,A*63
$GPRMC,004429.80,A,3724.51225,N,12641.82677,E,4.097,211.51,110420,,,A*63
$GPRMC,004430.00,A,3724.51225,N,12641.82677,E,4.097,211.51,110420,,,A*63
$GPRMC,004430.20,A,3724.51225,N,12641.82677,E,4.097,211.51,110420,,,A*63
$GPRMC,004430.40,A,3724.51225,N,12641.82677,E,4.097,211.51,110420,,,A*63
$GPRMC,004430.60,A,3724.51225,N,12641.82677,E,4.097,211.51,110420,,,A*63
$GPRMC,004430.80,A,3724.51225,N,12641.82677,E,4.097,211.51,110420,,,A*63
$GPRMC,004431.00,A,3724.51225,N,12641.82677,E,4.097,211.51,110420,,,A*63
$GPRMC,004431.20,A,3724.51225,N,12641.82677,E,4.097,211.51,110420,,,A*63
$GPRMC,004431.40,A,3724.51225,N,12641.82677,E,4.097,211.51,110420,,,A*63
$GPRMC,004431.60,A,3724.51225,N,12641.82677,E,4.097,211.51,110420,,,A*63
$GPRMC,004431.80,A,3724.51225,N,12641.82677,E,4.097,211.51,110420,,,A*63
$GPRMC,004432.00,A,3724.51225,N,12641.82677,E,4.097,211.51,110420,,,A*63
$GPRMC,004432.20,A,3724.51225,N,12641.82677,E,4.097,211.51,110420,,,A*63
$GPRMC,004432.40,A,3724.51225,N,12641.82677,E,4.097,211.51,110420,,,A*63
$GPRMC,004432.60,A,3724.51225,N,12641.82677,E,4.097,211.51,110420,,,A*63
$GPRMC,004432.80,A,3724.51225,N,12641.82677,E,4.097,211.51,110420,,,A*63
$GPRMC,004433.00,A,3724.51225,N,12641.82677,E,4.097,211.51,110420,,,A*63
$GPRMC,004433.20,A,3724.51225,N,12641.82677,E,4.097,211.51,110420,,,A*63
$GPRMC,004433.40,A,3724.51225,N,12641.82677,E,4.097,211.51,110420,,,A*63
$GPRMC,004433.60,A,3724.51225,N,12641.82677,E,4.097,211.51,110420,,,A*63
$GPRMC,004433.80,A,3724.51225,N,12641.82677,E,4.097,211.51,110420,,,A*63
$GPRMC,004434.00,A,3724.51225,N,12641.82677,E,4.097,211.51,110420,,,A*63
$GPRMC,004434.20,A,3724.51225,N,12641.82677,E,4.097,211.51,110420,,,A*63
$GPRMC,004434.40,A,3724.51225,N,12641.82677,E,4.097,211.51,110420,,,A*63
$GPRMC,004434.60,A,3724.51225,N,12641.82677,E,4.097,211.51,110420,,,A*63
$GPRMC,004434.80,A,3724.51225,N,12641.82677,E,4.097,211.51,110420,,,A*63
$GPRMC,004435.00,A,3724.51225,N,12641.82677,E,4.097,211.51,110420,,,A*63
$GPRMC,004435.20,A,3724.51225,N,12641.82677,E,4.097,211.51,110420,,,A*63
$GPRMC,004435.40,A,3724.51225,N,12641.82677,E,4.097,211.51,110420,,,A*63
$GPRMC,004435.60,A,3724.51225,N,12641.82677,E,4.097,211.51,110420,,,A*63
$GPRMC,004435.80,A,3724.51225,N,12641.82677,E,4.097,211.51,110420,,,A*63
$GPRMC,004436.00,A,3724.51225,N,12641.82677,E,4.097,211.51,110420,,,A*63
$GPRMC,004436.20,A,3724.51225,N,12641.82677,E,4.097,211.51,110420,,,A*63
$GPRMC,004436.40,A,3724.51225,N,12641.82677,E,4.097,211.51,110420,,,A*63
$GPRMC,004436.60,A,3724.51225,N,12641.82677,E,4.097,211.51,110420,,,A*63
$GPRMC,004436.80,A,3724.51225,N,12641.82677,E,4.097,211.51,110420,,,A*63
$GPRMC,004437.00,A,3724.51225,N,12641.82677,E,4.097,211.51,110420,,,A*63
$GPRMC,004437.20,A,3724.51225,N,12641.82677,E,4.097,211.51,110420,,,A*63
$GPRMC,004437.40,A,3724.51225,N,12641.82677,E,4.097,211.51,110420,,,A*63
$GPRMC,004437.60,A,3724.51225,N,12641.82677,E,4.097,211.51,110420,,,A*63
$GPRMC,004437.80,A,3724.51225,N,12641.82677,E,4.097,211.51,110420,,,A*63
$GPRMC,004438.00,A,3724.51225,N,12641.82677,E,4.097,211.51,110420,,,A*63
$GPRMC,004438.20,A,3724.51225,N,12641.82677,E,4.097,211.51,110420,,,A*63
$GPRMC,004438.40,A,3724.51225,N,12641.82677,E,4.097,211.51,110420,,,A*63
$GPRMC,004438.60,A,3724.51225,N,12641.82677,E,4.097,211.51,110420,,,A*63
$GPRMC,004438.80,A,3724.51225,N,12641.82677,E,4.097,211.51,110420,,,A*63
$GPRMC,004439.00,A,3724.51225,N,12641.82677,E,4.097,211.51,110420,,,A*63
$GPRMC,004439.20,A,3724.51225,N,12641.82677,E,4.097,211.51,110420,,,A*63
$GPRMC,004439.40,A,3724.51225,N,12641.82677,E,4.097,211.51,110420,,,A*63
$GPRMC,004439.60,A,3724.51225,N,12641.82677,E,4.097,211.51,110420,,,A*63
$GPRMC,004439.80,A,3724.51225,N,12641.82677,E,4.097,211.51,110420,,,A*63
$GPRMC,004440.00,A,3724.51225,N,12641.82677,E,4.097,211.51,110420,,,A*63
$GPRMC,004440.20,A,3724.51225,N,12641.82677,E,4.097,211.51,110420,,,A*63
$GPRMC,004440.40,A,3724.51225,N,12641.82677,E,4.097,211.51,110420,,,A*63
$GPRMC,004440.60,A,3724.51225,N,12641.82677,E,4.097,211.51,110420,,,A*63
$GPRMC,004440.80,A,3724.51225,N,12641.82677,E,4.097,211.51,110420,,,A*63
$GPRMC,004441.00,A,3724.51225,N,12641.82677,E,4.097,211.51,110420,,,A*63
$GPRMC,004441.20,A,3724.51225,N,12641.82677,E,4.097,211.51,110420,,,A*63
$GPRMC,004441.40,A,3724.51225,N,12641.82677,E,4.097,211.51,110420,,,A*63
$GPRMC,004441.60,A,3724.51225,N,12641.82677,E,4.097,211.51,110420,,,A*63
$GPRMC,004441.80,A,3724.51225,N,12641.82677,E,4.097,211.51,110420,,,A*63
$GPRMC,004442.00,A,3724.51225,N,12641.82677,E,4.097,211.51,110420,,,A*63
$GPRMC,004442.20,A,3724.51225,N,12641.82677,E,4.097,211.51,110420,,,A*63
$GPRMC,004442.40,A,3724.51225,N,12641.82677,E,4.097,211.51,110420,,,A*63
$GPRMC,004442.60,A,3724.51225,N,12641.82677,E,4.097,211.51,110420,,,A*63
$GPRMC,004442.80,A,3724.51225,N,12641.82677,E,4.097,211.51,110420,,,A*63
$GPRMC,004443.00,A,3724.51225,N,12641.82677,E,4.097,211.51,110420,,,A*63
$GPRMC,004443.20,A,3724.51225,N,12641.82677,E,4.097,211.51,110420,,,A*63
$GPRMC,004443.40,A,3724.51225,N,12641.82677,E,4.097,211.51,110420,,,A*63
$GPRMC,004443.60,A,3724.51225,N,12641.82677,E,4.097,211.51,110420,,,A*63
$GPRMC,004443.80,A,3724.51225,N,12641.82677,E,4.097,211.51,110420,,,A*63
$GPRMC,004444.00,A,3724.51225,N,12641.82677,E,4.097,211.51,110420,,,A*63
$GPRMC,004444.20,A,3724.51225,N,12641.82677,E,4.097,211.51,110420,,,A*63
$GPRMC,004444.40,A,3724.51225,N,12641.82677,E,4.097,211.51,110420,,,A*63
$GPRMC,004444.60,A,3724.51225,N,12641.82677,E,4.097,211.51,110420,,,A*63
$GPRMC,004444.80,A,3724.51225,N,12641.82677,E,4.097,211.51,110420,,,A*63
$GPRMC,004445.00,A,3724.51225,N,12641.82677,E,4.097,211.51,110420,,,A*63
$GPRMC,004445.20,A,3724.51225,N,12641.82677,E,4.097,211.51,110420,,,A*63
$GPRMC,004445.40,A,3724.51225,N,12641.82677,E,4.097,211.51,110420,,,A*63
$GPRMC,004445.60,A,3724.51225,N,12641.82677,E,4.097,211.51,110420,,,A*63
$GPRMC,004445.80,A,3724.51225,N,12641.82677,E,4.097,211.51,110420,,,A*63
$GPRMC,004446.00,A,3724.51225,N,12641.82677,E,4.097,211.51,110420,,,A*63
$GPRMC,004446.20,A,3724.51225,N,12641.82677,E,4.097,211.51,110420,,,A*63
$GPRMC,004446.40,A,3724.51225,N,12641.82677,E,4.097,211.51,110420,,,A*63
$GPRMC,004446.60,A,3724.51225,N,12641.82677,E,4.097,211.51,110420,,,A*63
$GPRMC,004446.80,A,3724.51225,N,12641.82677,E,4.097,211.51,110420,,,A*63
$GPRMC,004447.00,A,3724.51225,N,12641.82677,E,4.097,211.51,110420,,,A*63
$GPRMC,004447.20,A,3724.51225,N,12641.82677,E,4.097,211.51,110420,,,A*63
$GPRMC,004447.40,A,3724.51225,N,12641.82677,E,4.097,211.51,110420,,,A*63
$GPRMC,004447.60,A,3724.51225,N,12641.82677,E,4.097,211.51,110420,,,A*63
$GPRMC,004447.80,A,3724.51225,N,12641.82677,E,4.097,211.51,110420,,,A*63
$GPRMC,004448.00,A,3724.51225,N,12641.82677,E,4.097,211.51,110420,,,A*63
$GPRMC,004448.20,A,3724.51225,N,12641.82677,E,4.097,211.51,110420,,,A*63
$GPRMC,004448.40,A,3724.51225,N,12641.82677,E,4.097,211.51,110420,,,A*63
$GPRMC,004448.60,A,3724.51225,N,12641.82677,E,4.097,211.51,110420,,,A*63
$GPRMC,004448.80,A,3724.51225,N,12641.82677,E,4.097,211.51,110420,,,A*63
$GPRMC,004449.00,A,3724.51225,N,12641.82677,E,4.097,211.51,110420,,,A*63
$GPRMC,004449.20,A,3724.51225,N,12641.82677,E,4.097,211.51,110420,,,A*63
$GPRMC,004449.40,A,3724.51225,N,12641.82677,E,4.097,211.51,110420,,,A*63
$GPRMC,004449.60,A,3724.51225,N,12641.82677,E,4.097,211.51,110420,,,A*63
$GPRMC,004449.80,A,3724.51225,N,12641.82677,E,4.097,211.51,110420,,,A*63
$GPRMC,004450.00,A,3724.51225,N,12641.82677,E,4.097,211.51,110420,,,A*63
$GPRMC,004450.20,A,3724.51225,N,12641.82677,E,4.097,211.51,110420,,,A*63
$GPRMC,004450.40,A,3724.51225,N,12641.82677,E,4.097,211.51,110420,,,A*63
$GPRMC,004450.60,A,3724.51225,N,12641.82677,E,4.097,211.51,110420,,,A*63
$GPRMC,004450.80,A,3724.51225,N,12641.82677,E,4.097,211.51,110420,,,A*63
$GPRMC,004451.00,A,3724.51225,N,12641.82677,E,4.097,211.51,110420,,,A*63
$GPRMC,004451.20,A,3724.51225,N,12641.82677,E,4.097,211.51,110420,,,A*63
$GPRMC,004451.40,A,3724.51225,N,12641.82677,E,4.097,211.51,110420,,,A*63
$GPRMC,004451.60,A,3724.51225,N,12641.82677,E,4.097,211.51,110420,,,A*63
$GPRMC,004451.80,A,3724.51225,N,12641.82677,E,4.097,211.51,110420,,,A*63
$GPRMC,004452.00,A,3724.51225,N,12641.82677,E,4.097,211.51,110420,,,A*63
$GPRMC,004452.20,A,3724.51225,N,12641.82677,E,4.097,211.51,110420,,,A*63
$GPRMC,004452.40,A,3724.51225,N,12641.82677,E,4.097,211.51,110420,,,A*63
$GPRMC,004452.60,A,3724.51225,N,12641.82677,E,4.097,211.51,110420,,,A*63
$GPRMC,004452.80,A,3724.51225,N,12641.82677,E,4.097,211.51,110420,,,A*63
$GPRMC,004453.00,A,3724.51225,N,12641.82677,E,4.097,211.51,110420,,,A*63
$GPRMC,004453.20,A,3724.51225,N,12641.82677,E,4.097,211.51,110420,,,A*63
$GPRMC,004453.40,A,3724.51225,N,12641.82677,E,4.097,211.51,110420,,,A*63
$GPRMC,004453.60,A,3724.51225,N,12641.82677,E,4.097,211.51,110420,,,A*63
$GPRMC,004453.80,A,3724.51225,N,12641.82677,E,4.097,211.51,110420,,,A*63
$GPRMC,004454.00,A,3724.51225,N,12641.82677,E,4.097,211.51,110420,,,A*63
$GPRMC,004454.20,A,3724.51225,N,12641.82677,E,4.097,211.51,110420,,,A*63
$GPRMC,004454.40,A,3724.51225,N,12641.82677,E,4.097,211.51,110420,,,A*63
$GPRMC,004454.60,A,3724.51225,N,12641.82677,E,4.097,211.51,110420,,,A*63
$GPRMC,004454.80,A,3724.51225,N,12641.82677,E,4.097,211.51,110420,,,A*63
$GPRMC,004455.00,A,3724.51225,N,12641.82677,E,4.097,211.51,110420,,,A*63
$GPRMC,004455.20,A,3724.51225,N,12641.82677,E,4.097,211.51,110420,,,A*63
$GPRMC,004455.40,A,3724.51225,N,12641.82677,E,4.097,211.51,110420,,,A*63
$GPRMC,004455.60,A,3724.51225,N,12641.82677,E,4.097,211.51,110420,,,A*63
$GPRMC,004455.80,A,3724.51225,N,12641.82677,E,4.097,211.51,110420,,,A*63
$GPRMC,004456.00,A,3724.51225,N,12641.82677,E,4.097,211.51,110420,,,A*63
$GPRMC,004456.20,A,3724.51225,N,12641.82677,E,4.097,211.51,110420,,,A*63
$GPRMC,004456.40,A,3724.51225,N,12641.82677,E,4.097,211.51,110420,,,A*63
$GPRMC,004456.60,A,3724.51225,N,12641.82677,E,4.097,211.51,110420,,,A*63
$GPRMC,004456.80,A,3724.51225,N,12641.82677,E,4.097,211.51,110420,,,A*63
$GPRMC,004457.00,A,3724.51225,N,12641.82677,E,4.097,211.51,110420,,,A*63
$GPRMC,004457.20,A,3724.51225,N,12641.82677,E,4.097,211.51,110420,,,A*63
$GPRMC,004457.40,A,3724.51225,N,12641.82677,E,4.097,211.51,110420,,,A*63
$GPRMC,004457.60,A,3724.51225,N,12641.82677,E,4.097,211.51,110420,,,A*63
$GPRMC,004457.80,A,3724.51225,N,12641.82677,E,4.097,211.51,110420,,,A*63
$GPRMC,004458.00,A,3724.51225,N,12641.82677,E,4.097,211.51,110420,,,A*63
$GPRMC,004458.20,A,3724.51225,N,12641.82677,E,4.097,211.51,110420,,,A*63
$GPRMC,004458.40,A,3724.51225,N,12641.82677,E,4.097,211.51,110420,,,A*63
$GPRMC,004458.60,A,3724.51225,N,12641.82677,E,4.097,211.51,110420,,,A*63
$GPRMC,004458.80,A,3724.51225,N,12641.82677,E,4.097,211.51,110420,,,A*63
$GPRMC,004459.00,A,3724.51225,N,12641.82677,E,4.097,211.51,110420,,,A*63
$GPRMC,004459.20,A,3724.51225,N,12641.82677,E,4.097,211.51,110420,,,A*63
$GPRMC,004459.40,A,3724.51225,N,12641.82677,E,4.097,211.51,110420,,,A*63
$GPRMC,004459.60,A,3724.51225,N,12641.82677,E,4.097,211.51,110420,,,A*63
$GPRMC,004459.80,A,3724.51225,N,12641.82677,E,4.097,211.51,110420,,,A*63
$GPRMC,004500.00,A,3724.51225,N,12641.82677,E,4.097,211.51,110420,,,A*63
$GPRMC,004500.20,A,3724.51225,N,12641.82677,E,4.097,211.51,110420,,,A*63
$GPRMC,004500.40,A,3724.51225,N,12641.82677,E,4.097,211.51,110420,,,A*63
$GPRMC,004500.60,A,3724.51225,N,12641.82677,E,4.097,211.51,110420,,,A*63
$GPRMC,004500.80,A,3724.51225,N,12641.82677,E,4.097,211.51,110420,,,A*63
$GPRMC,004501.00,A,3724.51225,N,12641.82677,E,4.097,211.51,110420,,,A*63
$GPRMC,004501.20,A,3724.51225,N,12641.82677,E,4.097,211.51,110420,,,A*63
$GPRMC,004501.40,A,3724.51225,N,12641.82677,E,4.097,211.51,110420,,,A*63
$GPRMC,004501.60,A,3724.51225,N,12641.82677,E,4.097,211.51,110420,,,A*63
$GPRMC,004501.80,A,3724.51225,N,12641.82677,E,4.097,211.51,110420,,,A*63
$GPRMC,004502.00,A,3724.51225,N,12641.82677,E,4.097,211.51,110420,,,A*63
$GPRMC,004502.20,A,3724.51225,N,12641.82677,E,4.097,211.51,110420,,,A*63
$GPRMC,004502.40,A,3724.51225,N,12641.82677,E,4.097,211.51,110420,,,A*63
$GPRMC,004502.60,A,3724.51225,N,12641.82677,E,4.097,211.51,110420,,,A*63
$GPRMC,004502.80,A,3724.51225,N,12641.82677,E,4.097,211.51,110420,,,A*63
$GPRMC,004503.00,A,3724.51225,N,12641.82677,E,4.097,211.51,110420,,,A*63
$GPRMC,004503.20,A,3724.51225,N,12641.82677,E,4.097,211.51,110420,,,A*63
$GPRMC,004503.40,A,3724.51225,N,12641.82677,E,4.097,211.51,110420,,,A*63
$GPRMC,004503.60,A,3724.51225,N,12641.82677,E,4.097,211.51,110420,,,A*63
$GPRMC,004503.80,A,3724.51225,N,12641.82677,E,4.097,211.51,110420,,,A*63
$GPRMC,004504.00,A,3724.51225,N,12641.82677,E,4.097,211.51,110420,,,A*63
$GPRMC,004504.20,A,3724.51225,N,12641.82677,E,4.097,211.51,110420,,,A*63
$GPRMC,004504.40,A,3724.51225,N,12641.82677,E,4.097,211.51,110420,,,A*63
$GPRMC,004504.60,A,3724.51225,N,12641.82677,E,4.097,211.51,110420,,,A*63
$GPRMC,004504.80,A,3724.51225,N,12641.82677,E,4.097,211.51,110420,,,A*63
$GPRMC,004505.00,A,3724.51225,N,12641.82677,E,4.097,211.51,110420,,,A*63
$GPRMC,004505.20,A,3724.51225,N,12641.82677,E,4.097,211.51,110420,,,A*63
$GPRMC,004505.40,A,3724.51225,N,12641.82677,E,4.097,211.51,110420,,,A*63
$GPRMC,004505.60,A,3724.51225,N,12641.82677,E,4.097,211.51,110420,,,A*63
$GPRMC,004505.80,A,3724.51225,N,12641.82677,E,4.097,211.51,110420,,,A*63
$GPRMC,004506.00,A,3724.51225,N,12641.82677,E,4.097,211.51,110420,,,A*63
$GPRMC,004506.20,A,3724.51225,N,12641.82677,E,4.097,211.51,110420,,,A*63
$GPRMC,004506.40,A,3724.51225,N,12641.82677,E,4.097,211.51,110420,,,A*63
$GPRMC,004506.60,A,3724.51225,N,12641.82677,E,4.097,211.51,110420,,,A*63
$GPRMC,004506.80,A,3724.51225,N,12641.82677,E,4.097,211.51,110420,,,A*63
$GPRMC,004507.00,A,3724.51225,N,12641.82677,E,4.097,211.51,110420,,,A*63
$GPRMC,004507.20,A,3724.51225,N,12641.82677,E,4.097,211.51,110420,,,A*63
$GPRMC,004507.40,A,3724.51225,N,12641.82677,E,4.097,211.51,110420,,,A*63
$GPRMC,004507.60,A,3724.51225,N,12641.82677,E,4.097,211.51,110420,,,A*63
$GPRMC,004507.80,A,3724.51225,N,12641.82677,E,4.097,211.51,110420,,,A*63
$GPRMC,004508.00,A,3724.51225,N,12641.82677,E,4.097,211.51,110420,,,A*63
$GPRMC,004508.20,A,3724.51225,N,12641.82677,E,4.097,211.51,110420,,,A*63
$GPRMC,004508.40,A,3724.51225,N,12641.82677,E,4.097,211.51,110420,,,A*63
$GPRMC,004508.60,A,3724.51225,N,12641.82677,E,4.097,211.51,110420,,,A*63
$GPRMC,004508.80,A,3724.51225,N,12641.82677,E,4.097,211.51,110420,,,A*63
$GPRMC,004509.00,A,3724.51225,N,12641.82677,E,4.097,211.51,110420,,,A*63
$GPRMC,004509.20,A,3724.51225,N,12641.82677,E,4.097,211.51,110420,,,A*63
$GPRMC,004509.40,A,3724.51225,N,12641.82677,E,4.097,211.51,110420,,,A*63
$GPRMC,004509.60,A,3724.51225,N,12641.82677,E,4.097,211.51,110420,,,A*63
$GPRMC,004509.80,A,3724.51225,N,12641.82677,E,4.097,211.51,110420,,,A*63
$GPRMC,004510.00,A,3724.51225,N,12641.82677,E,4.097,211.51,110420,,,A*63
$GPRMC,004510.20,A,3724.51225,N,12641.82677,E,4.097,211.51,110420,,,A*63
$GPRMC,004510.40,A,3724.51225,N,12641.82677,E,4.097,211.51,110420,,,A*63
$GPRMC,004510.60,A,3724.51225,N,12641.82677,E,4.097,211.51,110420,,,A*63
$GPRMC,004510.80,A,3724.51225,N,12641.82677,E,4.097,211.51,110420,,,A*63
$GPRMC,004511.00,A,3724.51225,N,12641.82677,E,4.097,211.51,110420,,,A*63
$GPRMC,004511.20,A,3724.51225,N,12641.82677,E,4.097,211.51,110420,,,A*63
$GPRMC,004511.40,A,3724.51225,N,12641.82677,E,4.097,211.51,110420,,,A*63
$GPRMC,004511.60,A,3724.51225,N,12641.82677,E,4.097,211.51,110420,,,A*63
$GPRMC,004511.80,A,3724.51225,N,12641.82677,E,4.097,211.51,110420,,,A*63
$GPRMC,004512.00,A,3724.51225,N,12641.82677,E,4.097,211.51,110420,,,A*63
$GPRMC,004512.20,A,3724.51225,N,12641.82677,E,4.097,211.51,110420,,,A*63
$GPRMC,004512.40,A,3724.51225,N,12641.82677,E,4.097,211.51,110420,,,A*63
$GPRMC,004512.60,A,3724.51225,N,12641.82677,E,4.097,211.51,110420,,,A*63
$GPRMC,004512.80,A,3724.51225,N,12641.82677,E,4.097,211.51,110420,,,A*63
$GPRMC,004513.00,A,3724.51225,N,12641.82677,E,4.097,211.51,110420,,,A*63
$GPRMC,004513.20,A,3724.51225,N,12641.82677,E,4.097,211.51,110420,,,A*63
$GPRMC,004513.40,A,3724.51225,N,12641.82677,E,4.097,211.51,110420,,,A*63
$GPRMC,004513.60,A,3724.51225,N,12641.82677,E,4.097,211.51,110420,,,A*63
$GPRMC,004513.80,A,3724.51225,N,12641.82677,E,4.097,211.51,110420,,,A*63
$GPRMC,004514.00,A,3724.51225,N,12641.82677,E,4.097,211.51,110420,,,A*63
$GPRMC,004514.20,A,3724.51225,N,12641.82677,E,4.097,211.51,110420,,,A*63
$GPRMC,004514.40,A,3724.51225,N,12641.82677,E,4.097,211.51,110420,,,A*63
$GPRMC,004514.60,A,3724.51225,N,12641.82677,E,4.097,211.51,110420,,,A*63
$GPRMC,004514.80,A,3724.51225,N,12641.82677,E,4.097,211.51,110420,,,A*63
$GPRMC,004515.00,A,3724.51225,N,12641.82677,E,4.097,211.51,110420,,,A*63
$GPRMC,004515.20,A,3724.51225,N,12641.82677,E,4.097,211.51,110420,,,A*63
$GPRMC,004515.40,A,3724.51225,N,12641.82677,E,4.097,211.51,110420,,,A*63
$GPRMC,004515.60,A,3724.51225,N,12641.82677,E,4.097,211.51,110420,,,A*63
$GPRMC,004515.80,A,3724.51225,N,12641.82677,E,4.097,211.51,110420,,,A*63
$GPRMC,004516.00,A,3724.51225,N,12641.82677,E,4.097,211.51,110420,,,A*63
$GPRMC,004516.20,A,3724.51225,N,12641.82677,E,4.097,211.51,110420,,,A*63
$GPRMC,004516.40,A,3724.51225,N,12641.82677,E,4.097,211.51,110420,,,A*63
$GPRMC,004516.60,A,3724.51225,N,12641.82677,E,4.097,211.51,110420,,,A*63
$GPRMC,004516.80,A,3724.51225,N,12641.82677,E,4.097,211.51,110420,,,A*63
$GPRMC,004517.00,A,3724.51225,N,12641.82677,E,4.097,211.51,110420,,,A*63
$GPRMC,004517.20,A,3724.51225,N,12641.82677,E,4.097,211.51,110420,,,A*63
$GPRMC,004517.40,A,3724.51225,N,12641.82677,E,4.097,211.51,110420,,,A*63
$GPRMC,004517.60,A,3724.51225,N,12641.82677,E,4.097,211.51,110420,,,A*63
$GPRMC,004517.80,A,3724.51225,N,12641.82677,E,4.097,211.51,110420,,,A*63
$GPRMC,004518.00,A,3724.51225,N,12641.82677,E,4.097,211.51,110420,,,A*63
$GPRMC,004518.20,A,3724.51225,N,12641.82677,E,4.097,211.51,110420,,,A*63
$GPRMC,004518.40,A,3724.51225,N,12641.82677,E,4.097,211.51,110420,,,A*63
$GPRMC,004518.60,A,3724.51225,N,12641.82677,E,4.097,211.51,110420,,,A*63
$GPRMC,004518.80,A,3724.51225,N,12641.82677,E,4.097,211.51,110420,,,A*63
$GPRMC,004519.00,A,3724.51225,N,12641.82677,E,4.097,211.51,110420,,,A*63
$GPRMC,004519.20,A,3724.51225,N,12641.82677,E,4.097,211.51,110420,,,A*63
$GPRMC,004519.40,A,3724.51225,N,12641.82677,E,4.097,211.51,110420,,,A*63
$GPRMC,004519.60,A,3724.51225,N,12641.82677,E,4.097,211.51,110420,,,A*63
$GPRMC,004519.80,A,3724.51225,N,12641.82677,E,4.097,211.51,110420,,,A*63
$GPRMC,004520.00,A,3724.51225,N,12641.82677,E,4.097,211.51,110420,,,A*63
$GPRMC,004520.20,A,3724.51225,N,12641.82677,E,4.097,211.51,110420,,,A*63
$GPRMC,004520.40,A,3724.51225,N,12641.82677,E,4.097,211.51,110420,,,A*63
$GPRMC,004520.60,A,3724.51225,N,12641.82677,E,4.097,211.51,110420,,,A*63
$GPRMC,004520.80,A,3724.51225,N,12641.82677,E,4.097,211.51,110420,,,A*63
$GPRMC,004521.00,A,3724.51225,N,12641.82677,E,4.097,211.51,110420,,,A*63
$GPRMC,004521.20,A,3724.51225,N,12641.82677,E,4.097,211.51,110420,,,A*63
$GPRMC,004521.40,A,3724.51225,N,12641.82677,E,4.097,211.51,110420,,,A*63
$GPRMC,004521.60,A,3724.51225,N,12641.82677,E,4.097,211.51,110420,,,A*63
$GPRMC,004521.80,A,3724.51225,N,12641.82677,E,4.097,211.51,110420,,,A*63
$GPRMC,004522.00,A,3724.51225,N,12641.82677,E,4.097,211.51,110420,,,A*63
$GPRMC,004522.20,A,3724.51225,N,12641.82677,E,4.097,211.51,110420,,,A*63
$GPRMC,004522.40,A,3724.51225,N,12641.82677,E,4.097,211.51,110420,,,A*63
$GPRMC,004522.60,A,3724.51225,N,12641.82677,E,4.097,211.51,110420,,,A*63
$GPRMC,004522.80,A,3724.51225,N,12641.82677,E,4.097,211.51,110420,,,A*63
$GPRMC,004523.00,A,3724.51225,N,12641.82677,E,4.097,211.51,110420,,,A*63
$GPRMC,004523.20,A,3724.51225,N,12641.82677,E,4.097,211.51,110420,,,A*63
$GPRMC,004523.40,A,3724.51225,N,12641.82677,E,4.097,211.51,110420,,,A*63
$GPRMC,004523.60,A,3724.51225,N,12641.82677,E,4.097,211.51,110420,,,A*63
$GPRMC,004523.80,A,3724.51225,N,12641.82677,E,4.097,211.51,110420,,,A*63
$GPRMC,004524.00,A,3724.51225,N,12641.82677,E,4.097,211.51,110420,,,A*63
$GPRMC,004524.20,A,3724.51225,N,12641.82677,E,4.097,211.51,110420,,,A*63
$GPRMC,004524.40,A,3724.51225,N,12641.82677,E,4.097,211.51,110420,,,A*63
$GPRMC,004524.60,A,3724.51225,N,12641.82677,E,4.097,211.51,110420,,,A*63
$GPRMC,004524.80,A,3724.51225,N,12641.82677,E,4.097,211.51,110420,,,A*63
$GPRMC,004525.00,A,3724.51225,N,12641.82677,E,4.097,211.51,110420,,,A*63
$GPRMC,004525.20,A,3724.51225,N,12641.82677,E,4.097,211.51,110420,,,A*63
$GPRMC,004525.40,A,3724.51225,N,12641.82677,E,4.097,211.51,110420,,,A*63
$GPRMC,004525.60,A,3724.51225,N,12641.82677,E,4.097,211.51,110420,,,A*63
$GPRMC,004525.80,A,3724.51225,N,12641.82677,E,4.097,211.51,110420,,,A*63
$GPRMC,004526.00,A,3724.51225,N,12641.82677,E,4.097,211.51,110420,,,A*63
$GPRMC,004526.20,A,3724.51225,N,12641.82677,E,4.097,211.51,110420,,,A*63
$GPRMC,004526.40,A,3724.51225,N,12641.82677,E,4.097,211.51,110420,,,A*63
$GPRMC,004526.60,A,3724.51225,N,12641.82677,E,4.097,211.51,110420,,,A*63
$GPRMC,004526.80,A,3724.51225,N,12641.82677,E,4.097,211.51,110420,,,A*63
$GPRMC,004527.00,A,3724.51225,N,12641.82677,E,4.097,211.51,110420,,,A*63
$GPRMC,004527.20,A,3724.51225,N,12641.82677,E,4.097,211.51,110420,,,A*63
$GPRMC,004527.40,A,3724.51225,N,12641.82677,E,4.097,211.51,110420,,,A*63
$GPRMC,004527.60,A,3724.51225,N,12641.82677,E,4.097,211.51,110420,,,A*63
$GPRMC,004527.80,A,3724.51225,N,12641.82677,E,4.097,211.51,110420,,,A*63
$GPRMC,004528.00,A,3724.51225,N,12641.82677,E,4.097,211.51,110420,,,A*63
$GPRMC,004528.20,A,3724.51225,N,12641.82677,E,4.097,211.51,110420,,,A*63
$GPRMC,004528.40,A,3724.51225,N,12641.82677,E,4.097,211.51,110420,,,A*63
$GPRMC,004528.60,A,3724.51225,N,12641.82677,E,4.097,211.51,110420,,,A*63
$GPRMC,004528.80,A,3724.51225,N,12641.82677,E,4.097,211.51,110420,,,A*63
$GPRMC,004529.00,A,3724.51225,N,12641.82677,E,4.097,211.51,110420,,,A*63
$GPRMC,004529.20,A,3724.51225,N,12641.82677,E,4.097,211.51,110420,,,A*63
$GPRMC,004529.40,A,3724.51225,N,12641.82677,E,4.097,211.51,110420,,,A*63
$GPRMC,004529.60,A,3724.51225,N,12641.82677,E,4.097,211.51,110420,,,A*63
$GPRMC,004529.80,A,3724.51225,N,12641.82677,E,4.097,211.51,110420,,,A*63
$GPRMC,004530.00,A,3724.51225,N,12641.82677,E,4.097,211.51,110420,,,A*63
$GPRMC,004530.20,A,3724.51225,N,12641.82677,E,4.097,211.51,110420,,,A*63
$GPRMC,004530.40,A,3724.51225,N,12641.82677,E,4.097,211.51,110420,,,A*63
$GPRMC,004530.60,A,3724.51225,N,12641.82677,E,4.097,211.51,110420,,,A*63
$GPRMC,004530.80,A,3724.51225,N,12641.82677,E,4.097,211.51,110420,,,A*63
$GPRMC,004531.00,A,3724.51225,N,12641.82677,E,4.097,211.51,110420,,,A*63
$GPRMC,004531.20,A,3724.51225,N,12641.82677,E,4.097,211.51,110420,,,A*63
$GPRMC,004531.40,A,3724.51225,N,12641.82677,E,4.097,211.51,110420,,,A*63
$GPRMC,004531.60,A,3724.51225,N,12641.82677,E,4.097,211.51,110420,,,A*63
$GPRMC,004531.80,A,3724.51225,N,12641.82677,E,4.097,211.51,110420,,,A*63
$GPRMC,004532.00,A,3724.51225,N,12641.82677,E,4.097,211.51,110420,,,A*63
$GPRMC,004532.20,A,3724.51225,N,12641.82677,E,4.097,211.51,110420,,,A*63
$GPRMC,004532.40,A,3724.51225,N,12641.82677,E,4.097,211.51,110420,,,A*63
$GPRMC,004532.60,A,3724.51225,N,12641.82677,E,4.097,211.51,110420,,,A*63
$GPRMC,004532.80,A,3724.51225,N,12641.82677,E,4.097,211.51,110420,,,A*63
$GPRMC,004533.00,A,3724.51225,N,12641.82677,E,4.097,211.51,110420,,,A*63
$GPRMC,004533.20,A,3724.51225,N,12641.82677,E,4.097,211.51,110420,,,A*63
$GPRMC,004533.40,A,3724.51225,N,12641.82677,E,4.097,211.51,110420,,,A*63
$GPRMC,004533.60,A,3724.51225,N,12641.82677,E,4.097,211.51,110420,,,A*63
$GPRMC,004533.80,A,3724.51225,N,12641.82677,E,4.097,211.51,110420,,,A*63
$GPRMC,004534.00,A,3724.51225,N,12641.82677,E,4.097,211.51,110420,,,A*63
$GPRMC,004534.20,A,3724.51225,N,12641.82677,E,4.097,211.51,110420,,,A*63
$GPRMC,004534.40,A,3724.51225,N,12641.82677,E,4.097,211.51,110420,,,A*63
$GPRMC,004534.60,A,3724.51225,N,12641.82677,E,4.097,211.51,110420,,,A*63
$GPRMC,004534.80,A,3724.51225,N,12641.82677,E,4.097,211.51,110420,,,A*63
$GPRMC,004535.00,A,3724.51225,N,12641.82677,E,4.097,211.51,110420,,,A*63
$GPRMC,004535.20,A,3724.51225,N,12641.82677,E,4.097,211.51,110420,,,A*63
$GPRMC,004535.40,A,3724.51225,N,12641.82677,E,4.097,211.51,110420,,,A*63
$GPRMC,004535.60,A,3724.51225,N,12641.82677,E,4.097,211.51,110420,,,A*63
$GPRMC,004535.80,A,3724.51225,N,12641.82677,E,4.097,211.51,110420,,,A*63
$GPRMC,004536.00,A,3724.51225,N,12641.82677,E,4.097,211.51,110420,,,A*63
$GPRMC,004536.20,A,3724.51225,N,12641.82677,E,4.097,211.51,110420,,,A*63
$GPRMC,004536.40,A,3724.51225,N,12641.82677,E,4.097,211.51,110420,,,A*63
$GPRMC,004536.60,A,3724.51225,N,12641.82677,E,4.097,211.51,110420,,,A*63
$GPRMC,004536.80,A,3724.51225,N,12641.82677,E,4.097,211.51,110420,,,A*63
$GPRMC,004537.00,A,3724.51225,N,12641.82677,E,4.097,211.51,110420,,,A*63
$GPRMC,004537.20,A,3724.51225,N,12641.82677,E,4.097,211.51,110420,,,A*63
$GPRMC,004537.40,A,3724.51225,N,12641.82677,E,4.097,211.51,110420,,,A*63
$GPRMC,004537.60,A,3724.51225,N,12641.82677,E,4.097,211.51,110420,,,A*63
$GPRMC,004537.80,A,3724.51225,N,12641.82677,E,4.097,211.51,110420,,,A*63
$GPRMC,004538.00,A,3724.51225,N,12641.82677,E,4.097,211.51,110420,,,A*63
$GPRMC,004538.20,A,3724.51225,N,12641.82677,E,4.097,211.51,110420,,,A*63
$GPRMC,004538.40,A,3724.51225,N,12641.82677,E,4.097,211.51,110420,,,A*63
$GPRMC,004538.60,A,3724.51225,N,12641.82677,E,4.097,211.51,110420,,,A*63
$GPRMC,004538.80,A,3724.51225,N,12641.82677,E,4.097,211.51,110420,,,A*63
$GPRMC,004539.00,A,3724.51225,N,12641.82677,E,4.097,211.51,110420,,,A*63
$GPRMC,004539.20,A,3724.51225,N,12641.82677,E,4.097,211.51,110420,,,A*63
$GPRMC,004539.40,A,3724.51225,N,12641.82677,E,4.097,211.51,110420,,,A*63
$GPRMC,004539.60,A,3724.51225,N,12641.82677,E,4.097,211.51,110420,,,A*63
$GPRMC,004539.80,A,3724.51225,N,12641.82677,E,4.097,211.51,110420,,,A*63
$GPRMC,004540.00,A,3724.51225,N,12641.82677,E,4.097,211.51,110420,,,A*63
$GPRMC,004540.20,A,3724.51225,N,12641.82677,E,4.097,211.51,110420,,,A*63
$GPRMC,004540.40,A,3724.51225,N,12641.82677,E,4.097,211.51,110420,,,A*63
$GPRMC,004540.60,A,3724.51225,N,12641.82677,E,4.097,211.51,110420,,,A*63
$GPRMC,004540.80,A,3724.51225,N,12641.82677,E,4.097,211.51,110420,,,A*63
$GPRMC,004541.00,A,3724.51225,N,12641.82677,E,4.097,211.51,110420,,,A*63
$GPRMC,004541.20,A,3724.51225,N,12641.82677,E,4.097,211.51,110420,,,A*63
$GPRMC,004541.40,A,3724.51225,N,12641.82677,E,4.097,211.51,110420,,,A*63
$GPRMC,004541.60,A,3724.51225,N,12641.82677,E,4.097,211.51,110420,,,A*63
$GPRMC,004541.80,A,3724.51225,N,12641.82677,E,4.097,211.51,110420,,,A*63
$GPRMC,004542.00,A,3724.51225,N,12641.82677,E,4.097,211.51,110420,,,A*63
$GPRMC,004542.20,A,3724.51225,N,12641.82677,E,4.097,211.51,110420,,,A*63
$GPRMC,004542.40,A,3724.51225,N,12641.82677,E,4.097,211.51,110420,,,A*63
$GPRMC,004542.60,A,3724.51225,N,12641.82677,E,4.097,211.51,110420,,,A*63
$GPRMC,004542.80,A,3724.51225,N,12641.82677,E,4.097,211.51,110420,,,A*63
$GPRMC,004543.00,A,3724.51225,N,12641.82677,E,4.097,211.51,110420,,,A*63
$GPRMC,004543.20,A,3724.51225,N,12641.82677,E,4.097,211.51,110420,,,A*63
$GPRMC,004543.40,A,3724.51225,N,12641.82677,E,4.097,211.51,110420,,,A*63
$GPRMC,004543.60,A,3724.51225,N,12641.82677,E,4.097,211.51,110420,,,A*63
$GPRMC,004543.80,A,3724.51225,N,12641.82677,E,4.097,211.51,110420,,,A*63
$GPRMC,004544.00,A,3724.51225,N,12641.82677,E,4.097,211.51,110420,,,A*63
$GPRMC,004544.20,A,3724.51225,N,12641.82677,E,4.097,211.51,110420,,,A*63
$GPRMC,004544.40,A,3724.51225,N,12641.82677,E,4.097,211.51,110420,,,A*63
$GPRMC,004544.60,A,3724.51225,N,12641.82677,E,4.097,211.51,110420,,,A*63
$GPRMC,004544.80,A,3724.51225,N,12641.82677,E,4.097,211.51,110420,,,A*63
$GPRMC,004545.00,A,3724.51225,N,12641.82677,E,4.097,211.51,110420,,,A*63
$GPRMC,004545.20,A,3724.51225,N,12641.82677,E,4.097,211.51,110420,,,A*63
$GPRMC,004545.40,A,3724.51225,N,12641.82677,E,4.097,211.51,110420,,,A*63
$GPRMC,004545.60,A,3724.51225,N,12641.82677,E,4.097,211.51,110420,,,A*63
$GPRMC,004545.80,A,3724.51225,N,12641.82677,E,4.097,211.51,110420,,,A*63
$GPRMC,004546.00,A,3724.51225,N,12641.82677,E,4.097,211.51,110420,,,A*63
$GPRMC,004546.20,A,3724.51225,N,12641.82677,E,4.097,211.51,110420,,,A*63
$GPRMC,004546.40,A,3724.51225,N,12641.82677,E,4.097,211.51,110420,,,A*63
$GPRMC,004546.60,A,3724.51225,N,12641.82677,E,4.097,211.51,110420,,,A*63
$GPRMC,004546.80,A,3724.51225,N,12641.82677,E,4.097,211.51,110420,,,A*63
$GPRMC,004547.00,A,3724.51225,N,12641.82677,E,4.097,211.51,110420,,,A*63
$GPRMC,004547.20,A,3724.51225,N,12641.82677,E,4.097,211.51,110420,,,A*63
$GPRMC,004547.40,A,3724.51225,N,12641.82677,E,4.097,211.51,110420,,,A*63
$GPRMC,004547.60,A,3724.51225,N,12641.82677,E,4.097,211.51,110420,,,A*63
$GPRMC,004547.80,A,3724.51225,N,12641.82677,E,4.097,211.51,110420,,,A*63
$GPRMC,004548.00,A,3724.51225,N,12641.82677,E,4.097,211.51,110420,,,A*63
$GPRMC,004548.20,A,3724.51225,N,12641.82677,E,4.097,211.51,110420,,,A*63
$GPRMC,004548.40,A,3724.51225,N,12641.82677,E,4.097,211.51,110420,,,A*63
$GPRMC,004548.60,A,3724.51225,N,12641.82677,E,4.097,211.51,110420,,,A*63
$GPRMC,004548.80,A,3724.51225,N,12641.82677,E,4.097,211.51,110420,,,A*63
$GPRMC,004549.00,A,3724.51225,N,12641.82677,E,4.097,211.51,110420,,,A*63
$GPRMC,004549.20,A,3724.51225,N,12641.82677,E,4.097,211.51,110420,,,A*63
$GPRMC,004549.40,A,3724.51225,N,12641.82677,E,4.097,211.51,110420,,,A*63
$GPRMC,004549.60,A,3724.51225,N,12641.82677,E,4.097,211.51,110420,,,A*63
$GPRMC,004549.80,A,3724.51225,N,12641.82677,E,4.097,211.51,110420,,,A*63
$GPRMC,004550.00,A,3724.51225,N,12641.82677,E,4.097,211.51,110420,,,A*63
$GPRMC,004550.20,A,3724.51225,N,12641.82677,E,4.097,211.51,110420,,,A*63
$GPRMC,004550.40,A,3724.51225,N,12641.82677,E,4.097,211.51,110420,,,A*63
$GPRMC,004550.60,A,3724.51225,N,12641.82677,E,4.097,211.51,110420,,,A*63
$GPRMC,004550.80,A,3724.51225,N,12641.82677,E,4.097,211.51,110420,,,A*63
$GPRMC,004551.00,A,3724.51225,N,12641.82677,E,4.097,211.51,110420,,,A*63
$GPRMC,004551.20,A,3724.51225,N,12641.82677,E,4.097,211.51,110420,,,A*63
$GPRMC,004551.40,A,3724.51225,N,12641.82677,E,4.097,211.51,110420,,,A*63
$GPRMC,004551.60,A,3724.51225,N,12641.82677,E,4.097,211.51,110420,,,A*63
$GPRMC,004551.80,A,3724.51225,N,12641.82677,E,4.097,211.51,110420,,,A*63
$GPRMC,004552.00,A,3724.51225,N,12641.82677,E,4.097,211.51,110420,,,A*63
$GPRMC,004552.20,A,3724.51225,N,12641.82677,E,4.097,211.51,110420,,,A*63
$GPRMC,004552.40,A,3724.51225,N,12641.82677,E,4.097,211.51,110420,,,A*63
$GPRMC,004552.60,A,3724.51225,N,12641.82677,E,4.097,211.51,110420,,,A*63
$GPRMC,004552.80,A,3724.51225,N,12641.82677,E,4.097,211.51,110420,,,A*63
$GPRMC,004553.00,A,3724.51225,N,12641.82677,E,4.097,211.51,110420,,,A*63
$GPRMC,004553.20,A,3724.51225,N,12641.82677,E,4.097,211.51,110420,,,A*63
$GPRMC,004553.40,A,3724.51225,N,12641.82677,E,4.097,211.51,110420,,,A*63
$GPRMC,004553.60,A,3724.51225,N,12641.82677,E,4.097,211.51,110420,,,A*63
$GPRMC,004553.80,A,3724.51225,N,12641.82677,E,4.097,211.51,110420,,,A*63
$GPRMC,004554.00,A,3724.51225,N,12641.82677,E,4.097,211.51,110420,,,A*63
$GPRMC,004554.20,A,3724.51225,N,12641.82677,E,4.097,211.51,110420,,,A*63
$GPRMC,004554.40,A,3724.51225,N,12641.82677,E,4.097,211.51,110420,,,A*63
$GPRMC,004554.60,A,3724.51225,N,12641.82677,E,4.097,211.51,110420,,,A*63
$GPRMC,004554.80,A,3724.51225,N,12641.82677,E,4.097,211.51,110420,,,A*63
$GPRMC,004555.00,A,3724.51225,N,12641.82677,E,4.097,211.51,110420,,,A*63
$GPRMC,004555.20,A,3724.51225,N,12641.82677,E,4.097,211.51,110420,,,A*63
$GPRMC,004555.40,A,3724.51225,N,12641.82677,E,4.097,211.51,110420,,,A*63
$GPRMC,004555.60,A,3724.51225,N,12641.82677,E,4.097,211.51,110420,,,A*63
$GPRMC,004555.80,A,3724.51225,N,12641.82677,E,4.097,211.51,110420,,,A*63
$GPRMC,004556.00,A,3724.51225,N,12641.82677,E,4.097,211.51,110420,,,A*63
$GPRMC,004556.20,A,3724.51225,N,12641.82677,E,4.097,211.51,110420,,,A*63
$GPRMC,004556.40,A,3724.51225,N,12641.82677,E,4.097,211.51,110420,,,A*63
$GPRMC,004556.60,A,3724.51225,N,12641.82677,E,4.097,211.51,110420,,,A*63
$GPRMC,004556.80,A,3724.51225,N,12641.82677,E,4.097,211.51,110420,,,A*63
