$GPRMC,020500.90,A,3724.51225,N,12641.82677,E,4.097,211.51,110420,,,A*63
$GPRMC,020501.00,A,3724.51225,N,12641.82677,E,4.097,211.51,110420,,,A*63
$GPRMC,020501.10,A,3724.51225,N,12641.82677,E,4.097,211.51,110420,,,A*63
$GPRMC,020501.20,A,3724.51225,N,12641.82677,E,4.097,211.51,110420,,,A*63
$GPRMC,020501.30,A,3724.51225,N,12641.82677,E,4.097,211.51,110420,,,A*63
$GPRMC,020501.40,A,3724.51225,N,12641.82677,E,4.097,211.51,110420,,,A*63
$GPRMC,020501.50,A,3724.51225,N,12641.82677,E,4.097,211.51,110420,,,A*63
$GPRMC,020501.60,A,3724.51225,N,12641.82677,E,4.097,211.51,110420,,,A*63
$GPRMC,020501.70,A,3724.51225,N,12641.82677,E,4.097,211.51,110420,,,A*63
$GPRMC,020501.80,A,3724.51225,N,12641.82677,E,4.097,211.51,110420,,,A*63
$GPRMC,020501.90,A,3724.51225,N,12641.82677,E,4.097,211.51,110420,,,A*63
$GPRMC,020502.00,A,3724.51225,N,12641.82677,E,4.097,211.51,110420,,,A*63
$GPRMC,020502.10,A,3724.51225,N,12641.82677,E,4.097,211.51,110420,,,A*63
$GPRMC,020502.20,A,3724.51225,N,12641.82677,E,4.097,211.51,110420,,,A*63
$GPRMC,020502.30,A,3724.51225,N,12641.82677,E,4.097,211.51,110420,,,A*63
$GPRMC,020502.40,A,3724.51225,N,12641.82677,E,4.097,211.51,110420,,,A*63
$GPRMC,020502.50,A,3724.51225,N,12641.82677,E,4.097,211.51,110420,,,A*63
$GPRMC,020502.60,A,3724.51225,N,12641.82677,E,4.097,211.51,110420,,,A*63
$GPRMC,020502.70,A,3724.51225,N,12641.82677,E,4.097,211.51,110420,,,A*63
$GPRMC,020502.80,A,3724.51225,N,12641.82677,E,4.097,211.51,110420,,,A*63
$GPRMC,020502.90,A,3724.51225,N,12641.82677,E,4.097,211.51,110420,,,A*63
$GPRMC,020503.00,A,3724.51225,N,12641.82677,E,4.097,211.51,110420,,,A*63
$GPRMC,020503.10,A,3724.51225,N,12641.82677,E,4.097,211.51,110420,,,A*63
$GPRMC,020503.20,A,3724.51225,N,12641.82677,E,4.097,211.51,110420,,,A*63
$GPRMC,020503.30,A,3724.51225,N,12641.82677,E,4.097,211.51,110420,,,A*63
$GPRMC,020503.40,A,3724.51225,N,12641.82677,E,4.097,211.51,110420,,,A*63
$GPRMC,020503.50,A,3724.51225,N,12641.82677,E,4.097,211.51,110420,,,A*63
$GPRMC,020503.60,A,3724.51225,N,12641.82677,E,4.097,211.51,110420,,,A*63
$GPRMC,020503.70,A,3724.51225,N,12641.82677,E,4.097,211.51,110420,,,A*63
$GPRMC,020503.80,A,3724.51225,N,12641.82677,E,4.097,211.51,110420,,,A*63
$GPRMC,020504.90,A,3724.51225,N,12641.82677,E,4.097,211.51,110420,,,A*63
$GPRMC,020505.00,A,3724.51225,N,12641.82677,E,4.097,211.51,110420,,,A*63
$GPRMC,020505.10,A,3724.51225,N,12641.82677,E,4.097,211.51,110420,,,A*63
$GPRMC,020505.20,A,3724.51225,N,12641.82677,E,4.097,211.51,110420,,,A*63
$GPRMC,020505.30,A,3724.51225,N,12641.82677,E,4.097,211.51,110420,,,A*63
$GPRMC,020505.40,A,3724.51225,N,12641.82677,E,4.097,211.51,110420,,,A*63
$GPRMC,020505.50,A,3724.51225,N,12641.82677,E,4.097,211.51,110420,,,A*63
$GPRMC,020505.60,A,3724.51225,N,12641.82677,E,4.097,211.51,110420,,,A*63
$GPRMC,020505.70,A,3724.51225,N,12641.82677,E,4.097,211.51,110420,,,A*63
$GPRMC,020505.80,A,3724.51225,N,12641.82677,E,4.097,211.51,110420,,,A*63
$GPRMC,020505.90,A,3724.51225,N,12641.82677,E,4.097,211.51,110420,,,A*63
$GPRMC,020506.00,A,3724.51225,N,12641.82677,E,4.097,211.51,110420,,,A*63
$GPRMC,020506.10,A,3724.51225,N,12641.82677,E,4.097,211.51,110420,,,A*63
$GPRMC,020506.20,A,3724.51225,N,12641.82677,E,4.097,211.51,110420,,,A*63
$GPRMC,020506.30,A,3724.51225,N,12641.82677,E,4.097,211.51,110420,,,A*63
$GPRMC,020506.40,A,3724.51225,N,12641.82677,E,4.097,211.51,110420,,,A*63
$GPRMC,020506.50,A,3724.51225,N,12641.82677,E,4.097,211.51,110420,,,A*63
$GPRMC,020506.60,A,3724.51225,N,12641.82677,E,4.097,211.51,110420,,,A*63
$GPRMC,020506.70,A,3724.51225,N,12641.82677,E,4.097,211.51,110420,,,A*63
$GPRMC,020506.80,A,3724.51225,N,12641.82677,E,4.097,211.51,110420,,,A*63
$GPRMC,020506.90,A,3724.51225,N,12641.82677,E,4.097,211.51,110420,,,A*63
$GPRMC,020507.00,A,3724.51225,N,12641.82677,E,4.097,211.51,110420,,,A*63
$GPRMC,020507.10,A,3724.51225,N,12641.82677,E,4.097,211.51,110420,,,A*63
$GPRMC,020507.20,A,3724.51225,N,12641.82677,E,4.097,211.51,110420,,,A*63
$GPRMC,020507.30,A,3724.51225,N,12641.82677,E,4.097,211.51,110420,,,A*63
$GPRMC,020507.40,A,3724.51225,N,12641.82677,E,4.097,211.51,110420,,,A*63
$GPRMC,020507.50,A,3724.51225,N,12641.82677,E,4.097,211.51,110420,,,A*63
$GPRMC,020507.60,A,3724.51225,N,12641.82677,E,4.097,211.51,110420,,,A*63
$GPRMC,020507.70,A,3724.51225,N,12641.82677,E,4.097,211.51,110420,,,A*63
$GPRMC,020507.80,A,3724.51225,N,12641.82677,E,4.097,211.51,110420,,,A*63
$GPRMC,020507.90,A,3724.51225,N,12641.82677,E,4.097,211.51,110420,,,A*63
$GPRMC,020508.00,A,3724.51225,N,12641.82677,E,4.097,211.51,110420,,,A*63
$GPRMC,020508.10,A,3724.51225,N,12641.82677,E,4.097,211.51,110420,,,A*63
$GPRMC,020508.20,A,3724.51225,N,12641.82677,E,4.097,211.51,110420,,,A*63
$GPRMC,020508.30,A,3724.51225,N,12641.82677,E,4.097,211.51,110420,,,A*63
$GPRMC,020508.40,A,3724.51225,N,12641.82677,E,4.097,211.51,110420,,,A*63
$GPRMC,020508.50,A,3724.51225,N,12641.82677,E,4.097,211.51,110420,,,A*63
$GPRMC,020508.60,A,3724.51225,N,12641.82677,E,4.097,211.51,110420,,,A*63
$GPRMC,020508.70,A,3724.51225,N,12641.82677,E,4.097,211.51,110420,,,A*63
$GPRMC,020508.80,A,3724.51225,N,12641.82677,E,4.097,211.51,110420,,,A*63
$GPRMC,020508.90,A,3724.51225,N,12641.82677,E,4.097,211.51,110420,,,A*63
$GPRMC,020509.00,A,3724.51225,N,12641.82677,E,4.097,211.51,110420,,,A*63
$GPRMC,020509.10,A,3724.51225,N,12641.82677,E,4.097,211.51,110420,,,A*63
$GPRMC,020509.20,A,3724.51225,N,12641.82677,E,4.097,211.51,110420,,,A*63
$GPRMC,020509.30,A,3724.51225,N,12641.82677,E,4.097,211.51,110420,,,A*63
$GPRMC,020509.40,A,3724.51225,N,12641.82677,E,4.097,211.51,110420,,,A*63
$GPRMC,020509.50,A,3724.51225,N,12641.82677,E,4.097,211.51,110420,,,A*63
$GPRMC,020509.60,A,3724.51225,N,12641.82677,E,4.097,211.51,110420,,,A*63
$GPRMC,020509.70,A,3724.51225,N,12641.82677,E,4.097,211.51,110420,,,A*63
$GPRMC,020509.80,A,3724.51225,N,12641.82677,E,4.097,211.51,110420,,,A*63
$GPRMC,020509.90,A,3724.51225,N,12641.82677,E,4.097,211.51,110420,,,A*63
$GPRMC,020510.00,A,3724.51225,N,12641.82677,E,4.097,211.51,110420,,,A*63
$GPRMC,020510.10,A,3724.51225,N,12641.82677,E,4.097,211.51,110420,,,A*63
$GPRMC,020510.20,A,3724.51225,N,12641.82677,E,4.097,211.51,110420,,,A*63
$GPRMC,020510.30,A,3724.51225,N,12641.82677,E,4.097,211.51,110420,,,A*63
$GPRMC,020510.40,A,3724.51225,N,12641.82677,E,4.097,211.51,110420,,,A*63
$GPRMC,020510.50,A,3724.51225,N,12641.82677,E,4.097,211.51,110420,,,A*63
$GPRMC,020510.60,A,3724.51225,N,12641.82677,E,4.097,211.51,110420,,,A*63
$GPRMC,020510.70,A,3724.51225,N,12641.82677,E,4.097,211.51,110420,,,A*63
$GPRMC,020510.80,A,3724.51225,N,12641.82677,E,4.097,211.51,110420,,,A*63
$GPRMC,020517.90,A,3724.51225,N,12641.82677,E,4.097,211.51,110420,,,A*63
$GPRMC,020518.00,A,3724.51225,N,12641.82677,E,4.097,211.51,110420,,,A*63
$GPRMC,020518.10,A,3724.51225,N,12641.82677,E,4.097,211.51,110420,,,A*63
$GPRMC,020518.20,A,3724.51225,N,12641.82677,E,4.097,211.51,110420,,,A*63
$GPRMC,020518.30,A,3724.51225,N,12641.82677,E,4.097,211.51,110420,,,A*63
$GPRMC,020518.40,A,3724.51225,N,12641.82677,E,4.097,211.51,110420,,,A*63
$GPRMC,020518.50,A,3724.51225,N,12641.82677,E,4.097,211.51,110420,,,A*63
$GPRMC,020518.60,A,3724.51225,N,12641.82677,E,4.097,211.51,110420,,,A*63
$GPRMC,020518.70,A,3724.51225,N,12641.82677,E,4.097,211.51,110420,,,A*63
$GPRMC,020518.80,A,3724.51225,N,12641.82677,E,4.097,211.51,110420,,,A*63
$GPRMC,020518.90,A,3724.51225,N,12641.82677,E,4.097,211.51,110420,,,A*63
$GPRMC,020519.00,A,3724.51225,N,12641.82677,E,4.097,211.51,110420,,,A*63
$GPRMC,020519.10,A,3724.51225,N,12641.82677,E,4.097,211.51,110420,,,A*63
$GPRMC,020519.20,A,3724.51225,N,12641.82677,E,4.097,211.51,110420,,,A*63
$GPRMC,020519.30,A,3724.51225,N,12641.82677,E,4.097,211.51,110420,,,A*63
$GPRMC,020519.40,A,3724.51225,N,12641.82677,E,4.097,211.51,110420,,,A*63
$GPRMC,020519.50,A,3724.51225,N,12641.82677,E,4.097,211.51,110420,,,A*63
$GPRMC,020519.60,A,3724.51225,N,12641.82677,E,4.097,211.51,110420,,,A*63
$GPRMC,020519.70,A,3724.51225,N,12641.82677,E,4.097,211.51,110420,,,A*63
$GPRMC,020519.80,A,3724.51225,N,12641.82677,E,4.097,211.51,110420,,,A*63
$GPRMC,020519.90,A,3724.51225,N,12641.82677,E,4.097,211.51,110420,,,A*63
$GPRMC,020520.00,A,3724.51225,N,12641.82677,E,4.097,211.51,110420,,,A*63
$GPRMC,020520.10,A,3724.51225,N,12641.82677,E,4.097,211.51,110420,,,A*63
$GPRMC,020520.20,A,3724.51225,N,12641.82677,E,4.097,211.51,110420,,,A*63
$GPRMC,020520.30,A,3724.51225,N,12641.82677,E,4.097,211.51,110420,,,A*63
$GPRMC,020520.40,A,3724.51225,N,12641.82677,E,4.097,211.51,110420,,,A*63
$GPRMC,020520.50,A,3724.51225,N,12641.82677,E,4.097,211.51,110420,,,A*63
$GPRMC,020520.60,A,3724.51225,N,12641.82677,E,4.097,211.51,110420,,,A*63
$GPRMC,020520.70,A,3724.51225,N,12641.82677,E,4.097,211.51,110420,,,A*63
$GPRMC,020520.80,A,3724.51225,N,12641.82677,E,4.097,211.51,110420,,,A*63
$GPRMC,020523.90,A,3724.51225,N,12641.82677,E,4.097,211.51,110420,,,A*63
$GPRMC,020524.00,A,3724.51225,N,12641.82677,E,4.097,211.51,110420,,,A*63
$GPRMC,020524.10,A,3724.51225,N,12641.82677,E,4.097,211.51,110420,,,A*63
$GPRMC,020524.20,A,3724.51225,N,12641.82677,E,4.097,211.51,110420,,,A*63
$GPRMC,020524.30,A,3724.51225,N,12641.82677,E,4.097,211.51,110420,,,A*63
$GPRMC,020524.40,A,3724.51225,N,12641.82677,E,4.097,211.51,110420,,,A*63
$GPRMC,020524.50,A,3724.51225,N,12641.82677,E,4.097,211.51,110420,,,A*63
$GPRMC,020524.60,A,3724.51225,N,12641.82677,E,4.097,211.51,110420,,,A*63
$GPRMC,020524.70,A,3724.51225,N,12641.82677,E,4.097,211.51,110420,,,A*63
$GPRMC,020524.80,A,3724.51225,N,12641.82677,E,4.097,211.51,110420,,,A*63
$GPRMC,020524.90,A,3724.51225,N,12641.82677,E,4.097,211.51,110420,,,A*63
$GPRMC,020525.00,A,3724.51225,N,12641.82677,E,4.097,211.51,110420,,,A*63
$GPRMC,020525.10,A,3724.51225,N,12641.82677,E,4.097,211.51,110420,,,A*63
$GPRMC,020525.20,A,3724.51225,N,12641.82677,E,4.097,211.51,110420,,,A*63
$GPRMC,020525.30,A,3724.51225,N,12641.82677,E,4.097,211.51,110420,,,A*63
$GPRMC,020525.40,A,3724.51225,N,12641.82677,E,4.097,211.51,110420,,,A*63
$GPRMC,020525.50,A,3724.51225,N,12641.82677,E,4.097,211.51,110420,,,A*63
$GPRMC,020525.60,A,3724.51225,N,12641.82677,E,4.097,211.51,110420,,,A*63
$GPRMC,020525.70,A,3724.51225,N,12641.82677,E,4.097,211.51,110420,,,A*63
$GPRMC,020525.80,A,3724.51225,N,12641.82677,E,4.097,211.51,110420,,,A*63
$GPRMC,020525.90,A,3724.51225,N,12641.82677,E,4.097,211.51,110420,,,A*63
$GPRMC,020526.00,A,3724.51225,N,12641.82677,E,4.097,211.51,110420,,,A*63
$GPRMC,020526.10,A,3724.51225,N,12641.82677,E,4.097,211.51,110420,,,A*63
$GPRMC,020526.20,A,3724.51225,N,12641.82677,E,4.097,211.51,110420,,,A*63
$GPRMC,020526.30,A,3724.51225,N,12641.82677,E,4.097,211.51,110420,,,A*63
$GPRMC,020526.40,A,3724.51225,N,12641.82677,E,4.097,211.51,110420,,,A*63
$GPRMC,020526.50,A,3724.51225,N,12641.82677,E,4.097,211.51,110420,,,A*63
$GPRMC,020526.60,A,3724.51225,N,12641.82677,E,4.097,211.51,110420,,,A*63
$GPRMC,020526.70,A,3724.51225,N,12641.82677,E,4.097,211.51,110420,,,A*63
$GPRMC,020526.80,A,3724.51225,N,12641.82677,E,4.097,211.51,110420,,,A*63
$GPRMC,020526.90,A,3724.51225,N,12641.82677,E,4.097,211.51,110420,,,A*63
$GPRMC,020527.00,A,3724.51225,N,12641.82677,E,4.097,211.51,110420,,,A*63
$GPRMC,020527.10,A,3724.51225,N,12641.82677,E,4.097,211.51,110420,,,A*63
$GPRMC,020527.20,A,3724.51225,N,12641.82677,E,4.097,211.51,110420,,,A*63
$GPRMC,020527.30,A,3724.51225,N,12641.82677,E,4.097,211.51,110420,,,A*63
$GPRMC,020527.40,A,3724.51225,N,12641.82677,E,4.097,211.51,110420,,,A*63
$GPRMC,020527.50,A,3724.51225,N,12641.82677,E,4.097,211.51,110420,,,A*63
$GPRMC,020527.60,A,3724.51225,N,12641.82677,E,4.097,211.51,110420,,,A*63
$GPRMC,020527.70,A,3724.51225,N,12641.82677,E,4.097,211.51,110420,,,A*63
$GPRMC,020527.80,A,3724.51225,N,12641.82677,E,4.097,211.51,110420,,,A*63
