$GPRMC,020455.30,A,3724.51225,N,12641.82677,E,4.097,211.51,110420,,,A*63
$GPRMC,020455.40,A,3724.51225,N,12641.82677,E,4.097,211.51,110420,,,A*63
$GPRMC,020455.50,A,3724.51225,N,12641.82677,E,4.097,211.51,110420,,,A*63
$GPRMC,020455.60,A,3724.51225,N,12641.82677,E,4.097,211.51,110420,,,A*63
$GPRMC,020455.70,A,3724.51225,N,12641.82677,E,4.097,211.51,110420,,,A*63
$GPRMC,020455.80,A,3724.51225,N,12641.82677,E,4.097,211.51,110420,,,A*63
$GPRMC,020455.90,A,3724.51225,N,12641.82677,E,4.097,211.51,110420,,,A*63
$GPRMC,020456.00,A,3724.51225,N,12641.82677,E,4.097,211.51,110420,,,A*63
$GPRMC,020456.10,A,3724.51225,N,12641.82677,E,4.097,211.51,110420,,,A*63
$GPRMC,020456.20,A,3724.51225,N,12641.82677,E,4.097,211.51,110420,,,A*63
$GPRMC,020456.30,A,3724.51225,N,12641.82677,E,4.097,211.51,110420,,,A*63
$GPRMC,020456.40,A,3724.51225,N,12641.82677,E,4.097,211.51,110420,,,A*63
$GPRMC,020456.50,A,3724.51225,N,12641.82677,E,4.097,211.51,110420,,,A*63
$GPRMC,020456.60,A,3724.51225,N,12641.82677,E,4.097,211.51,110420,,,A*63
$GPRMC,020456.70,A,3724.51225,N,12641.82677,E,4.097,211.51,110420,,,A*63
$GPRMC,020456.80,A,3724.51225,N,12641.82677,E,4.097,211.51,110420,,,A*63
$GPRMC,020456.90,A,3724.51225,N,12641.82677,E,4.097,211.51,110420,,,A*63
$GPRMC,020457.00,A,3724.51225,N,12641.82677,E,4.097,211.51,110420,,,A*63
$GPRMC,020457.10,A,3724.51225,N,12641.82677,E,4.097,211.51,110420,,,A*63
$GPRMC,020457.20,A,3724.51225,N,12641.82677,E,4.097,211.51,110420,,,A*63
$GPRMC,020457.30,A,3724.51225,N,12641.82677,E,4.097,211.51,110420,,,A*63
$GPRMC,020457.40,A,3724.51225,N,12641.82677,E,4.097,211.51,110420,,,A*63
$GPRMC,020457.50,A,3724.51225,N,12641.82677,E,4.097,211.51,110420,,,A*63
$GPRMC,020457.60,A,3724.51225,N,12641.82677,E,4.097,211.51,110420,,,A*63
$GPRMC,020457.70,A,3724.51225,N,12641.82677,E,4.097,211.51,110420,,,A*63
$GPRMC,020457.80,A,3724.51225,N,12641.82677,E,4.097,211.51,110420,,,A*63
$GPRMC,020457.90,A,3724.51225,N,12641.82677,E,4.097,211.51,110420,,,A*63
$GPRMC,020458.00,A,3724.51225,N,12641.82677,E,4.097,211.51,110420,,,A*63
$GPRMC,020458.10,A,3724.51225,N,12641.82677,E,4.097,211.51,110420,,,A*63
$GPRMC,020458.20,A,3724.51225,N,12641.82677,E,4.097,211.51,110420,,,A*63
$GPRMC,020458.30,A,3724.51225,N,12641.82677,E,4.097,211.51,110420,,,A*63
$GPRMC,020458.40,A,3724.51225,N,12641.82677,E,4.097,211.51,110420,,,A*63
$GPRMC,020458.50,A,3724.51225,N,12641.82677,E,4.097,211.51,110420,,,A*63
$GPRMC,020458.60,A,3724.51225,N,12641.82677,E,4.097,211.51,110420,,,A*63
$GPRMC,020458.70,A,3724.51225,N,12641.82677,E,4.097,211.51,110420,,,A*63
$GPRMC,020458.80,A,3724.51225,N,12641.82677,E,4.097,211.51,110420,,,A*63
$GPRMC,020458.90,A,3724.51225,N,12641.82677,E,4.097,211.51,110420,,,A*63
$GPRMC,020459.00,A,3724.51225,N,12641.82677,E,4.097,211.51,110420,,,A*63
$GPRMC,020459.10,A,3724.51225,N,12641.82677,E,4.097,211.51,110420,,,A*63
$GPRMC,020459.20,A,3724.51225,N,12641.82677,E,4.097,211.51,110420,,,A*63
$GPRMC,020459.30,A,3724.51225,N,12641.82677,E,4.097,211.51,110420,,,A*63
$GPRMC,020459.40,A,3724.51225,N,12641.82677,E,4.097,211.51,110420,,,A*63
$GPRMC,020459.50,A,3724.51225,N,12641.82677,E,4.097,211.51,110420,,,A*63
$GPRMC,020459.60,A,3724.51225,N,12641.82677,E,4.097,211.51,110420,,,A*63
$GPRMC,020459.70,A,3724.51225,N,12641.82677,E,4.097,211.51,110420,,,A*63
$GPRMC,020459.80,A,3724.51225,N,12641.82677,E,4.097,211.51,110420,,,A*63
$GPRMC,020459.90,A,3724.51225,N,12641.82677,E,4.097,211.51,110420,,,A*63
$GPRMC,020500.00,A,3724.51225,N,12641.82677,E,4.097,211.51,110420,,,A*63
$GPRMC,020500.10,A,3724.51225,N,12641.82677,E,4.097,211.51,110420,,,A*63
$GPRMC,020500.20,A,3724.51225,N,12641.82677,E,4.097,211.51,110420,,,A*63
$GPRMC,020500.30,A,3724.51225,N,12641.82677,E,4.097,211.51,110420,,,A*63
$GPRMC,020500.40,A,3724.51225,N,12641.82677,E,4.097,211.51,110420,,,A*63
$GPRMC,020500.50,A,3724.51225,N,12641.82677,E,4.097,211.51,110420,,,A*63
$GPRMC,020500.60,A,3724.51225,N,12641.82677,E,4.097,211.51,110420,,,A*63
$GPRMC,020500.70,A,3724.51225,N,12641.82677,E,4.097,211.51,110420,,,A*63
$GPRMC,020500.80,A,3724.51225,N,12641.82677,E,4.097,211.51,110420,,,A*63
$GPRMC,020500.90,A,3724.51225,N,12641.82677,E,4.097,211.51,110420,,,A*63
$GPRMC,020501.00,A,3724.51225,N,12641.82677,E,4.097,211.51,110420,,,A*63
$GPRMC,020501.10,A,3724.51225,N,12641.82677,E,4.097,211.51,110420,,,A*63
$GPRMC,020501.20,A,3724.51225,N,12641.82677,E,4.097,211.51,110420,,,A*63
$GPRMC,020501.30,A,3724.51225,N,12641.82677,E,4.097,211.51,110420,,,A*63
$GPRMC,020501.40,A,3724.51225,N,12641.82677,E,4.097,211.51,110420,,,A*63
$GPRMC,020501.50,A,3724.51225,N,12641.82677,E,4.097,211.51,110420,,,A*63
$GPRMC,020501.60,A,3724.51225,N,12641.82677,E,4.097,211.51,110420,,,A*63
$GPRMC,020501.70,A,3724.51225,N,12641.82677,E,4.097,211.51,110420,,,A*63
$GPRMC,020501.80,A,3724.51225,N,12641.82677,E,4.097,211.51,110420,,,A*63
$GPRMC,020501.90,A,3724.51225,N,12641.82677,E,4.097,211.51,110420,,,A*63
$GPRMC,020502.00,A,3724.51225,N,12641.82677,E,4.097,211.51,110420,,,A*63
$GPRMC,020502.10,A,3724.51225,N,12641.82677,E,4.097,211.51,110420,,,A*63
$GPRMC,020502.20,A,3724.51225,N,12641.82677,E,4.097,211.51,110420,,,A*63
$GPRMC,020502.30,A,3724.51225,N,12641.82677,E,4.097,211.51,110420,,,A*63
$GPRMC,020502.40,A,3724.51225,N,12641.82677,E,4.097,211.51,110420,,,A*63
$GPRMC,020502.50,A,3724.51225,N,12641.82677,E,4.097,211.51,110420,,,A*63
$GPRMC,020502.60,A,3724.51225,N,12641.82677,E,4.097,211.51,110420,,,A*63
$GPRMC,020502.70,A,3724.51225,N,12641.82677,E,4.097,211.51,110420,,,A*63
$GPRMC,020502.80,A,3724.51225,N,12641.82677,E,4.097,211.51,110420,,,A*63
$GPRMC,020502.90,A,3724.51225,N,12641.82677,E,4.097,211.51,110420,,,A*63
$GPRMC,020503.00,A,3724.51225,N,12641.82677,E,4.097,211.51,110420,,,A*63
$GPRMC,020503.10,A,3724.51225,N,12641.82677,E,4.097,211.51,110420,,,A*63
$GPRMC,020503.20,A,3724.51225,N,12641.82677,E,4.097,211.51,110420,,,A*63
$GPRMC,020503.30,A,3724.51225,N,12641.82677,E,4.097,211.51,110420,,,A*63
$GPRMC,020503.40,A,3724.51225,N,12641.82677,E,4.097,211.51,110420,,,A*63
$GPRMC,020503.50,A,3724.51225,N,12641.82677,E,4.097,211.51,110420,,,A*63
$GPRMC,020503.60,A,3724.51225,N,12641.82677,E,4.097,211.51,110420,,,A*63
$GPRMC,020503.70,A,3724.51225,N,12641.82677,E,4.097,211.51,110420,,,A*63
$GPRMC,020503.80,A,3724.51225,N,12641.82677,E,4.097,211.51,110420,,,A*63
$GPRMC,020503.90,A,3724.51225,N,12641.82677,E,4.097,211.51,110420,,,A*63
$GPRMC,020504.00,A,3724.51225,N,12641.82677,E,4.097,211.51,110420,,,A*63
$GPRMC,020504.10,A,3724.51225,N,12641.82677,E,4.097,211.51,110420,,,A*63
$GPRMC,020504.20,A,3724.51225,N,12641.82677,E,4.097,211.51,110420,,,A*63
$GPRMC,020504.30,A,3724.51225,N,12641.82677,E,4.097,211.51,110420,,,A*63
$GPRMC,020504.40,A,3724.51225,N,12641.82677,E,4.097,211.51,110420,,,A*63
$GPRMC,020504.50,A,3724.51225,N,12641.82677,E,4.097,211.51,110420,,,A*63
$GPRMC,020504.60,A,3724.51225,N,12641.82677,E,4.097,211.51,110420,,,A*63
$GPRMC,020504.70,A,3724.51225,N,12641.82677,E,4.097,211.51,110420,,,A*63
$GPRMC,020504.80,A,3724.51225,N,12641.82677,E,4.097,211.51,110420,,,A*63
$GPRMC,020504.90,A,3724.51225,N,12641.82677,E,4.097,211.51,110420,,,A*63
$GPRMC,020505.00,A,3724.51225,N,12641.82677,E,4.097,211.51,110420,,,A*63
$GPRMC,020505.10,A,3724.51225,N,12641.82677,E,4.097,211.51,110420,,,A*63
$GPRMC,020505.20,A,3724.51225,N,12641.82677,E,4.097,211.51,110420,,,A*63
$GPRMC,020505.30,A,3724.51225,N,12641.82677,E,4.097,211.51,110420,,,A*63
$GPRMC,020505.40,A,3724.51225,N,12641.82677,E,4.097,211.51,110420,,,A*63
$GPRMC,020505.50,A,3724.51225,N,12641.82677,E,4.097,211.51,110420,,,A*63
$GPRMC,020505.60,A,3724.51225,N,12641.82677,E,4.097,211.51,110420,,,A*63
$GPRMC,020505.70,A,3724.51225,N,12641.82677,E,4.097,211.51,110420,,,A*63
$GPRMC,020505.80,A,3724.51225,N,12641.82677,E,4.097,211.51,110420,,,A*63
$GPRMC,020505.90,A,3724.51225,N,12641.82677,E,4.097,211.51,110420,,,A*63
$GPRMC,020506.00,A,3724.51225,N,12641.82677,E,4.097,211.51,110420,,,A*63
$GPRMC,020506.10,A,3724.51225,N,12641.82677,E,4.097,211.51,110420,,,A*63
$GPRMC,020506.20,A,3724.51225,N,12641.82677,E,4.097,211.51,110420,,,A*63
$GPRMC,020506.30,A,3724.51225,N,12641.82677,E,4.097,211.51,110420,,,A*63
$GPRMC,020506.40,A,3724.51225,N,12641.82677,E,4.097,211.51,110420,,,A*63
$GPRMC,020506.50,A,3724.51225,N,12641.82677,E,4.097,211.51,110420,,,A*63
$GPRMC,020506.60,A,3724.51225,N,12641.82677,E,4.097,211.51,110420,,,A*63
$GPRMC,020506.70,A,3724.51225,N,12641.82677,E,4.097,211.51,110420,,,A*63
$GPRMC,020506.80,A,3724.51225,N,12641.82677,E,4.097,211.51,110420,,,A*63
$GPRMC,020506.90,A,3724.51225,N,12641.82677,E,4.097,211.51,110420,,,A*63
$GPRMC,020507.00,A,3724.51225,N,12641.82677,E,4.097,211.51,110420,,,A*63
$GPRMC,020507.10,A,3724.51225,N,12641.82677,E,4.097,211.51,110420,,,A*63
$GPRMC,020507.20,A,3724.51225,N,12641.82677,E,4.097,211.51,110420,,,A*63
$GPRMC,020507.30,A,3724.51225,N,12641.82677,E,4.097,211.51,110420,,,A*63
$GPRMC,020507.40,A,3724.51225,N,12641.82677,E,4.097,211.51,110420,,,A*63
$GPRMC,020507.50,A,3724.51225,N,12641.82677,E,4.097,211.51,110420,,,A*63
$GPRMC,020507.60,A,3724.51225,N,12641.82677,E,4.097,211.51,110420,,,A*63
$GPRMC,020507.70,A,3724.51225,N,12641.82677,E,4.097,211.51,110420,,,A*63
$GPRMC,020507.80,A,3724.51225,N,12641.82677,E,4.097,211.51,110420,,,A*63
$GPRMC,020507.90,A,3724.51225,N,12641.82677,E,4.097,211.51,110420,,,A*63
$GPRMC,020508.00,A,3724.51225,N,12641.82677,E,4.097,211.51,110420,,,A*63
$GPRMC,020508.10,A,3724.51225,N,12641.82677,E,4.097,211.51,110420,,,A*63
$GPRMC,020508.20,A,3724.51225,N,12641.82677,E,4.097,211.51,110420,,,A*63
$GPRMC,020508.30,A,3724.51225,N,12641.82677,E,4.097,211.51,110420,,,A*63
$GPRMC,020508.40,A,3724.51225,N,12641.82677,E,4.097,211.51,110420,,,A*63
$GPRMC,020508.50,A,3724.51225,N,12641.82677,E,4.097,211.51,110420,,,A*63
$GPRMC,020508.60,A,3724.51225,N,12641.82677,E,4.097,211.51,110420,,,A*63
$GPRMC,020508.70,A,3724.51225,N,12641.82677,E,4.097,211.51,110420,,,A*63
$GPRMC,020508.80,A,3724.51225,N,12641.82677,E,4.097,211.51,110420,,,A*63
$GPRMC,020508.90,A,3724.51225,N,12641.82677,E,4.097,211.51,110420,,,A*63
$GPRMC,020509.00,A,3724.51225,N,12641.82677,E,4.097,211.51,110420,,,A*63
$GPRMC,020509.10,A,3724.51225,N,12641.82677,E,4.097,211.51,110420,,,A*63
$GPRMC,020509.20,A,3724.51225,N,12641.82677,E,4.097,211.51,110420,,,A*63
$GPRMC,020509.30,A,3724.51225,N,12641.82677,E,4.097,211.51,110420,,,A*63
$GPRMC,020509.40,A,3724.51225,N,12641.82677,E,4.097,211.51,110420,,,A*63
$GPRMC,020509.50,A,3724.51225,N,12641.82677,E,4.097,211.51,110420,,,A*63
$GPRMC,020509.60,A,3724.51225,N,12641.82677,E,4.097,211.51,110420,,,A*63
$GPRMC,020509.70,A,3724.51225,N,12641.82677,E,4.097,211.51,110420,,,A*63
$GPRMC,020509.80,A,3724.51225,N,12641.82677,E,4.097,211.51,110420,,,A*63
$GPRMC,020509.90,A,3724.51225,N,12641.82677,E,4.097,211.51,110420,,,A*63
$GPRMC,020510.00,A,3724.51225,N,12641.82677,E,4.097,211.51,110420,,,A*63
$GPRMC,020510.10,A,3724.51225,N,12641.82677,E,4.097,211.51,110420,,,A*63
$GPRMC,020510.20,A,3724.51225,N,12641.82677,E,4.097,211.51,110420,,,A*63
$GPRMC,020510.30,A,3724.51225,N,12641.82677,E,4.097,211.51,110420,,,A*63
$GPRMC,020510.40,A,3724.51225,N,12641.82677,E,4.097,211.51,110420,,,A*63
$GPRMC,020510.50,A,3724.51225,N,12641.82677,E,4.097,211.51,110420,,,A*63
$GPRMC,020510.60,A,3724.51225,N,12641.82677,E,4.097,211.51,110420,,,A*63
$GPRMC,020510.70,A,3724.51225,N,12641.82677,E,4.097,211.51,110420,,,A*63
$GPRMC,020510.80,A,3724.51225,N,12641.82677,E,4.097,211.51,110420,,,A*63
$GPRMC,020510.90,A,3724.51225,N,12641.82677,E,4.097,211.51,110420,,,A*63
$GPRMC,020511.00,A,3724.51225,N,12641.82677,E,4.097,211.51,110420,,,A*63
$GPRMC,020511.10,A,3724.51225,N,12641.82677,E,4.097,211.51,110420,,,A*63
$GPRMC,020511.20,A,3724.51225,N,12641.82677,E,4.097,211.51,110420,,,A*63
$GPRMC,020515.30,A,3724.51225,N,12641.82677,E,4.097,211.51,110420,,,A*63
$GPRMC,020515.40,A,3724.51225,N,12641.82677,E,4.097,211.51,110420,,,A*63
$GPRMC,020515.50,A,3724.51225,N,12641.82677,E,4.097,211.51,110420,,,A*63
$GPRMC,020515.60,A,3724.51225,N,12641.82677,E,4.097,211.51,110420,,,A*63
$GPRMC,020515.70,A,3724.51225,N,12641.82677,E,4.097,211.51,110420,,,A*63
$GPRMC,020515.80,A,3724.51225,N,12641.82677,E,4.097,211.51,110420,,,A*63
$GPRMC,020515.90,A,3724.51225,N,12641.82677,E,4.097,211.51,110420,,,A*63
$GPRMC,020516.00,A,3724.51225,N,12641.82677,E,4.097,211.51,110420,,,A*63
$GPRMC,020516.10,A,3724.51225,N,12641.82677,E,4.097,211.51,110420,,,A*63
$GPRMC,020516.20,A,3724.51225,N,12641.82677,E,4.097,211.51,110420,,,A*63
$GPRMC,020516.30,A,3724.51225,N,12641.82677,E,4.097,211.51,110420,,,A*63
$GPRMC,020516.40,A,3724.51225,N,12641.82677,E,4.097,211.51,110420,,,A*63
$GPRMC,020516.50,A,3724.51225,N,12641.82677,E,4.097,211.51,110420,,,A*63
$GPRMC,020516.60,A,3724.51225,N,12641.82677,E,4.097,211.51,110420,,,A*63
$GPRMC,020516.70,A,3724.51225,N,12641.82677,E,4.097,211.51,110420,,,A*63
$GPRMC,020516.80,A,3724.51225,N,12641.82677,E,4.097,211.51,110420,,,A*63
$GPRMC,020516.90,A,3724.51225,N,12641.82677,E,4.097,211.51,110420,,,A*63
$GPRMC,020517.00,A,3724.51225,N,12641.82677,E,4.097,211.51,110420,,,A*63
$GPRMC,020517.10,A,3724.51225,N,12641.82677,E,4.097,211.51,110420,,,A*63
$GPRMC,020517.20,A,3724.51225,N,12641.82677,E,4.097,211.51,110420,,,A*63
$GPRMC,020517.30,A,3724.51225,N,12641.82677,E,4.097,211.51,110420,,,A*63
$GPRMC,020517.40,A,3724.51225,N,12641.82677,E,4.097,211.51,110420,,,A*63
$GPRMC,020517.50,A,3724.51225,N,12641.82677,E,4.097,211.51,110420,,,A*63
$GPRMC,020517.60,A,3724.51225,N,12641.82677,E,4.097,211.51,110420,,,A*63
$GPRMC,020517.70,A,3724.51225,N,12641.82677,E,4.097,211.51,110420,,,A*63
$GPRMC,020517.80,A,3724.51225,N,12641.82677,E,4.097,211.51,110420,,,A*63
$GPRMC,020517.90,A,3724.51225,N,12641.82677,E,4.097,211.51,110420,,,A*63
$GPRMC,020518.00,A,3724.51225,N,12641.82677,E,4.097,211.51,110420,,,A*63
$GPRMC,020518.10,A,3724.51225,N,12641.82677,E,4.097,211.51,110420,,,A*63
$GPRMC,020518.20,A,3724.51225,N,12641.82677,E,4.097,211.51,110420,,,A*63
$GPRMC,020518.30,A,3724.51225,N,12641.82677,E,4.097,211.51,110420,,,A*63
$GPRMC,020518.40,A,3724.51225,N,12641.82677,E,4.097,211.51,110420,,,A*63
$GPRMC,020518.50,A,3724.51225,N,12641.82677,E,4.097,211.51,110420,,,A*63
$GPRMC,020518.60,A,3724.51225,N,12641.82677,E,4.097,211.51,110420,,,A*63
$GPRMC,020518.70,A,3724.51225,N,12641.82677,E,4.097,211.51,110420,,,A*63
$GPRMC,020518.80,A,3724.51225,N,12641.82677,E,4.097,211.51,110420,,,A*63
$GPRMC,020518.90,A,3724.51225,N,12641.82677,E,4.097,211.51,110420,,,A*63
$GPRMC,020519.00,A,3724.51225,N,12641.82677,E,4.097,211.51,110420,,,A*63
$GPRMC,020519.10,A,3724.51225,N,12641.82677,E,4.097,211.51,110420,,,A*63
$GPRMC,020519.20,A,3724.51225,N,12641.82677,E,4.097,211.51,110420,,,A*63
$GPRMC,020519.30,A,3724.51225,N,12641.82677,E,4.097,211.51,110420,,,A*63
$GPRMC,020519.40,A,3724.51225,N,12641.82677,E,4.097,211.51,110420,,,A*63
$GPRMC,020519.50,A,3724.51225,N,12641.82677,E,4.097,211.51,110420,,,A*63
$GPRMC,020519.60,A,3724.51225,N,12641.82677,E,4.097,211.51,110420,,,A*63
$GPRMC,020519.70,A,3724.51225,N,12641.82677,E,4.097,211.51,110420,,,A*63
$GPRMC,020519.80,A,3724.51225,N,12641.82677,E,4.097,211.51,110420,,,A*63
$GPRMC,020519.90,A,3724.51225,N,12641.82677,E,4.097,211.51,110420,,,A*63
$GPRMC,020520.00,A,3724.51225,N,12641.82677,E,4.097,211.51,110420,,,A*63
$GPRMC,020520.10,A,3724.51225,N,12641.82677,E,4.097,211.51,110420,,,A*63
$GPRMC,020520.20,A,3724.51225,N,12641.82677,E,4.097,211.51,110420,,,A*63
$GPRMC,020520.30,A,3724.51225,N,12641.82677,E,4.097,211.51,110420,,,A*63
$GPRMC,020520.40,A,3724.51225,N,12641.82677,E,4.097,211.51,110420,,,A*63
$GPRMC,020520.50,A,3724.51225,N,12641.82677,E,4.097,211.51,110420,,,A*63
$GPRMC,020520.60,A,3724.51225,N,12641.82677,E,4.097,211.51,110420,,,A*63
$GPRMC,020520.70,A,3724.51225,N,12641.82677,E,4.097,211.51,110420,,,A*63
$GPRMC,020520.80,A,3724.51225,N,12641.82677,E,4.097,211.51,110420,,,A*63
$GPRMC,020520.90,A,3724.51225,N,12641.82677,E,4.097,211.51,110420,,,A*63
$GPRMC,020521.00,A,3724.51225,N,12641.82677,E,4.097,211.51,110420,,,A*63
$GPRMC,020521.10,A,3724.51225,N,12641.82677,E,4.097,211.51,110420,,,A*63
$GPRMC,020521.20,A,3724.51225,N,12641.82677,E,4.097,211.51,110420,,,A*63
$GPRMC,020521.30,A,3724.51225,N,12641.82677,E,4.097,211.51,110420,,,A*63
$GPRMC,020521.40,A,3724.51225,N,12641.82677,E,4.097,211.51,110420,,,A*63
$GPRMC,020521.50,A,3724.51225,N,12641.82677,E,4.097,211.51,110420,,,A*63
$GPRMC,020521.60,A,3724.51225,N,12641.82677,E,4.097,211.51,110420,,,A*63
$GPRMC,020521.70,A,3724.51225,N,12641.82677,E,4.097,211.51,110420,,,A*63
$GPRMC,020521.80,A,3724.51225,N,12641.82677,E,4.097,211.51,110420,,,A*63
$GPRMC,020521.90,A,3724.51225,N,12641.82677,E,4.097,211.51,110420,,,A*63
$GPRMC,020522.00,A,3724.51225,N,12641.82677,E,4.097,211.51,110420,,,A*63
$GPRMC,020522.10,A,3724.51225,N,12641.82677,E,4.097,211.51,110420,,,A*63
$GPRMC,020522.20,A,3724.51225,N,12641.82677,E,4.097,211.51,110420,,,A*63
$GPRMC,020522.30,A,3724.51225,N,12641.82677,E,4.097,211.51,110420,,,A*63
$GPRMC,020522.40,A,3724.51225,N,12641.82677,E,4.097,211.51,110420,,,A*63
$GPRMC,020522.50,A,3724.51225,N,12641.82677,E,4.097,211.51,110420,,,A*63
$GPRMC,020522.60,A,3724.51225,N,12641.82677,E,4.097,211.51,110420,,,A*63
$GPRMC,020522.70,A,3724.51225,N,12641.82677,E,4.097,211.51,110420,,,A*63
$GPRMC,020522.80,A,3724.51225,N,12641.82677,E,4.097,211.51,110420,,,A*63
$GPRMC,020522.90,A,3724.51225,N,12641.82677,E,4.097,211.51,110420,,,A*63
$GPRMC,020523.00,A,3724.51225,N,12641.82677,E,4.097,211.51,110420,,,A*63
$GPRMC,020523.10,A,3724.51225,N,12641.82677,E,4.097,211.51,110420,,,A*63
$GPRMC,020523.20,A,3724.51225,N,12641.82677,E,4.097,211.51,110420,,,A*63
$GPRMC,020523.30,A,3724.51225,N,12641.82677,E,4.097,211.51,110420,,,A*63
$GPRMC,020523.40,A,3724.51225,N,12641.82677,E,4.097,211.51,110420,,,A*63
$GPRMC,020523.50,A,3724.51225,N,12641.82677,E,4.097,211.51,110420,,,A*63
$GPRMC,020523.60,A,3724.51225,N,12641.82677,E,4.097,211.51,110420,,,A*63
$GPRMC,020523.70,A,3724.51225,N,12641.82677,E,4.097,211.51,110420,,,A*63
$GPRMC,020523.80,A,3724.51225,N,12641.82677,E,4.097,211.51,110420,,,A*63
$GPRMC,020523.90,A,3724.51225,N,12641.82677,E,4.097,211.51,110420,,,A*63
$GPRMC,020524.00,A,3724.51225,N,12641.82677,E,4.097,211.51,110420,,,A*63
$GPRMC,020524.10,A,3724.51225,N,12641.82677,E,4.097,211.51,110420,,,A*63
$GPRMC,020524.20,A,3724.51225,N,12641.82677,E,4.097,211.51,110420,,,A*63
$GPRMC,020524.30,A,3724.51225,N,12641.82677,E,4.097,211.51,110420,,,A*63
$GPRMC,020524.40,A,3724.51225,N,12641.82677,E,4.097,211.51,110420,,,A*63
$GPRMC,020524.50,A,3724.51225,N,12641.82677,E,4.097,211.51,110420,,,A*63
$GPRMC,020524.60,A,3724.51225,N,12641.82677,E,4.097,211.51,110420,,,A*63
$GPRMC,020524.70,A,3724.51225,N,12641.82677,E,4.097,211.51,110420,,,A*63
$GPRMC,020524.80,A,3724.51225,N,12641.82677,E,4.097,211.51,110420,,,A*63
$GPRMC,020524.90,A,3724.51225,N,12641.82677,E,4.097,211.51,110420,,,A*63
$GPRMC,020525.00,A,3724.51225,N,12641.82677,E,4.097,211.51,110420,,,A*63
$GPRMC,020525.10,A,3724.51225,N,12641.82677,E,4.097,211.51,110420,,,A*63
$GPRMC,020525.20,A,3724.51225,N,12641.82677,E,4.097,211.51,110420,,,A*63
$GPRMC,020525.30,A,3724.51225,N,12641.82677,E,4.097,211.51,110420,,,A*63
$GPRMC,020525.40,A,3724.51225,N,12641.82677,E,4.097,211.51,110420,,,A*63
$GPRMC,020525.50,A,3724.51225,N,12641.82677,E,4.097,211.51,110420,,,A*63
$GPRMC,020525.60,A,3724.51225,N,12641.82677,E,4.097,211.51,110420,,,A*63
$GPRMC,020525.70,A,3724.51225,N,12641.82677,E,4.097,211.51,110420,,,A*63
$GPRMC,020525.80,A,3724.51225,N,12641.82677,E,4.097,211.51,110420,,,A*63
$GPRMC,020525.90,A,3724.51225,N,12641.82677,E,4.097,211.51,110420,,,A*63
$GPRMC,020526.00,A,3724.51225,N,12641.82677,E,4.097,211.51,110420,,,A*63
$GPRMC,020526.10,A,3724.51225,N,12641.82677,E,4.097,211.51,110420,,,A*63
$GPRMC,020526.20,A,3724.51225,N,12641.82677,E,4.097,211.51,110420,,,A*63
$GPRMC,020526.30,A,3724.51225,N,12641.82677,E,4.097,211.51,110420,,,A*63
$GPRMC,020526.40,A,3724.51225,N,12641.82677,E,4.097,211.51,110420,,,A*63
$GPRMC,020526.50,A,3724.51225,N,12641.82677,E,4.097,211.51,110420,,,A*63
$GPRMC,020526.60,A,3724.51225,N,12641.82677,E,4.097,211.51,110420,,,A*63
$GPRMC,020526.70,A,3724.51225,N,12641.82677,E,4.097,211.51,110420,,,A*63
$GPRMC,020526.80,A,3724.51225,N,12641.82677,E,4.097,211.51,110420,,,A*63
$GPRMC,020526.90,A,3724.51225,N,12641.82677,E,4.097,211.51,110420,,,A*63
$GPRMC,020527.00,A,3724.51225,N,12641.82677,E,4.097,211.51,110420,,,A*63
$GPRMC,020527.10,A,3724.51225,N,12641.82677,E,4.097,211.51,110420,,,A*63
$GPRMC,020527.20,A,3724.51225,N,12641.82677,E,4.097,211.51,110420,,,A*63
$GPRMC,020527.30,A,3724.51225,N,12641.82677,E,4.097,211.51,110420,,,A*63
$GPRMC,020527.40,A,3724.51225,N,12641.82677,E,4.097,211.51,110420,,,A*63
$GPRMC,020527.50,A,3724.51225,N,12641.82677,E,4.097,211.51,110420,,,A*63
$GPRMC,020527.60,A,3724.51225,N,12641.82677,E,4.097,211.51,110420,,,A*63
$GPRMC,020527.70,A,3724.51225,N,12641.82677,E,4.097,211.51,110420,,,A*63
$GPRMC,020527.80,A,3724.51225,N,12641.82677,E,4.097,211.51,110420,,,A*63
$GPRMC,020527.90,A,3724.51225,N,12641.82677,E,4.097,211.51,110420,,,A*63
$GPRMC,020528.00,A,3724.51225,N,12641.82677,E,4.097,211.51,110420,,,A*63
$GPRMC,020528.10,A,3724.51225,N,12641.82677,E,4.097,211.51,110420,,,A*63
$GPRMC,020528.20,A,3724.51225,N,12641.82677,E,4.097,211.51,110420,,,A*63
$GPRMC,020528.30,A,3724.51225,N,12641.82677,E,4.097,211.51,110420,,,A*63
$GPRMC,020528.40,A,3724.51225,N,12641.82677,E,4.097,211.51,110420,,,A*63
$GPRMC,020528.50,A,3724.51225,N,12641.82677,E,4.097,211.51,110420,,,A*63
$GPRMC,020528.60,A,3724.51225,N,12641.82677,E,4.097,211.51,110420,,,A*63
$GPRMC,020528.70,A,3724.51225,N,12641.82677,E,4.097,211.51,110420,,,A*63
$GPRMC,020528.80,A,3724.51225,N,12641.82677,E,4.097,211.51,110420,,,A*63
$GPRMC,020528.90,A,3724.51225,N,12641.82677,E,4.097,211.51,110420,,,A*63
$GPRMC,020529.00,A,3724.51225,N,12641.82677,E,4.097,211.51,110420,,,A*63
$GPRMC,020529.10,A,3724.51225,N,12641.82677,E,4.097,211.51,110420,,,A*63
$GPRMC,020529.20,A,3724.51225,N,12641.82677,E,4.097,211.51,110420,,,A*63
$GPRMC,020529.30,A,3724.51225,N,12641.82677,E,4.097,211.51,110420,,,A*63
$GPRMC,020529.40,A,3724.51225,N,12641.82677,E,4.097,211.51,110420,,,A*63
$GPRMC,020529.50,A,3724.51225,N,12641.82677,E,4.097,211.51,110420,,,A*63
$GPRMC,020529.60,A,3724.51225,N,12641.82677,E,4.097,211.51,110420,,,A*63
$GPRMC,020529.70,A,3724.51225,N,12641.82677,E,4.097,211.51,110420,,,A*63
$GPRMC,020529.80,A,3724.51225,N,12641.82677,E,4.097,211.51,110420,,,A*63
$GPRMC,020529.90,A,3724.51225,N,12641.82677,E,4.097,211.51,110420,,,A*63
$GPRMC,020530.00,A,3724.51225,N,12641.82677,E,4.097,211.51,110420,,,A*63
$GPRMC,020530.10,A,3724.51225,N,12641.82677,E,4.097,211.51,110420,,,A*63
$GPRMC,020530.20,A,3724.51225,N,12641.82677,E,4.097,211.51,110420,,,A*63
$GPRMC,020530.30,A,3724.51225,N,12641.82677,E,4.097,211.51,110420,,,A*63
$GPRMC,020530.40,A,3724.51225,N,12641.82677,E,4.097,211.51,110420,,,A*63
$GPRMC,020530.50,A,3724.51225,N,12641.82677,E,4.097,211.51,110420,,,A*63
$GPRMC,020530.60,A,3724.51225,N,12641.82677,E,4.097,211.51,110420,,,A*63
$GPRMC,020530.70,A,3724.51225,N,12641.82677,E,4.097,211.51,110420,,,A*63
$GPRMC,020530.80,A,3724.51225,N,12641.82677,E,4.097,211.51,110420,,,A*63
$GPRMC,020530.90,A,3724.51225,N,12641.82677,E,4.097,211.51,110420,,,A*63
$GPRMC,020531.00,A,3724.51225,N,12641.82677,E,4.097,211.51,110420,,,A*63
$GPRMC,020531.10,A,3724.51225,N,12641.82677,E,4.097,211.51,110420,,,A*63
$GPRMC,020531.20,A,3724.51225,N,12641.82677,E,4.097,211.51,110420,,,A*63
