$GPRMC,020455.20,A,3724.51225,N,12641.82677,E,4.097,211.51,110420,,,A*63
$GPRMC,020455.30,A,3724.51225,N,12641.82677,E,4.097,211.51,110420,,,A*63
$GPRMC,020455.40,A,3724.51225,N,12641.82677,E,4.097,211.51,110420,,,A*63
$GPRMC,020455.50,A,3724.51225,N,12641.82677,E,4.097,211.51,110420,,,A*63
$GPRMC,020455.60,A,3724.51225,N,12641.82677,E,4.097,211.51,110420,,,A*63
$GPRMC,020455.70,A,3724.51225,N,12641.82677,E,4.097,211.51,110420,,,A*63
$GPRMC,020455.80,A,3724.51225,N,12641.82677,E,4.097,211.51,110420,,,A*63
$GPRMC,020455.90,A,3724.51225,N,12641.82677,E,4.097,211.51,110420,,,A*63
$GPRMC,020456.00,A,3724.51225,N,12641.82677,E,4.097,211.51,110420,,,A*63
$GPRMC,020456.10,A,3724.51225,N,12641.82677,E,4.097,211.51,110420,,,A*63
$GPRMC,020456.20,A,3724.51225,N,12641.82677,E,4.097,211.51,110420,,,A*63
$GPRMC,020456.30,A,3724.51225,N,12641.82677,E,4.097,211.51,110420,,,A*63
$GPRMC,020456.40,A,3724.51225,N,12641.82677,E,4.097,211.51,110420,,,A*63
$GPRMC,020456.50,A,3724.51225,N,12641.82677,E,4.097,211.51,110420,,,A*63
$GPRMC,020456.60,A,3724.51225,N,12641.82677,E,4.097,211.51,110420,,,A*63
$GPRMC,020456.70,A,3724.51225,N,12641.82677,E,4.097,211.51,110420,,,A*63
$GPRMC,020456.80,A,3724.51225,N,12641.82677,E,4.097,211.51,110420,,,A*63
$GPRMC,020456.90,A,3724.51225,N,12641.82677,E,4.097,211.51,110420,,,A*63
$GPRMC,020457.00,A,3724.51225,N,12641.82677,E,4.097,211.51,110420,,,A*63
$GPRMC,020457.10,A,3724.51225,N,12641.82677,E,4.097,211.51,110420,,,A*63
$GPRMC,020457.20,A,3724.51225,N,12641.82677,E,4.097,211.51,110420,,,A*63
$GPRMC,020457.30,A,3724.51225,N,12641.82677,E,4.097,211.51,110420,,,A*63
$GPRMC,020457.40,A,3724.51225,N,12641.82677,E,4.097,211.51,110420,,,A*63
$GPRMC,020457.50,A,3724.51225,N,12641.82677,E,4.097,211.51,110420,,,A*63
$GPRMC,020457.60,A,3724.51225,N,12641.82677,E,4.097,211.51,110420,,,A*63
$GPRMC,020457.70,A,3724.51225,N,12641.82677,E,4.097,211.51,110420,,,A*63
$GPRMC,020457.80,A,3724.51225,N,12641.82677,E,4.097,211.51,110420,,,A*63
$GPRMC,020457.90,A,3724.51225,N,12641.82677,E,4.097,211.51,110420,,,A*63
$GPRMC,020458.00,A,3724.51225,N,12641.82677,E,4.097,211.51,110420,,,A*63
$GPRMC,020458.10,A,3724.51225,N,12641.82677,E,4.097,211.51,110420,,,A*63
$GPRMC,020458.20,A,3724.51225,N,12641.82677,E,4.097,211.51,110420,,,A*63
$GPRMC,020458.30,A,3724.51225,N,12641.82677,E,4.097,211.51,110420,,,A*63
$GPRMC,020458.40,A,3724.51225,N,12641.82677,E,4.097,211.51,110420,,,A*63
$GPRMC,020458.50,A,3724.51225,N,12641.82677,E,4.097,211.51,110420,,,A*63
$GPRMC,020458.60,A,3724.51225,N,12641.82677,E,4.097,211.51,110420,,,A*63
$GPRMC,020458.70,A,3724.51225,N,12641.82677,E,4.097,211.51,110420,,,A*63
$GPRMC,020458.80,A,3724.51225,N,12641.82677,E,4.097,211.51,110420,,,A*63
$GPRMC,020458.90,A,3724.51225,N,12641.82677,E,4.097,211.51,110420,,,A*63
$GPRMC,020459.00,A,3724.51225,N,12641.82677,E,4.097,211.51,110420,,,A*63
$GPRMC,020459.10,A,3724.51225,N,12641.82677,E,4.097,211.51,110420,,,A*63
$GPRMC,020459.20,A,3724.51225,N,12641.82677,E,4.097,211.51,110420,,,A*63
$GPRMC,020459.30,A,3724.51225,N,12641.82677,E,4.097,211.51,110420,,,A*63
$GPRMC,020459.40,A,3724.51225,N,12641.82677,E,4.097,211.51,110420,,,A*63
$GPRMC,020459.50,A,3724.51225,N,12641.82677,E,4.097,211.51,110420,,,A*63
$GPRMC,020459.60,A,3724.51225,N,12641.82677,E,4.097,211.51,110420,,,A*63
$GPRMC,020459.70,A,3724.51225,N,12641.82677,E,4.097,211.51,110420,,,A*63
$GPRMC,020459.80,A,3724.51225,N,12641.82677,E,4.097,211.51,110420,,,A*63
$GPRMC,020459.90,A,3724.51225,N,12641.82677,E,4.097,211.51,110420,,,A*63
$GPRMC,020500.00,A,3724.51225,N,12641.82677,E,4.097,211.51,110420,,,A*63
$GPRMC,020500.10,A,3724.51225,N,12641.82677,E,4.097,211.51,110420,,,A*63
$GPRMC,020500.20,A,3724.51225,N,12641.82677,E,4.097,211.51,110420,,,A*63
$GPRMC,020500.30,A,3724.51225,N,12641.82677,E,4.097,211.51,110420,,,A*63
$GPRMC,020500.40,A,3724.51225,N,12641.82677,E,4.097,211.51,110420,,,A*63
$GPRMC,020500.50,A,3724.51225,N,12641.82677,E,4.097,211.51,110420,,,A*63
$GPRMC,020500.60,A,3724.51225,N,12641.82677,E,4.097,211.51,110420,,,A*63
$GPRMC,020500.70,A,3724.51225,N,12641.82677,E,4.097,211.51,110420,,,A*63
$GPRMC,020500.80,A,3724.51225,N,12641.82677,E,4.097,211.51,110420,,,A*63
$GPRMC,020500.90,A,3724.51225,N,12641.82677,E,4.097,211.51,110420,,,A*63
$GPRMC,020501.00,A,3724.51225,N,12641.82677,E,4.097,211.51,110420,,,A*63
$GPRMC,020501.10,A,3724.51225,N,12641.82677,E,4.097,211.51,110420,,,A*63
$GPRMC,020501.20,A,3724.51225,N,12641.82677,E,4.097,211.51,110420,,,A*63
$GPRMC,020501.30,A,3724.51225,N,12641.82677,E,4.097,211.51,110420,,,A*63
$GPRMC,020501.40,A,3724.51225,N,12641.82677,E,4.097,211.51,110420,,,A*63
$GPRMC,020501.50,A,3724.51225,N,12641.82677,E,4.097,211.51,110420,,,A*63
$GPRMC,020501.60,A,3724.51225,N,12641.82677,E,4.097,211.51,110420,,,A*63
$GPRMC,020501.70,A,3724.51225,N,12641.82677,E,4.097,211.51,110420,,,A*63
$GPRMC,020501.80,A,3724.51225,N,12641.82677,E,4.097,211.51,110420,,,A*63
$GPRMC,020501.90,A,3724.51225,N,12641.82677,E,4.097,211.51,110420,,,A*63
$GPRMC,020502.00,A,3724.51225,N,12641.82677,E,4.097,211.51,110420,,,A*63
$GPRMC,020502.10,A,3724.51225,N,12641.82677,E,4.097,211.51,110420,,,A*63
$GPRMC,020502.20,A,3724.51225,N,12641.82677,E,4.097,211.51,110420,,,A*63
$GPRMC,020502.30,A,3724.51225,N,12641.82677,E,4.097,211.51,110420,,,A*63
$GPRMC,020502.40,A,3724.51225,N,12641.82677,E,4.097,211.51,110420,,,A*63
$GPRMC,020502.50,A,3724.51225,N,12641.82677,E,4.097,211.51,110420,,,A*63
$GPRMC,020502.60,A,3724.51225,N,12641.82677,E,4.097,211.51,110420,,,A*63
$GPRMC,020502.70,A,3724.51225,N,12641.82677,E,4.097,211.51,110420,,,A*63
$GPRMC,020502.80,A,3724.51225,N,12641.82677,E,4.097,211.51,110420,,,A*63
$GPRMC,020502.90,A,3724.51225,N,12641.82677,E,4.097,211.51,110420,,,A*63
$GPRMC,020503.00,A,3724.51225,N,12641.82677,E,4.097,211.51,110420,,,A*63
$GPRMC,020503.10,A,3724.51225,N,12641.82677,E,4.097,211.51,110420,,,A*63
$GPRMC,020504.20,A,3724.51225,N,12641.82677,E,4.097,211.51,110420,,,A*63
$GPRMC,020504.30,A,3724.51225,N,12641.82677,E,4.097,211.51,110420,,,A*63
$GPRMC,020504.40,A,3724.51225,N,12641.82677,E,4.097,211.51,110420,,,A*63
$GPRMC,020504.50,A,3724.51225,N,12641.82677,E,4.097,211.51,110420,,,A*63
$GPRMC,020504.60,A,3724.51225,N,12641.82677,E,4.097,211.51,110420,,,A*63
$GPRMC,020504.70,A,3724.51225,N,12641.82677,E,4.097,211.51,110420,,,A*63
$GPRMC,020504.80,A,3724.51225,N,12641.82677,E,4.097,211.51,110420,,,A*63
$GPRMC,020504.90,A,3724.51225,N,12641.82677,E,4.097,211.51,110420,,,A*63
$GPRMC,020505.00,A,3724.51225,N,12641.82677,E,4.097,211.51,110420,,,A*63
$GPRMC,020505.10,A,3724.51225,N,12641.82677,E,4.097,211.51,110420,,,A*63
$GPRMC,020505.20,A,3724.51225,N,12641.82677,E,4.097,211.51,110420,,,A*63
$GPRMC,020505.30,A,3724.51225,N,12641.82677,E,4.097,211.51,110420,,,A*63
$GPRMC,020505.40,A,3724.51225,N,12641.82677,E,4.097,211.51,110420,,,A*63
$GPRMC,020505.50,A,3724.51225,N,12641.82677,E,4.097,211.51,110420,,,A*63
$GPRMC,020505.60,A,3724.51225,N,12641.82677,E,4.097,211.51,110420,,,A*63
$GPRMC,020505.70,A,3724.51225,N,12641.82677,E,4.097,211.51,110420,,,A*63
$GPRMC,020505.80,A,3724.51225,N,12641.82677,E,4.097,211.51,110420,,,A*63
$GPRMC,020505.90,A,3724.51225,N,12641.82677,E,4.097,211.51,110420,,,A*63
$GPRMC,020506.00,A,3724.51225,N,12641.82677,E,4.097,211.51,110420,,,A*63
$GPRMC,020506.10,A,3724.51225,N,12641.82677,E,4.097,211.51,110420,,,A*63
$GPRMC,020506.20,A,3724.51225,N,12641.82677,E,4.097,211.51,110420,,,A*63
$GPRMC,020506.30,A,3724.51225,N,12641.82677,E,4.097,211.51,110420,,,A*63
$GPRMC,020506.40,A,3724.51225,N,12641.82677,E,4.097,211.51,110420,,,A*63
$GPRMC,020506.50,A,3724.51225,N,12641.82677,E,4.097,211.51,110420,,,A*63
$GPRMC,020506.60,A,3724.51225,N,12641.82677,E,4.097,211.51,110420,,,A*63
$GPRMC,020506.70,A,3724.51225,N,12641.82677,E,4.097,211.51,110420,,,A*63
$GPRMC,020506.80,A,3724.51225,N,12641.82677,E,4.097,211.51,110420,,,A*63
$GPRMC,020506.90,A,3724.51225,N,12641.82677,E,4.097,211.51,110420,,,A*63
$GPRMC,020507.00,A,3724.51225,N,12641.82677,E,4.097,211.51,110420,,,A*63
$GPRMC,020507.10,A,3724.51225,N,12641.82677,E,4.097,211.51,110420,,,A*63
$GPRMC,020507.20,A,3724.51225,N,12641.82677,E,4.097,211.51,110420,,,A*63
$GPRMC,020507.30,A,3724.51225,N,12641.82677,E,4.097,211.51,110420,,,A*63
$GPRMC,020507.40,A,3724.51225,N,12641.82677,E,4.097,211.51,110420,,,A*63
$GPRMC,020507.50,A,3724.51225,N,12641.82677,E,4.097,211.51,110420,,,A*63
$GPRMC,020507.60,A,3724.51225,N,12641.82677,E,4.097,211.51,110420,,,A*63
$GPRMC,020507.70,A,3724.51225,N,12641.82677,E,4.097,211.51,110420,,,A*63
$GPRMC,020507.80,A,3724.51225,N,12641.82677,E,4.097,211.51,110420,,,A*63
$GPRMC,020507.90,A,3724.51225,N,12641.82677,E,4.097,211.51,110420,,,A*63
$GPRMC,020508.00,A,3724.51225,N,12641.82677,E,4.097,211.51,110420,,,A*63
$GPRMC,020508.10,A,3724.51225,N,12641.82677,E,4.097,211.51,110420,,,A*63
