$GPRMC,052046.20,A,3724.51225,N,12641.82677,E,4.097,211.51,110420,,,A*63
$GPRMC,052046.40,A,3724.51225,N,12641.82677,E,4.097,211.51,110420,,,A*63
$GPRMC,052046.60,A,3724.51225,N,12641.82677,E,4.097,211.51,110420,,,A*63
$GPRMC,052046.80,A,3724.51225,N,12641.82677,E,4.097,211.51,110420,,,A*63
$GPRMC,052047.00,A,3724.51225,N,12641.82677,E,4.097,211.51,110420,,,A*63
$GPRMC,052047.20,A,3724.51225,N,12641.82677,E,4.097,211.51,110420,,,A*63
$GPRMC,052047.40,A,3724.51225,N,12641.82677,E,4.097,211.51,110420,,,A*63
$GPRMC,052047.60,A,3724.51225,N,12641.82677,E,4.097,211.51,110420,,,A*63
$GPRMC,052047.80,A,3724.51225,N,12641.82677,E,4.097,211.51,110420,,,A*63
$GPRMC,052048.00,A,3724.51225,N,12641.82677,E,4.097,211.51,110420,,,A*63
$GPRMC,052048.20,A,3724.51225,N,12641.82677,E,4.097,211.51,110420,,,A*63
$GPRMC,052048.40,A,3724.51225,N,12641.82677,E,4.097,211.51,110420,,,A*63
$GPRMC,052048.60,A,3724.51225,N,12641.82677,E,4.097,211.51,110420,,,A*63
$GPRMC,052048.80,A,3724.51225,N,12641.82677,E,4.097,211.51,110420,,,A*63
$GPRMC,052049.00,A,3724.51225,N,12641.82677,E,4.097,211.51,110420,,,A*63
$GPRMC,052049.20,A,3724.51225,N,12641.82677,E,4.097,211.51,110420,,,A*63
$GPRMC,052049.40,A,3724.51225,N,12641.82677,E,4.097,211.51,110420,,,A*63
$GPRMC,052049.60,A,3724.51225,N,12641.82677,E,4.097,211.51,110420,,,A*63
$GPRMC,052049.80,A,3724.51225,N,12641.82677,E,4.097,211.51,110420,,,A*63
$GPRMC,052050.00,A,3724.51225,N,12641.82677,E,4.097,211.51,110420,,,A*63
$GPRMC,052050.20,A,3724.51225,N,12641.82677,E,4.097,211.51,110420,,,A*63
$GPRMC,052050.40,A,3724.51225,N,12641.82677,E,4.097,211.51,110420,,,A*63
$GPRMC,052050.60,A,3724.51225,N,12641.82677,E,4.097,211.51,110420,,,A*63
$GPRMC,052050.80,A,3724.51225,N,12641.82677,E,4.097,211.51,110420,,,A*63
$GPRMC,052051.00,A,3724.51225,N,12641.82677,E,4.097,211.51,110420,,,A*63
$GPRMC,052051.20,A,3724.51225,N,12641.82677,E,4.097,211.51,110420,,,A*63
$GPRMC,052051.40,A,3724.51225,N,12641.82677,E,4.097,211.51,110420,,,A*63
$GPRMC,052051.60,A,3724.51225,N,12641.82677,E,4.097,211.51,110420,,,A*63
$GPRMC,052051.80,A,3724.51225,N,12641.82677,E,4.097,211.51,110420,,,A*63
$GPRMC,052052.00,A,3724.51225,N,12641.82677,E,4.097,211.51,110420,,,A*63
$GPRMC,052052.20,A,3724.51225,N,12641.82677,E,4.097,211.51,110420,,,A*63
$GPRMC,052052.40,A,3724.51225,N,12641.82677,E,4.097,211.51,110420,,,A*63
$GPRMC,052052.60,A,3724.51225,N,12641.82677,E,4.097,211.51,110420,,,A*63
$GPRMC,052052.80,A,3724.51225,N,12641.82677,E,4.097,211.51,110420,,,A*63
$GPRMC,052053.00,A,3724.51225,N,12641.82677,E,4.097,211.51,110420,,,A*63
$GPRMC,052053.20,A,3724.51225,N,12641.82677,E,4.097,211.51,110420,,,A*63
$GPRMC,052053.40,A,3724.51225,N,12641.82677,E,4.097,211.51,110420,,,A*63
$GPRMC,052053.60,A,3724.51225,N,12641.82677,E,4.097,211.51,110420,,,A*63
$GPRMC,052053.80,A,3724.51225,N,12641.82677,E,4.097,211.51,110420,,,A*63
$GPRMC,052054.00,A,3724.51225,N,12641.82677,E,4.097,211.51,110420,,,A*63
$GPRMC,052054.20,A,3724.51225,N,12641.82677,E,4.097,211.51,110420,,,A*63
$GPRMC,052054.40,A,3724.51225,N,12641.82677,E,4.097,211.51,110420,,,A*63
$GPRMC,052054.60,A,3724.51225,N,12641.82677,E,4.097,211.51,110420,,,A*63
$GPRMC,052054.80,A,3724.51225,N,12641.82677,E,4.097,211.51,110420,,,A*63
$GPRMC,052055.00,A,3724.51225,N,12641.82677,E,4.097,211.51,110420,,,A*63
$GPRMC,052055.20,A,3724.51225,N,12641.82677,E,4.097,211.51,110420,,,A*63
$GPRMC,052055.40,A,3724.51225,N,12641.82677,E,4.097,211.51,110420,,,A*63
$GPRMC,052055.60,A,3724.51225,N,12641.82677,E,4.097,211.51,110420,,,A*63
$GPRMC,052055.80,A,3724.51225,N,12641.82677,E,4.097,211.51,110420,,,A*63
$GPRMC,052056.00,A,3724.51225,N,12641.82677,E,4.097,211.51,110420,,,A*63
$GPRMC,052056.20,A,3724.51225,N,12641.82677,E,4.097,211.51,110420,,,A*63
$GPRMC,052056.40,A,3724.51225,N,12641.82677,E,4.097,211.51,110420,,,A*63
$GPRMC,052056.60,A,3724.51225,N,12641.82677,E,4.097,211.51,110420,,,A*63
$GPRMC,052056.80,A,3724.51225,N,12641.82677,E,4.097,211.51,110420,,,A*63
$GPRMC,052057.00,A,3724.51225,N,12641.82677,E,4.097,211.51,110420,,,A*63
$GPRMC,052057.20,A,3724.51225,N,12641.82677,E,4.097,211.51,110420,,,A*63
$GPRMC,052057.40,A,3724.51225,N,12641.82677,E,4.097,211.51,110420,,,A*63
$GPRMC,052057.60,A,3724.51225,N,12641.82677,E,4.097,211.51,110420,,,A*63
$GPRMC,052057.80,A,3724.51225,N,12641.82677,E,4.097,211.51,110420,,,A*63
$GPRMC,052058.00,A,3724.51225,N,12641.82677,E,4.097,211.51,110420,,,A*63
$GPRMC,052058.20,A,3724.51225,N,12641.82677,E,4.097,211.51,110420,,,A*63
$GPRMC,052058.40,A,3724.51225,N,12641.82677,E,4.097,211.51,110420,,,A*63
$GPRMC,052058.60,A,3724.51225,N,12641.82677,E,4.097,211.51,110420,,,A*63
$GPRMC,052058.80,A,3724.51225,N,12641.82677,E,4.097,211.51,110420,,,A*63
$GPRMC,052059.00,A,3724.51225,N,12641.82677,E,4.097,211.51,110420,,,A*63
$GPRMC,052059.20,A,3724.51225,N,12641.82677,E,4.097,211.51,110420,,,A*63
$GPRMC,052059.40,A,3724.51225,N,12641.82677,E,4.097,211.51,110420,,,A*63
$GPRMC,052059.60,A,3724.51225,N,12641.82677,E,4.097,211.51,110420,,,A*63
$GPRMC,052059.80,A,3724.51225,N,12641.82677,E,4.097,211.51,110420,,,A*63
$GPRMC,052100.00,A,3724.51225,N,12641.82677,E,4.097,211.51,110420,,,A*63
$GPRMC,052100.20,A,3724.51225,N,12641.82677,E,4.097,211.51,110420,,,A*63
$GPRMC,052100.40,A,3724.51225,N,12641.82677,E,4.097,211.51,110420,,,A*63
$GPRMC,052100.60,A,3724.51225,N,12641.82677,E,4.097,211.51,110420,,,A*63
$GPRMC,052100.80,A,3724.51225,N,12641.82677,E,4.097,211.51,110420,,,A*63
$GPRMC,052101.00,A,3724.51225,N,12641.82677,E,4.097,211.51,110420,,,A*63
$GPRMC,052101.20,A,3724.51225,N,12641.82677,E,4.097,211.51,110420,,,A*63
$GPRMC,052101.40,A,3724.51225,N,12641.82677,E,4.097,211.51,110420,,,A*63
$GPRMC,052101.60,A,3724.51225,N,12641.82677,E,4.097,211.51,110420,,,A*63
$GPRMC,052101.80,A,3724.51225,N,12641.82677,E,4.097,211.51,110420,,,A*63
$GPRMC,052102.00,A,3724.51225,N,12641.82677,E,4.097,211.51,110420,,,A*63
$GPRMC,052102.20,A,3724.51225,N,12641.82677,E,4.097,211.51,110420,,,A*63
$GPRMC,052102.40,A,3724.51225,N,12641.82677,E,4.097,211.51,110420,,,A*63
$GPRMC,052102.60,A,3724.51225,N,12641.82677,E,4.097,211.51,110420,,,A*63
$GPRMC,052102.80,A,3724.51225,N,12641.82677,E,4.097,211.51,110420,,,A*63
$GPRMC,052103.00,A,3724.51225,N,12641.82677,E,4.097,211.51,110420,,,A*63
$GPRMC,052103.20,A,3724.51225,N,12641.82677,E,4.097,211.51,110420,,,A*63
$GPRMC,052103.40,A,3724.51225,N,12641.82677,E,4.097,211.51,110420,,,A*63
$GPRMC,052103.60,A,3724.51225,N,12641.82677,E,4.097,211.51,110420,,,A*63
$GPRMC,052103.80,A,3724.51225,N,12641.82677,E,4.097,211.51,110420,,,A*63
$GPRMC,052104.00,A,3724.51225,N,12641.82677,E,4.097,211.51,110420,,,A*63
$GPRMC,052112.20,A,3724.51225,N,12641.82677,E,4.097,211.51,110420,,,A*63
$GPRMC,052112.40,A,3724.51225,N,12641.82677,E,4.097,211.51,110420,,,A*63
$GPRMC,052112.60,A,3724.51225,N,12641.82677,E,4.097,211.51,110420,,,A*63
$GPRMC,052112.80,A,3724.51225,N,12641.82677,E,4.097,211.51,110420,,,A*63
$GPRMC,052113.00,A,3724.51225,N,12641.82677,E,4.097,211.51,110420,,,A*63
$GPRMC,052113.20,A,3724.51225,N,12641.82677,E,4.097,211.51,110420,,,A*63
$GPRMC,052113.40,A,3724.51225,N,12641.82677,E,4.097,211.51,110420,,,A*63
$GPRMC,052113.60,A,3724.51225,N,12641.82677,E,4.097,211.51,110420,,,A*63
$GPRMC,052113.80,A,3724.51225,N,12641.82677,E,4.097,211.51,110420,,,A*63
$GPRMC,052114.00,A,3724.51225,N,12641.82677,E,4.097,211.51,110420,,,A*63
$GPRMC,052114.20,A,3724.51225,N,12641.82677,E,4.097,211.51,110420,,,A*63
$GPRMC,052114.40,A,3724.51225,N,12641.82677,E,4.097,211.51,110420,,,A*63
$GPRMC,052114.60,A,3724.51225,N,12641.82677,E,4.097,211.51,110420,,,A*63
$GPRMC,052114.80,A,3724.51225,N,12641.82677,E,4.097,211.51,110420,,,A*63
$GPRMC,052115.00,A,3724.51225,N,12641.82677,E,4.097,211.51,110420,,,A*63
$GPRMC,052115.20,A,3724.51225,N,12641.82677,E,4.097,211.51,110420,,,A*63
$GPRMC,052115.40,A,3724.51225,N,12641.82677,E,4.097,211.51,110420,,,A*63
$GPRMC,052115.60,A,3724.51225,N,12641.82677,E,4.097,211.51,110420,,,A*63
$GPRMC,052115.80,A,3724.51225,N,12641.82677,E,4.097,211.51,110420,,,A*63
$GPRMC,052116.00,A,3724.51225,N,12641.82677,E,4.097,211.51,110420,,,A*63
$GPRMC,052116.20,A,3724.51225,N,12641.82677,E,4.097,211.51,110420,,,A*63
$GPRMC,052116.40,A,3724.51225,N,12641.82677,E,4.097,211.51,110420,,,A*63
$GPRMC,052116.60,A,3724.51225,N,12641.82677,E,4.097,211.51,110420,,,A*63
$GPRMC,052116.80,A,3724.51225,N,12641.82677,E,4.097,211.51,110420,,,A*63
$GPRMC,052117.00,A,3724.51225,N,12641.82677,E,4.097,211.51,110420,,,A*63
$GPRMC,052117.20,A,3724.51225,N,12641.82677,E,4.097,211.51,110420,,,A*63
$GPRMC,052117.40,A,3724.51225,N,12641.82677,E,4.097,211.51,110420,,,A*63
$GPRMC,052117.60,A,3724.51225,N,12641.82677,E,4.097,211.51,110420,,,A*63
$GPRMC,052117.80,A,3724.51225,N,12641.82677,E,4.097,211.51,110420,,,A*63
$GPRMC,052118.00,A,3724.51225,N,12641.82677,E,4.097,211.51,110420,,,A*63
$GPRMC,052118.20,A,3724.51225,N,12641.82677,E,4.097,211.51,110420,,,A*63
$GPRMC,052118.40,A,3724.51225,N,12641.82677,E,4.097,211.51,110420,,,A*63
$GPRMC,052118.60,A,3724.51225,N,12641.82677,E,4.097,211.51,110420,,,A*63
$GPRMC,052118.80,A,3724.51225,N,12641.82677,E,4.097,211.51,110420,,,A*63
$GPRMC,052119.00,A,3724.51225,N,12641.82677,E,4.097,211.51,110420,,,A*63
$GPRMC,052119.20,A,3724.51225,N,12641.82677,E,4.097,211.51,110420,,,A*63
$GPRMC,052119.40,A,3724.51225,N,12641.82677,E,4.097,211.51,110420,,,A*63
$GPRMC,052119.60,A,3724.51225,N,12641.82677,E,4.097,211.51,110420,,,A*63
$GPRMC,052119.80,A,3724.51225,N,12641.82677,E,4.097,211.51,110420,,,A*63
$GPRMC,052120.00,A,3724.51225,N,12641.82677,E,4.097,211.51,110420,,,A*63
$GPRMC,052120.20,A,3724.51225,N,12641.82677,E,4.097,211.51,110420,,,A*63
$GPRMC,052120.40,A,3724.51225,N,12641.82677,E,4.097,211.51,110420,,,A*63
$GPRMC,052120.60,A,3724.51225,N,12641.82677,E,4.097,211.51,110420,,,A*63
$GPRMC,052120.80,A,3724.51225,N,12641.82677,E,4.097,211.51,110420,,,A*63
$GPRMC,052121.00,A,3724.51225,N,12641.82677,E,4.097,211.51,110420,,,A*63
$GPRMC,052121.20,A,3724.51225,N,12641.82677,E,4.097,211.51,110420,,,A*63
$GPRMC,052121.40,A,3724.51225,N,12641.82677,E,4.097,211.51,110420,,,A*63
$GPRMC,052121.60,A,3724.51225,N,12641.82677,E,4.097,211.51,110420,,,A*63
$GPRMC,052121.80,A,3724.51225,N,12641.82677,E,4.097,211.51,110420,,,A*63
$GPRMC,052122.00,A,3724.51225,N,12641.82677,E,4.097,211.51,110420,,,A*63
$GPRMC,052122.20,A,3724.51225,N,12641.82677,E,4.097,211.51,110420,,,A*63
$GPRMC,052122.40,A,3724.51225,N,12641.82677,E,4.097,211.51,110420,,,A*63
$GPRMC,052122.60,A,3724.51225,N,12641.82677,E,4.097,211.51,110420,,,A*63
$GPRMC,052122.80,A,3724.51225,N,12641.82677,E,4.097,211.51,110420,,,A*63
$GPRMC,052123.00,A,3724.51225,N,12641.82677,E,4.097,211.51,110420,,,A*63
$GPRMC,052123.20,A,3724.51225,N,12641.82677,E,4.097,211.51,110420,,,A*63
$GPRMC,052123.40,A,3724.51225,N,12641.82677,E,4.097,211.51,110420,,,A*63
$GPRMC,052123.60,A,3724.51225,N,12641.82677,E,4.097,211.51,110420,,,A*63
$GPRMC,052123.80,A,3724.51225,N,12641.82677,E,4.097,211.51,110420,,,A*63
$GPRMC,052124.00,A,3724.51225,N,12641.82677,E,4.097,211.51,110420,,,A*63
$GPRMC,052124.20,A,3724.51225,N,12641.82677,E,4.097,211.51,110420,,,A*63
$GPRMC,052124.40,A,3724.51225,N,12641.82677,E,4.097,211.51,110420,,,A*63
$GPRMC,052124.60,A,3724.51225,N,12641.82677,E,4.097,211.51,110420,,,A*63
$GPRMC,052124.80,A,3724.51225,N,12641.82677,E,4.097,211.51,110420,,,A*63
$GPRMC,052125.00,A,3724.51225,N,12641.82677,E,4.097,211.51,110420,,,A*63
$GPRMC,052125.20,A,3724.51225,N,12641.82677,E,4.097,211.51,110420,,,A*63
$GPRMC,052125.40,A,3724.51225,N,12641.82677,E,4.097,211.51,110420,,,A*63
$GPRMC,052125.60,A,3724.51225,N,12641.82677,E,4.097,211.51,110420,,,A*63
$GPRMC,052125.80,A,3724.51225,N,12641.82677,E,4.097,211.51,110420,,,A*63
$GPRMC,052126.00,A,3724.51225,N,12641.82677,E,4.097,211.51,110420,,,A*63
$GPRMC,052126.20,A,3724.51225,N,12641.82677,E,4.097,211.51,110420,,,A*63
$GPRMC,052126.40,A,3724.51225,N,12641.82677,E,4.097,211.51,110420,,,A*63
$GPRMC,052126.60,A,3724.51225,N,12641.82677,E,4.097,211.51,110420,,,A*63
$GPRMC,052126.80,A,3724.51225,N,12641.82677,E,4.097,211.51,110420,,,A*63
$GPRMC,052127.00,A,3724.51225,N,12641.82677,E,4.097,211.51,110420,,,A*63
$GPRMC,052127.20,A,3724.51225,N,12641.82677,E,4.097,211.51,110420,,,A*63
$GPRMC,052127.40,A,3724.51225,N,12641.82677,E,4.097,211.51,110420,,,A*63
$GPRMC,052127.60,A,3724.51225,N,12641.82677,E,4.097,211.51,110420,,,A*63
$GPRMC,052127.80,A,3724.51225,N,12641.82677,E,4.097,211.51,110420,,,A*63
$GPRMC,052128.00,A,3724.51225,N,12641.82677,E,4.097,211.51,110420,,,A*63
$GPRMC,052128.20,A,3724.51225,N,12641.82677,E,4.097,211.51,110420,,,A*63
$GPRMC,052128.40,A,3724.51225,N,12641.82677,E,4.097,211.51,110420,,,A*63
$GPRMC,052128.60,A,3724.51225,N,12641.82677,E,4.097,211.51,110420,,,A*63
$GPRMC,052128.80,A,3724.51225,N,12641.82677,E,4.097,211.51,110420,,,A*63
$GPRMC,052129.00,A,3724.51225,N,12641.82677,E,4.097,211.51,110420,,,A*63
$GPRMC,052129.20,A,3724.51225,N,12641.82677,E,4.097,211.51,110420,,,A*63
$GPRMC,052129.40,A,3724.51225,N,12641.82677,E,4.097,211.51,110420,,,A*63
$GPRMC,052129.60,A,3724.51225,N,12641.82677,E,4.097,211.51,110420,,,A*63
$GPRMC,052129.80,A,3724.51225,N,12641.82677,E,4.097,211.51,110420,,,A*63
$GPRMC,052130.00,A,3724.51225,N,12641.82677,E,4.097,211.51,110420,,,A*63
$GPRMC,052130.20,A,3724.51225,N,12641.82677,E,4.097,211.51,110420,,,A*63
$GPRMC,052130.40,A,3724.51225,N,12641.82677,E,4.097,211.51,110420,,,A*63
$GPRMC,052130.60,A,3724.51225,N,12641.82677,E,4.097,211.51,110420,,,A*63
$GPRMC,052130.80,A,3724.51225,N,12641.82677,E,4.097,211.51,110420,,,A*63
$GPRMC,052131.00,A,3724.51225,N,12641.82677,E,4.097,211.51,110420,,,A*63
$GPRMC,052131.20,A,3724.51225,N,12641.82677,E,4.097,211.51,110420,,,A*63
$GPRMC,052131.40,A,3724.51225,N,12641.82677,E,4.097,211.51,110420,,,A*63
$GPRMC,052131.60,A,3724.51225,N,12641.82677,E,4.097,211.51,110420,,,A*63
$GPRMC,052131.80,A,3724.51225,N,12641.82677,E,4.097,211.51,110420,,,A*63
$GPRMC,052132.00,A,3724.51225,N,12641.82677,E,4.097,211.51,110420,,,A*63
$GPRMC,052132.20,A,3724.51225,N,12641.82677,E,4.097,211.51,110420,,,A*63
$GPRMC,052132.40,A,3724.51225,N,12641.82677,E,4.097,211.51,110420,,,A*63
$GPRMC,052132.60,A,3724.51225,N,12641.82677,E,4.097,211.51,110420,,,A*63
$GPRMC,052132.80,A,3724.51225,N,12641.82677,E,4.097,211.51,110420,,,A*63
$GPRMC,052133.00,A,3724.51225,N,12641.82677,E,4.097,211.51,110420,,,A*63
$GPRMC,052133.20,A,3724.51225,N,12641.82677,E,4.097,211.51,110420,,,A*63
$GPRMC,052133.40,A,3724.51225,N,12641.82677,E,4.097,211.51,110420,,,A*63
$GPRMC,052133.60,A,3724.51225,N,12641.82677,E,4.097,211.51,110420,,,A*63
$GPRMC,052133.80,A,3724.51225,N,12641.82677,E,4.097,211.51,110420,,,A*63
$GPRMC,052134.00,A,3724.51225,N,12641.82677,E,4.097,211.51,110420,,,A*63
$GPRMC,052134.20,A,3724.51225,N,12641.82677,E,4.097,211.51,110420,,,A*63
$GPRMC,052134.40,A,3724.51225,N,12641.82677,E,4.097,211.51,110420,,,A*63
$GPRMC,052134.60,A,3724.51225,N,12641.82677,E,4.097,211.51,110420,,,A*63
$GPRMC,052134.80,A,3724.51225,N,12641.82677,E,4.097,211.51,110420,,,A*63
$GPRMC,052135.00,A,3724.51225,N,12641.82677,E,4.097,211.51,110420,,,A*63
$GPRMC,052135.20,A,3724.51225,N,12641.82677,E,4.097,211.51,110420,,,A*63
$GPRMC,052135.40,A,3724.51225,N,12641.82677,E,4.097,211.51,110420,,,A*63
$GPRMC,052135.60,A,3724.51225,N,12641.82677,E,4.097,211.51,110420,,,A*63
$GPRMC,052135.80,A,3724.51225,N,12641.82677,E,4.097,211.51,110420,,,A*63
$GPRMC,052136.00,A,3724.51225,N,12641.82677,E,4.097,211.51,110420,,,A*63
$GPRMC,052136.20,A,3724.51225,N,12641.82677,E,4.097,211.51,110420,,,A*63
$GPRMC,052136.40,A,3724.51225,N,12641.82677,E,4.097,211.51,110420,,,A*63
$GPRMC,052136.60,A,3724.51225,N,12641.82677,E,4.097,211.51,110420,,,A*63
$GPRMC,052136.80,A,3724.51225,N,12641.82677,E,4.097,211.51,110420,,,A*63
$GPRMC,052137.00,A,3724.51225,N,12641.82677,E,4.097,211.51,110420,,,A*63
$GPRMC,052137.20,A,3724.51225,N,12641.82677,E,4.097,211.51,110420,,,A*63
$GPRMC,052137.40,A,3724.51225,N,12641.82677,E,4.097,211.51,110420,,,A*63
$GPRMC,052137.60,A,3724.51225,N,12641.82677,E,4.097,211.51,110420,,,A*63
$GPRMC,052137.80,A,3724.51225,N,12641.82677,E,4.097,211.51,110420,,,A*63
$GPRMC,052138.00,A,3724.51225,N,12641.82677,E,4.097,211.51,110420,,,A*63
$GPRMC,052138.20,A,3724.51225,N,12641.82677,E,4.097,211.51,110420,,,A*63
$GPRMC,052138.40,A,3724.51225,N,12641.82677,E,4.097,211.51,110420,,,A*63
$GPRMC,052138.60,A,3724.51225,N,12641.82677,E,4.097,211.51,110420,,,A*63
$GPRMC,052138.80,A,3724.51225,N,12641.82677,E,4.097,211.51,110420,,,A*63
$GPRMC,052139.00,A,3724.51225,N,12641.82677,E,4.097,211.51,110420,,,A*63
$GPRMC,052139.20,A,3724.51225,N,12641.82677,E,4.097,211.51,110420,,,A*63
$GPRMC,052139.40,A,3724.51225,N,12641.82677,E,4.097,211.51,110420,,,A*63
$GPRMC,052139.60,A,3724.51225,N,12641.82677,E,4.097,211.51,110420,,,A*63
$GPRMC,052139.80,A,3724.51225,N,12641.82677,E,4.097,211.51,110420,,,A*63
$GPRMC,052140.00,A,3724.51225,N,12641.82677,E,4.097,211.51,110420,,,A*63
$GPRMC,052140.20,A,3724.51225,N,12641.82677,E,4.097,211.51,110420,,,A*63
$GPRMC,052140.40,A,3724.51225,N,12641.82677,E,4.097,211.51,110420,,,A*63
$GPRMC,052140.60,A,3724.51225,N,12641.82677,E,4.097,211.51,110420,,,A*63
$GPRMC,052140.80,A,3724.51225,N,12641.82677,E,4.097,211.51,110420,,,A*63
$GPRMC,052141.00,A,3724.51225,N,12641.82677,E,4.097,211.51,110420,,,A*63
$GPRMC,052141.20,A,3724.51225,N,12641.82677,E,4.097,211.51,110420,,,A*63
$GPRMC,052141.40,A,3724.51225,N,12641.82677,E,4.097,211.51,110420,,,A*63
$GPRMC,052141.60,A,3724.51225,N,12641.82677,E,4.097,211.51,110420,,,A*63
$GPRMC,052141.80,A,3724.51225,N,12641.82677,E,4.097,211.51,110420,,,A*63
$GPRMC,052142.00,A,3724.51225,N,12641.82677,E,4.097,211.51,110420,,,A*63
$GPRMC,052142.20,A,3724.51225,N,12641.82677,E,4.097,211.51,110420,,,A*63
$GPRMC,052142.40,A,3724.51225,N,12641.82677,E,4.097,211.51,110420,,,A*63
$GPRMC,052142.60,A,3724.51225,N,12641.82677,E,4.097,211.51,110420,,,A*63
$GPRMC,052142.80,A,3724.51225,N,12641.82677,E,4.097,211.51,110420,,,A*63
$GPRMC,052143.00,A,3724.51225,N,12641.82677,E,4.097,211.51,110420,,,A*63
$GPRMC,052143.20,A,3724.51225,N,12641.82677,E,4.097,211.51,110420,,,A*63
$GPRMC,052143.40,A,3724.51225,N,12641.82677,E,4.097,211.51,110420,,,A*63
$GPRMC,052143.60,A,3724.51225,N,12641.82677,E,4.097,211.51,110420,,,A*63
$GPRMC,052143.80,A,3724.51225,N,12641.82677,E,4.097,211.51,110420,,,A*63
$GPRMC,052144.00,A,3724.51225,N,12641.82677,E,4.097,211.51,110420,,,A*63
$GPRMC,052144.20,A,3724.51225,N,12641.82677,E,4.097,211.51,110420,,,A*63
$GPRMC,052144.40,A,3724.51225,N,12641.82677,E,4.097,211.51,110420,,,A*63
$GPRMC,052144.60,A,3724.51225,N,12641.82677,E,4.097,211.51,110420,,,A*63
$GPRMC,052144.80,A,3724.51225,N,12641.82677,E,4.097,211.51,110420,,,A*63
$GPRMC,052145.00,A,3724.51225,N,12641.82677,E,4.097,211.51,110420,,,A*63
$GPRMC,052145.20,A,3724.51225,N,12641.82677,E,4.097,211.51,110420,,,A*63
$GPRMC,052145.40,A,3724.51225,N,12641.82677,E,4.097,211.51,110420,,,A*63
$GPRMC,052145.60,A,3724.51225,N,12641.82677,E,4.097,211.51,110420,,,A*63
$GPRMC,052145.80,A,3724.51225,N,12641.82677,E,4.097,211.51,110420,,,A*63
$GPRMC,052146.00,A,3724.51225,N,12641.82677,E,4.097,211.51,110420,,,A*63
$GPRMC,052146.20,A,3724.51225,N,12641.82677,E,4.097,211.51,110420,,,A*63
$GPRMC,052146.40,A,3724.51225,N,12641.82677,E,4.097,211.51,110420,,,A*63
$GPRMC,052146.60,A,3724.51225,N,12641.82677,E,4.097,211.51,110420,,,A*63
$GPRMC,052146.80,A,3724.51225,N,12641.82677,E,4.097,211.51,110420,,,A*63
$GPRMC,052147.00,A,3724.51225,N,12641.82677,E,4.097,211.51,110420,,,A*63
$GPRMC,052147.20,A,3724.51225,N,12641.82677,E,4.097,211.51,110420,,,A*63
$GPRMC,052147.40,A,3724.51225,N,12641.82677,E,4.097,211.51,110420,,,A*63
$GPRMC,052147.60,A,3724.51225,N,12641.82677,E,4.097,211.51,110420,,,A*63
$GPRMC,052147.80,A,3724.51225,N,12641.82677,E,4.097,211.51,110420,,,A*63
$GPRMC,052148.00,A,3724.51225,N,12641.82677,E,4.097,211.51,110420,,,A*63
$GPRMC,052148.20,A,3724.51225,N,12641.82677,E,4.097,211.51,110420,,,A*63
$GPRMC,052148.40,A,3724.51225,N,12641.82677,E,4.097,211.51,110420,,,A*63
$GPRMC,052148.60,A,3724.51225,N,12641.82677,E,4.097,211.51,110420,,,A*63
$GPRMC,052148.80,A,3724.51225,N,12641.82677,E,4.097,211.51,110420,,,A*63
$GPRMC,052149.00,A,3724.51225,N,12641.82677,E,4.097,211.51,110420,,,A*63
$GPRMC,052149.20,A,3724.51225,N,12641.82677,E,4.097,211.51,110420,,,A*63
$GPRMC,052149.40,A,3724.51225,N,12641.82677,E,4.097,211.51,110420,,,A*63
$GPRMC,052149.60,A,3724.51225,N,12641.82677,E,4.097,211.51,110420,,,A*63
$GPRMC,052149.80,A,3724.51225,N,12641.82677,E,4.097,211.51,110420,,,A*63
$GPRMC,052150.00,A,3724.51225,N,12641.82677,E,4.097,211.51,110420,,,A*63
$GPRMC,052150.20,A,3724.51225,N,12641.82677,E,4.097,211.51,110420,,,A*63
$GPRMC,052150.40,A,3724.51225,N,12641.82677,E,4.097,211.51,110420,,,A*63
$GPRMC,052150.60,A,3724.51225,N,12641.82677,E,4.097,211.51,110420,,,A*63
$GPRMC,052150.80,A,3724.51225,N,12641.82677,E,4.097,211.51,110420,,,A*63
$GPRMC,052151.00,A,3724.51225,N,12641.82677,E,4.097,211.51,110420,,,A*63
$GPRMC,052151.20,A,3724.51225,N,12641.82677,E,4.097,211.51,110420,,,A*63
$GPRMC,052151.40,A,3724.51225,N,12641.82677,E,4.097,211.51,110420,,,A*63
$GPRMC,052151.60,A,3724.51225,N,12641.82677,E,4.097,211.51,110420,,,A*63
$GPRMC,052151.80,A,3724.51225,N,12641.82677,E,4.097,211.51,110420,,,A*63
$GPRMC,052152.00,A,3724.51225,N,12641.82677,E,4.097,211.51,110420,,,A*63
$GPRMC,052152.20,A,3724.51225,N,12641.82677,E,4.097,211.51,110420,,,A*63
$GPRMC,052152.40,A,3724.51225,N,12641.82677,E,4.097,211.51,110420,,,A*63
$GPRMC,052152.60,A,3724.51225,N,12641.82677,E,4.097,211.51,110420,,,A*63
$GPRMC,052152.80,A,3724.51225,N,12641.82677,E,4.097,211.51,110420,,,A*63
$GPRMC,052153.00,A,3724.51225,N,12641.82677,E,4.097,211.51,110420,,,A*63
$GPRMC,052153.20,A,3724.51225,N,12641.82677,E,4.097,211.51,110420,,,A*63
$GPRMC,052153.40,A,3724.51225,N,12641.82677,E,4.097,211.51,110420,,,A*63
$GPRMC,052153.60,A,3724.51225,N,12641.82677,E,4.097,211.51,110420,,,A*63
$GPRMC,052153.80,A,3724.51225,N,12641.82677,E,4.097,211.51,110420,,,A*63
$GPRMC,052154.00,A,3724.51225,N,12641.82677,E,4.097,211.51,110420,,,A*63
$GPRMC,052154.20,A,3724.51225,N,12641.82677,E,4.097,211.51,110420,,,A*63
$GPRMC,052154.40,A,3724.51225,N,12641.82677,E,4.097,211.51,110420,,,A*63
$GPRMC,052154.60,A,3724.51225,N,12641.82677,E,4.097,211.51,110420,,,A*63
$GPRMC,052154.80,A,3724.51225,N,12641.82677,E,4.097,211.51,110420,,,A*63
$GPRMC,052155.00,A,3724.51225,N,12641.82677,E,4.097,211.51,110420,,,A*63
$GPRMC,052155.20,A,3724.51225,N,12641.82677,E,4.097,211.51,110420,,,A*63
$GPRMC,052155.40,A,3724.51225,N,12641.82677,E,4.097,211.51,110420,,,A*63
$GPRMC,052155.60,A,3724.51225,N,12641.82677,E,4.097,211.51,110420,,,A*63
$GPRMC,052155.80,A,3724.51225,N,12641.82677,E,4.097,211.51,110420,,,A*63
$GPRMC,052156.00,A,3724.51225,N,12641.82677,E,4.097,211.51,110420,,,A*63
$GPRMC,052156.20,A,3724.51225,N,12641.82677,E,4.097,211.51,110420,,,A*63
$GPRMC,052156.40,A,3724.51225,N,12641.82677,E,4.097,211.51,110420,,,A*63
$GPRMC,052156.60,A,3724.51225,N,12641.82677,E,4.097,211.51,110420,,,A*63
$GPRMC,052156.80,A,3724.51225,N,12641.82677,E,4.097,211.51,110420,,,A*63
$GPRMC,052157.00,A,3724.51225,N,12641.82677,E,4.097,211.51,110420,,,A*63
$GPRMC,052157.20,A,3724.51225,N,12641.82677,E,4.097,211.51,110420,,,A*63
$GPRMC,052157.40,A,3724.51225,N,12641.82677,E,4.097,211.51,110420,,,A*63
$GPRMC,052157.60,A,3724.51225,N,12641.82677,E,4.097,211.51,110420,,,A*63
$GPRMC,052157.80,A,3724.51225,N,12641.82677,E,4.097,211.51,110420,,,A*63
$GPRMC,052158.00,A,3724.51225,N,12641.82677,E,4.097,211.51,110420,,,A*63
$GPRMC,052158.20,A,3724.51225,N,12641.82677,E,4.097,211.51,110420,,,A*63
$GPRMC,052158.40,A,3724.51225,N,12641.82677,E,4.097,211.51,110420,,,A*63
$GPRMC,052158.60,A,3724.51225,N,12641.82677,E,4.097,211.51,110420,,,A*63
$GPRMC,052158.80,A,3724.51225,N,12641.82677,E,4.097,211.51,110420,,,A*63
$GPRMC,052159.00,A,3724.51225,N,12641.82677,E,4.097,211.51,110420,,,A*63
$GPRMC,052159.20,A,3724.51225,N,12641.82677,E,4.097,211.51,110420,,,A*63
$GPRMC,052159.40,A,3724.51225,N,12641.82677,E,4.097,211.51,110420,,,A*63
$GPRMC,052159.60,A,3724.51225,N,12641.82677,E,4.097,211.51,110420,,,A*63
$GPRMC,052159.80,A,3724.51225,N,12641.82677,E,4.097,211.51,110420,,,A*63
$GPRMC,052200.00,A,3724.51225,N,12641.82677,E,4.097,211.51,110420,,,A*63
$GPRMC,052200.20,A,3724.51225,N,12641.82677,E,4.097,211.51,110420,,,A*63
$GPRMC,052200.40,A,3724.51225,N,12641.82677,E,4.097,211.51,110420,,,A*63
$GPRMC,052200.60,A,3724.51225,N,12641.82677,E,4.097,211.51,110420,,,A*63
$GPRMC,052200.80,A,3724.51225,N,12641.82677,E,4.097,211.51,110420,,,A*63
$GPRMC,052201.00,A,3724.51225,N,12641.82677,E,4.097,211.51,110420,,,A*63
$GPRMC,052201.20,A,3724.51225,N,12641.82677,E,4.097,211.51,110420,,,A*63
$GPRMC,052201.40,A,3724.51225,N,12641.82677,E,4.097,211.51,110420,,,A*63
$GPRMC,052201.60,A,3724.51225,N,12641.82677,E,4.097,211.51,110420,,,A*63
$GPRMC,052201.80,A,3724.51225,N,12641.82677,E,4.097,211.51,110420,,,A*63
$GPRMC,052202.00,A,3724.51225,N,12641.82677,E,4.097,211.51,110420,,,A*63
$GPRMC,052202.20,A,3724.51225,N,12641.82677,E,4.097,211.51,110420,,,A*63
$GPRMC,052202.40,A,3724.51225,N,12641.82677,E,4.097,211.51,110420,,,A*63
$GPRMC,052202.60,A,3724.51225,N,12641.82677,E,4.097,211.51,110420,,,A*63
$GPRMC,052202.80,A,3724.51225,N,12641.82677,E,4.097,211.51,110420,,,A*63
$GPRMC,052203.00,A,3724.51225,N,12641.82677,E,4.097,211.51,110420,,,A*63
$GPRMC,052203.20,A,3724.51225,N,12641.82677,E,4.097,211.51,110420,,,A*63
$GPRMC,052203.40,A,3724.51225,N,12641.82677,E,4.097,211.51,110420,,,A*63
$GPRMC,052203.60,A,3724.51225,N,12641.82677,E,4.097,211.51,110420,,,A*63
$GPRMC,052203.80,A,3724.51225,N,12641.82677,E,4.097,211.51,110420,,,A*63
$GPRMC,052204.00,A,3724.51225,N,12641.82677,E,4.097,211.51,110420,,,A*63
$GPRMC,052204.20,A,3724.51225,N,12641.82677,E,4.097,211.51,110420,,,A*63
$GPRMC,052204.40,A,3724.51225,N,12641.82677,E,4.097,211.51,110420,,,A*63
$GPRMC,052204.60,A,3724.51225,N,12641.82677,E,4.097,211.51,110420,,,A*63
$GPRMC,052204.80,A,3724.51225,N,12641.82677,E,4.097,211.51,110420,,,A*63
$GPRMC,052205.00,A,3724.51225,N,12641.82677,E,4.097,211.51,110420,,,A*63
$GPRMC,052205.20,A,3724.51225,N,12641.82677,E,4.097,211.51,110420,,,A*63
$GPRMC,052205.40,A,3724.51225,N,12641.82677,E,4.097,211.51,110420,,,A*63
$GPRMC,052205.60,A,3724.51225,N,12641.82677,E,4.097,211.51,110420,,,A*63
$GPRMC,052205.80,A,3724.51225,N,12641.82677,E,4.097,211.51,110420,,,A*63
$GPRMC,052206.00,A,3724.51225,N,12641.82677,E,4.097,211.51,110420,,,A*63
$GPRMC,052206.20,A,3724.51225,N,12641.82677,E,4.097,211.51,110420,,,A*63
$GPRMC,052206.40,A,3724.51225,N,12641.82677,E,4.097,211.51,110420,,,A*63
$GPRMC,052206.60,A,3724.51225,N,12641.82677,E,4.097,211.51,110420,,,A*63
$GPRMC,052206.80,A,3724.51225,N,12641.82677,E,4.097,211.51,110420,,,A*63
$GPRMC,052207.00,A,3724.51225,N,12641.82677,E,4.097,211.51,110420,,,A*63
$GPRMC,052207.20,A,3724.51225,N,12641.82677,E,4.097,211.51,110420,,,A*63
$GPRMC,052207.40,A,3724.51225,N,12641.82677,E,4.097,211.51,110420,,,A*63
$GPRMC,052207.60,A,3724.51225,N,12641.82677,E,4.097,211.51,110420,,,A*63
$GPRMC,052207.80,A,3724.51225,N,12641.82677,E,4.097,211.51,110420,,,A*63
$GPRMC,052208.00,A,3724.51225,N,12641.82677,E,4.097,211.51,110420,,,A*63
$GPRMC,052208.20,A,3724.51225,N,12641.82677,E,4.097,211.51,110420,,,A*63
$GPRMC,052208.40,A,3724.51225,N,12641.82677,E,4.097,211.51,110420,,,A*63
$GPRMC,052208.60,A,3724.51225,N,12641.82677,E,4.097,211.51,110420,,,A*63
$GPRMC,052208.80,A,3724.51225,N,12641.82677,E,4.097,211.51,110420,,,A*63
$GPRMC,052209.00,A,3724.51225,N,12641.82677,E,4.097,211.51,110420,,,A*63
$GPRMC,052209.20,A,3724.51225,N,12641.82677,E,4.097,211.51,110420,,,A*63
$GPRMC,052209.40,A,3724.51225,N,12641.82677,E,4.097,211.51,110420,,,A*63
$GPRMC,052209.60,A,3724.51225,N,12641.82677,E,4.097,211.51,110420,,,A*63
$GPRMC,052209.80,A,3724.51225,N,12641.82677,E,4.097,211.51,110420,,,A*63
$GPRMC,052210.00,A,3724.51225,N,12641.82677,E,4.097,211.51,110420,,,A*63
$GPRMC,052210.20,A,3724.51225,N,12641.82677,E,4.097,211.51,110420,,,A*63
$GPRMC,052210.40,A,3724.51225,N,12641.82677,E,4.097,211.51,110420,,,A*63
$GPRMC,052210.60,A,3724.51225,N,12641.82677,E,4.097,211.51,110420,,,A*63
$GPRMC,052210.80,A,3724.51225,N,12641.82677,E,4.097,211.51,110420,,,A*63
$GPRMC,052211.00,A,3724.51225,N,12641.82677,E,4.097,211.51,110420,,,A*63
$GPRMC,052211.20,A,3724.51225,N,12641.82677,E,4.097,211.51,110420,,,A*63
$GPRMC,052211.40,A,3724.51225,N,12641.82677,E,4.097,211.51,110420,,,A*63
$GPRMC,052211.60,A,3724.51225,N,12641.82677,E,4.097,211.51,110420,,,A*63
$GPRMC,052211.80,A,3724.51225,N,12641.82677,E,4.097,211.51,110420,,,A*63
$GPRMC,052212.00,A,3724.51225,N,12641.82677,E,4.097,211.51,110420,,,A*63
$GPRMC,052212.20,A,3724.51225,N,12641.82677,E,4.097,211.51,110420,,,A*63
$GPRMC,052212.40,A,3724.51225,N,12641.82677,E,4.097,211.51,110420,,,A*63
$GPRMC,052212.60,A,3724.51225,N,12641.82677,E,4.097,211.51,110420,,,A*63
$GPRMC,052212.80,A,3724.51225,N,12641.82677,E,4.097,211.51,110420,,,A*63
$GPRMC,052213.00,A,3724.51225,N,12641.82677,E,4.097,211.51,110420,,,A*63
$GPRMC,052213.20,A,3724.51225,N,12641.82677,E,4.097,211.51,110420,,,A*63
$GPRMC,052213.40,A,3724.51225,N,12641.82677,E,4.097,211.51,110420,,,A*63
$GPRMC,052213.60,A,3724.51225,N,12641.82677,E,4.097,211.51,110420,,,A*63
$GPRMC,052213.80,A,3724.51225,N,12641.82677,E,4.097,211.51,110420,,,A*63
$GPRMC,052214.00,A,3724.51225,N,12641.82677,E,4.097,211.51,110420,,,A*63
$GPRMC,052214.20,A,3724.51225,N,12641.82677,E,4.097,211.51,110420,,,A*63
$GPRMC,052214.40,A,3724.51225,N,12641.82677,E,4.097,211.51,110420,,,A*63
$GPRMC,052214.60,A,3724.51225,N,12641.82677,E,4.097,211.51,110420,,,A*63
$GPRMC,052214.80,A,3724.51225,N,12641.82677,E,4.097,211.51,110420,,,A*63
$GPRMC,052215.00,A,3724.51225,N,12641.82677,E,4.097,211.51,110420,,,A*63
$GPRMC,052215.20,A,3724.51225,N,12641.82677,E,4.097,211.51,110420,,,A*63
$GPRMC,052215.40,A,3724.51225,N,12641.82677,E,4.097,211.51,110420,,,A*63
$GPRMC,052215.60,A,3724.51225,N,12641.82677,E,4.097,211.51,110420,,,A*63
$GPRMC,052215.80,A,3724.51225,N,12641.82677,E,4.097,211.51,110420,,,A*63
$GPRMC,052216.00,A,3724.51225,N,12641.82677,E,4.097,211.51,110420,,,A*63
$GPRMC,052216.20,A,3724.51225,N,12641.82677,E,4.097,211.51,110420,,,A*63
$GPRMC,052216.40,A,3724.51225,N,12641.82677,E,4.097,211.51,110420,,,A*63
$GPRMC,052216.60,A,3724.51225,N,12641.82677,E,4.097,211.51,110420,,,A*63
$GPRMC,052216.80,A,3724.51225,N,12641.82677,E,4.097,211.51,110420,,,A*63
$GPRMC,052217.00,A,3724.51225,N,12641.82677,E,4.097,211.51,110420,,,A*63
$GPRMC,052217.20,A,3724.51225,N,12641.82677,E,4.097,211.51,110420,,,A*63
$GPRMC,052217.40,A,3724.51225,N,12641.82677,E,4.097,211.51,110420,,,A*63
$GPRMC,052217.60,A,3724.51225,N,12641.82677,E,4.097,211.51,110420,,,A*63
$GPRMC,052217.80,A,3724.51225,N,12641.82677,E,4.097,211.51,110420,,,A*63
$GPRMC,052218.00,A,3724.51225,N,12641.82677,E,4.097,211.51,110420,,,A*63
$GPRMC,052218.20,A,3724.51225,N,12641.82677,E,4.097,211.51,110420,,,A*63
$GPRMC,052218.40,A,3724.51225,N,12641.82677,E,4.097,211.51,110420,,,A*63
$GPRMC,052218.60,A,3724.51225,N,12641.82677,E,4.097,211.51,110420,,,A*63
$GPRMC,052218.80,A,3724.51225,N,12641.82677,E,4.097,211.51,110420,,,A*63
$GPRMC,052219.00,A,3724.51225,N,12641.82677,E,4.097,211.51,110420,,,A*63
$GPRMC,052219.20,A,3724.51225,N,12641.82677,E,4.097,211.51,110420,,,A*63
$GPRMC,052219.40,A,3724.51225,N,12641.82677,E,4.097,211.51,110420,,,A*63
$GPRMC,052219.60,A,3724.51225,N,12641.82677,E,4.097,211.51,110420,,,A*63
$GPRMC,052219.80,A,3724.51225,N,12641.82677,E,4.097,211.51,110420,,,A*63
$GPRMC,052220.00,A,3724.51225,N,12641.82677,E,4.097,211.51,110420,,,A*63
$GPRMC,052220.20,A,3724.51225,N,12641.82677,E,4.097,211.51,110420,,,A*63
$GPRMC,052220.40,A,3724.51225,N,12641.82677,E,4.097,211.51,110420,,,A*63
$GPRMC,052220.60,A,3724.51225,N,12641.82677,E,4.097,211.51,110420,,,A*63
$GPRMC,052220.80,A,3724.51225,N,12641.82677,E,4.097,211.51,110420,,,A*63
$GPRMC,052221.00,A,3724.51225,N,12641.82677,E,4.097,211.51,110420,,,A*63
$GPRMC,052221.20,A,3724.51225,N,12641.82677,E,4.097,211.51,110420,,,A*63
$GPRMC,052221.40,A,3724.51225,N,12641.82677,E,4.097,211.51,110420,,,A*63
$GPRMC,052221.60,A,3724.51225,N,12641.82677,E,4.097,211.51,110420,,,A*63
$GPRMC,052221.80,A,3724.51225,N,12641.82677,E,4.097,211.51,110420,,,A*63
$GPRMC,052222.00,A,3724.51225,N,12641.82677,E,4.097,211.51,110420,,,A*63
$GPRMC,052222.20,A,3724.51225,N,12641.82677,E,4.097,211.51,110420,,,A*63
$GPRMC,052222.40,A,3724.51225,N,12641.82677,E,4.097,211.51,110420,,,A*63
$GPRMC,052222.60,A,3724.51225,N,12641.82677,E,4.097,211.51,110420,,,A*63
$GPRMC,052222.80,A,3724.51225,N,12641.82677,E,4.097,211.51,110420,,,A*63
$GPRMC,052223.00,A,3724.51225,N,12641.82677,E,4.097,211.51,110420,,,A*63
$GPRMC,052223.20,A,3724.51225,N,12641.82677,E,4.097,211.51,110420,,,A*63
$GPRMC,052223.40,A,3724.51225,N,12641.82677,E,4.097,211.51,110420,,,A*63
$GPRMC,052223.60,A,3724.51225,N,12641.82677,E,4.097,211.51,110420,,,A*63
$GPRMC,052223.80,A,3724.51225,N,12641.82677,E,4.097,211.51,110420,,,A*63
$GPRMC,052224.00,A,3724.51225,N,12641.82677,E,4.097,211.51,110420,,,A*63
$GPRMC,052224.20,A,3724.51225,N,12641.82677,E,4.097,211.51,110420,,,A*63
$GPRMC,052224.40,A,3724.51225,N,12641.82677,E,4.097,211.51,110420,,,A*63
$GPRMC,052224.60,A,3724.51225,N,12641.82677,E,4.097,211.51,110420,,,A*63
$GPRMC,052224.80,A,3724.51225,N,12641.82677,E,4.097,211.51,110420,,,A*63
$GPRMC,052225.00,A,3724.51225,N,12641.82677,E,4.097,211.51,110420,,,A*63
$GPRMC,052225.20,A,3724.51225,N,12641.82677,E,4.097,211.51,110420,,,A*63
$GPRMC,052225.40,A,3724.51225,N,12641.82677,E,4.097,211.51,110420,,,A*63
$GPRMC,052225.60,A,3724.51225,N,12641.82677,E,4.097,211.51,110420,,,A*63
$GPRMC,052225.80,A,3724.51225,N,12641.82677,E,4.097,211.51,110420,,,A*63
$GPRMC,052226.00,A,3724.51225,N,12641.82677,E,4.097,211.51,110420,,,A*63
$GPRMC,052226.20,A,3724.51225,N,12641.82677,E,4.097,211.51,110420,,,A*63
$GPRMC,052226.40,A,3724.51225,N,12641.82677,E,4.097,211.51,110420,,,A*63
$GPRMC,052226.60,A,3724.51225,N,12641.82677,E,4.097,211.51,110420,,,A*63
$GPRMC,052226.80,A,3724.51225,N,12641.82677,E,4.097,211.51,110420,,,A*63
$GPRMC,052227.00,A,3724.51225,N,12641.82677,E,4.097,211.51,110420,,,A*63
$GPRMC,052227.20,A,3724.51225,N,12641.82677,E,4.097,211.51,110420,,,A*63
$GPRMC,052227.40,A,3724.51225,N,12641.82677,E,4.097,211.51,110420,,,A*63
$GPRMC,052227.60,A,3724.51225,N,12641.82677,E,4.097,211.51,110420,,,A*63
$GPRMC,052227.80,A,3724.51225,N,12641.82677,E,4.097,211.51,110420,,,A*63
$GPRMC,052228.00,A,3724.51225,N,12641.82677,E,4.097,211.51,110420,,,A*63
$GPRMC,052228.20,A,3724.51225,N,12641.82677,E,4.097,211.51,110420,,,A*63
$GPRMC,052228.40,A,3724.51225,N,12641.82677,E,4.097,211.51,110420,,,A*63
$GPRMC,052228.60,A,3724.51225,N,12641.82677,E,4.097,211.51,110420,,,A*63
$GPRMC,052228.80,A,3724.51225,N,12641.82677,E,4.097,211.51,110420,,,A*63
$GPRMC,052229.00,A,3724.51225,N,12641.82677,E,4.097,211.51,110420,,,A*63
$GPRMC,052229.20,A,3724.51225,N,12641.82677,E,4.097,211.51,110420,,,A*63
$GPRMC,052229.40,A,3724.51225,N,12641.82677,E,4.097,211.51,110420,,,A*63
$GPRMC,052229.60,A,3724.51225,N,12641.82677,E,4.097,211.51,110420,,,A*63
$GPRMC,052229.80,A,3724.51225,N,12641.82677,E,4.097,211.51,110420,,,A*63
$GPRMC,052230.00,A,3724.51225,N,12641.82677,E,4.097,211.51,110420,,,A*63
$GPRMC,052230.20,A,3724.51225,N,12641.82677,E,4.097,211.51,110420,,,A*63
$GPRMC,052230.40,A,3724.51225,N,12641.82677,E,4.097,211.51,110420,,,A*63
$GPRMC,052230.60,A,3724.51225,N,12641.82677,E,4.097,211.51,110420,,,A*63
$GPRMC,052230.80,A,3724.51225,N,12641.82677,E,4.097,211.51,110420,,,A*63
$GPRMC,052231.00,A,3724.51225,N,12641.82677,E,4.097,211.51,110420,,,A*63
$GPRMC,052231.20,A,3724.51225,N,12641.82677,E,4.097,211.51,110420,,,A*63
$GPRMC,052231.40,A,3724.51225,N,12641.82677,E,4.097,211.51,110420,,,A*63
$GPRMC,052231.60,A,3724.51225,N,12641.82677,E,4.097,211.51,110420,,,A*63
$GPRMC,052231.80,A,3724.51225,N,12641.82677,E,4.097,211.51,110420,,,A*63
$GPRMC,052232.00,A,3724.51225,N,12641.82677,E,4.097,211.51,110420,,,A*63
$GPRMC,052232.20,A,3724.51225,N,12641.82677,E,4.097,211.51,110420,,,A*63
$GPRMC,052232.40,A,3724.51225,N,12641.82677,E,4.097,211.51,110420,,,A*63
$GPRMC,052232.60,A,3724.51225,N,12641.82677,E,4.097,211.51,110420,,,A*63
$GPRMC,052232.80,A,3724.51225,N,12641.82677,E,4.097,211.51,110420,,,A*63
$GPRMC,052233.00,A,3724.51225,N,12641.82677,E,4.097,211.51,110420,,,A*63
$GPRMC,052233.20,A,3724.51225,N,12641.82677,E,4.097,211.51,110420,,,A*63
$GPRMC,052233.40,A,3724.51225,N,12641.82677,E,4.097,211.51,110420,,,A*63
$GPRMC,052233.60,A,3724.51225,N,12641.82677,E,4.097,211.51,110420,,,A*63
$GPRMC,052233.80,A,3724.51225,N,12641.82677,E,4.097,211.51,110420,,,A*63
$GPRMC,052234.00,A,3724.51225,N,12641.82677,E,4.097,211.51,110420,,,A*63
$GPRMC,052234.20,A,3724.51225,N,12641.82677,E,4.097,211.51,110420,,,A*63
$GPRMC,052234.40,A,3724.51225,N,12641.82677,E,4.097,211.51,110420,,,A*63
$GPRMC,052234.60,A,3724.51225,N,12641.82677,E,4.097,211.51,110420,,,A*63
$GPRMC,052234.80,A,3724.51225,N,12641.82677,E,4.097,211.51,110420,,,A*63
$GPRMC,052235.00,A,3724.51225,N,12641.82677,E,4.097,211.51,110420,,,A*63
$GPRMC,052235.20,A,3724.51225,N,12641.82677,E,4.097,211.51,110420,,,A*63
$GPRMC,052235.40,A,3724.51225,N,12641.82677,E,4.097,211.51,110420,,,A*63
$GPRMC,052235.60,A,3724.51225,N,12641.82677,E,4.097,211.51,110420,,,A*63
$GPRMC,052235.80,A,3724.51225,N,12641.82677,E,4.097,211.51,110420,,,A*63
$GPRMC,052236.00,A,3724.51225,N,12641.82677,E,4.097,211.51,110420,,,A*63
$GPRMC,052236.20,A,3724.51225,N,12641.82677,E,4.097,211.51,110420,,,A*63
$GPRMC,052236.40,A,3724.51225,N,12641.82677,E,4.097,211.51,110420,,,A*63
$GPRMC,052236.60,A,3724.51225,N,12641.82677,E,4.097,211.51,110420,,,A*63
$GPRMC,052236.80,A,3724.51225,N,12641.82677,E,4.097,211.51,110420,,,A*63
$GPRMC,052237.00,A,3724.51225,N,12641.82677,E,4.097,211.51,110420,,,A*63
$GPRMC,052237.20,A,3724.51225,N,12641.82677,E,4.097,211.51,110420,,,A*63
$GPRMC,052237.40,A,3724.51225,N,12641.82677,E,4.097,211.51,110420,,,A*63
$GPRMC,052237.60,A,3724.51225,N,12641.82677,E,4.097,211.51,110420,,,A*63
$GPRMC,052237.80,A,3724.51225,N,12641.82677,E,4.097,211.51,110420,,,A*63
$GPRMC,052238.00,A,3724.51225,N,12641.82677,E,4.097,211.51,110420,,,A*63
$GPRMC,052238.20,A,3724.51225,N,12641.82677,E,4.097,211.51,110420,,,A*63
$GPRMC,052238.40,A,3724.51225,N,12641.82677,E,4.097,211.51,110420,,,A*63
$GPRMC,052238.60,A,3724.51225,N,12641.82677,E,4.097,211.51,110420,,,A*63
$GPRMC,052238.80,A,3724.51225,N,12641.82677,E,4.097,211.51,110420,,,A*63
$GPRMC,052239.00,A,3724.51225,N,12641.82677,E,4.097,211.51,110420,,,A*63
$GPRMC,052239.20,A,3724.51225,N,12641.82677,E,4.097,211.51,110420,,,A*63
$GPRMC,052239.40,A,3724.51225,N,12641.82677,E,4.097,211.51,110420,,,A*63
$GPRMC,052239.60,A,3724.51225,N,12641.82677,E,4.097,211.51,110420,,,A*63
$GPRMC,052239.80,A,3724.51225,N,12641.82677,E,4.097,211.51,110420,,,A*63
$GPRMC,052240.00,A,3724.51225,N,12641.82677,E,4.097,211.51,110420,,,A*63
$GPRMC,052240.20,A,3724.51225,N,12641.82677,E,4.097,211.51,110420,,,A*63
$GPRMC,052240.40,A,3724.51225,N,12641.82677,E,4.097,211.51,110420,,,A*63
$GPRMC,052240.60,A,3724.51225,N,12641.82677,E,4.097,211.51,110420,,,A*63
$GPRMC,052240.80,A,3724.51225,N,12641.82677,E,4.097,211.51,110420,,,A*63
$GPRMC,052241.00,A,3724.51225,N,12641.82677,E,4.097,211.51,110420,,,A*63
$GPRMC,052241.20,A,3724.51225,N,12641.82677,E,4.097,211.51,110420,,,A*63
$GPRMC,052241.40,A,3724.51225,N,12641.82677,E,4.097,211.51,110420,,,A*63
$GPRMC,052241.60,A,3724.51225,N,12641.82677,E,4.097,211.51,110420,,,A*63
$GPRMC,052241.80,A,3724.51225,N,12641.82677,E,4.097,211.51,110420,,,A*63
$GPRMC,052242.00,A,3724.51225,N,12641.82677,E,4.097,211.51,110420,,,A*63
$GPRMC,052242.20,A,3724.51225,N,12641.82677,E,4.097,211.51,110420,,,A*63
$GPRMC,052242.40,A,3724.51225,N,12641.82677,E,4.097,211.51,110420,,,A*63
$GPRMC,052242.60,A,3724.51225,N,12641.82677,E,4.097,211.51,110420,,,A*63
$GPRMC,052242.80,A,3724.51225,N,12641.82677,E,4.097,211.51,110420,,,A*63
$GPRMC,052243.00,A,3724.51225,N,12641.82677,E,4.097,211.51,110420,,,A*63
$GPRMC,052243.20,A,3724.51225,N,12641.82677,E,4.097,211.51,110420,,,A*63
$GPRMC,052243.40,A,3724.51225,N,12641.82677,E,4.097,211.51,110420,,,A*63
$GPRMC,052243.60,A,3724.51225,N,12641.82677,E,4.097,211.51,110420,,,A*63
$GPRMC,052243.80,A,3724.51225,N,12641.82677,E,4.097,211.51,110420,,,A*63
$GPRMC,052244.00,A,3724.51225,N,12641.82677,E,4.097,211.51,110420,,,A*63
$GPRMC,052244.20,A,3724.51225,N,12641.82677,E,4.097,211.51,110420,,,A*63
$GPRMC,052244.40,A,3724.51225,N,12641.82677,E,4.097,211.51,110420,,,A*63
$GPRMC,052244.60,A,3724.51225,N,12641.82677,E,4.097,211.51,110420,,,A*63
$GPRMC,052244.80,A,3724.51225,N,12641.82677,E,4.097,211.51,110420,,,A*63
$GPRMC,052245.00,A,3724.51225,N,12641.82677,E,4.097,211.51,110420,,,A*63
$GPRMC,052245.20,A,3724.51225,N,12641.82677,E,4.097,211.51,110420,,,A*63
$GPRMC,052245.40,A,3724.51225,N,12641.82677,E,4.097,211.51,110420,,,A*63
$GPRMC,052245.60,A,3724.51225,N,12641.82677,E,4.097,211.51,110420,,,A*63
$GPRMC,052245.80,A,3724.51225,N,12641.82677,E,4.097,211.51,110420,,,A*63
$GPRMC,052246.00,A,3724.51225,N,12641.82677,E,4.097,211.51,110420,,,A*63
$GPRMC,052246.20,A,3724.51225,N,12641.82677,E,4.097,211.51,110420,,,A*63
$GPRMC,052246.40,A,3724.51225,N,12641.82677,E,4.097,211.51,110420,,,A*63
$GPRMC,052246.60,A,3724.51225,N,12641.82677,E,4.097,211.51,110420,,,A*63
$GPRMC,052246.80,A,3724.51225,N,12641.82677,E,4.097,211.51,110420,,,A*63
$GPRMC,052247.00,A,3724.51225,N,12641.82677,E,4.097,211.51,110420,,,A*63
$GPRMC,052247.20,A,3724.51225,N,12641.82677,E,4.097,211.51,110420,,,A*63
$GPRMC,052247.40,A,3724.51225,N,12641.82677,E,4.097,211.51,110420,,,A*63
$GPRMC,052247.60,A,3724.51225,N,12641.82677,E,4.097,211.51,110420,,,A*63
$GPRMC,052247.80,A,3724.51225,N,12641.82677,E,4.097,211.51,110420,,,A*63
$GPRMC,052248.00,A,3724.51225,N,12641.82677,E,4.097,211.51,110420,,,A*63
$GPRMC,052248.20,A,3724.51225,N,12641.82677,E,4.097,211.51,110420,,,A*63
$GPRMC,052248.40,A,3724.51225,N,12641.82677,E,4.097,211.51,110420,,,A*63
$GPRMC,052248.60,A,3724.51225,N,12641.82677,E,4.097,211.51,110420,,,A*63
$GPRMC,052248.80,A,3724.51225,N,12641.82677,E,4.097,211.51,110420,,,A*63
$GPRMC,052249.00,A,3724.51225,N,12641.82677,E,4.097,211.51,110420,,,A*63
$GPRMC,052249.20,A,3724.51225,N,12641.82677,E,4.097,211.51,110420,,,A*63
$GPRMC,052249.40,A,3724.51225,N,12641.82677,E,4.097,211.51,110420,,,A*63
$GPRMC,052249.60,A,3724.51225,N,12641.82677,E,4.097,211.51,110420,,,A*63
$GPRMC,052249.80,A,3724.51225,N,12641.82677,E,4.097,211.51,110420,,,A*63
$GPRMC,052250.00,A,3724.51225,N,12641.82677,E,4.097,211.51,110420,,,A*63
$GPRMC,052250.20,A,3724.51225,N,12641.82677,E,4.097,211.51,110420,,,A*63
$GPRMC,052250.40,A,3724.51225,N,12641.82677,E,4.097,211.51,110420,,,A*63
$GPRMC,052250.60,A,3724.51225,N,12641.82677,E,4.097,211.51,110420,,,A*63
$GPRMC,052250.80,A,3724.51225,N,12641.82677,E,4.097,211.51,110420,,,A*63
$GPRMC,052251.00,A,3724.51225,N,12641.82677,E,4.097,211.51,110420,,,A*63
$GPRMC,052251.20,A,3724.51225,N,12641.82677,E,4.097,211.51,110420,,,A*63
$GPRMC,052251.40,A,3724.51225,N,12641.82677,E,4.097,211.51,110420,,,A*63
$GPRMC,052251.60,A,3724.51225,N,12641.82677,E,4.097,211.51,110420,,,A*63
$GPRMC,052251.80,A,3724.51225,N,12641.82677,E,4.097,211.51,110420,,,A*63
$GPRMC,052252.00,A,3724.51225,N,12641.82677,E,4.097,211.51,110420,,,A*63
$GPRMC,052252.20,A,3724.51225,N,12641.82677,E,4.097,211.51,110420,,,A*63
$GPRMC,052252.40,A,3724.51225,N,12641.82677,E,4.097,211.51,110420,,,A*63
$GPRMC,052252.60,A,3724.51225,N,12641.82677,E,4.097,211.51,110420,,,A*63
$GPRMC,052252.80,A,3724.51225,N,12641.82677,E,4.097,211.51,110420,,,A*63
$GPRMC,052253.00,A,3724.51225,N,12641.82677,E,4.097,211.51,110420,,,A*63
$GPRMC,052253.20,A,3724.51225,N,12641.82677,E,4.097,211.51,110420,,,A*63
$GPRMC,052253.40,A,3724.51225,N,12641.82677,E,4.097,211.51,110420,,,A*63
$GPRMC,052253.60,A,3724.51225,N,12641.82677,E,4.097,211.51,110420,,,A*63
$GPRMC,052253.80,A,3724.51225,N,12641.82677,E,4.097,211.51,110420,,,A*63
$GPRMC,052254.00,A,3724.51225,N,12641.82677,E,4.097,211.51,110420,,,A*63
$GPRMC,052254.20,A,3724.51225,N,12641.82677,E,4.097,211.51,110420,,,A*63
$GPRMC,052254.40,A,3724.51225,N,12641.82677,E,4.097,211.51,110420,,,A*63
$GPRMC,052254.60,A,3724.51225,N,12641.82677,E,4.097,211.51,110420,,,A*63
$GPRMC,052254.80,A,3724.51225,N,12641.82677,E,4.097,211.51,110420,,,A*63
$GPRMC,052255.00,A,3724.51225,N,12641.82677,E,4.097,211.51,110420,,,A*63
$GPRMC,052255.20,A,3724.51225,N,12641.82677,E,4.097,211.51,110420,,,A*63
$GPRMC,052255.40,A,3724.51225,N,12641.82677,E,4.097,211.51,110420,,,A*63
$GPRMC,052255.60,A,3724.51225,N,12641.82677,E,4.097,211.51,110420,,,A*63
$GPRMC,052255.80,A,3724.51225,N,12641.82677,E,4.097,211.51,110420,,,A*63
$GPRMC,052256.00,A,3724.51225,N,12641.82677,E,4.097,211.51,110420,,,A*63
$GPRMC,052256.20,A,3724.51225,N,12641.82677,E,4.097,211.51,110420,,,A*63
$GPRMC,052256.40,A,3724.51225,N,12641.82677,E,4.097,211.51,110420,,,A*63
$GPRMC,052256.60,A,3724.51225,N,12641.82677,E,4.097,211.51,110420,,,A*63
$GPRMC,052256.80,A,3724.51225,N,12641.82677,E,4.097,211.51,110420,,,A*63
$GPRMC,052257.00,A,3724.51225,N,12641.82677,E,4.097,211.51,110420,,,A*63
$GPRMC,052257.20,A,3724.51225,N,12641.82677,E,4.097,211.51,110420,,,A*63
$GPRMC,052257.40,A,3724.51225,N,12641.82677,E,4.097,211.51,110420,,,A*63
$GPRMC,052257.60,A,3724.51225,N,12641.82677,E,4.097,211.51,110420,,,A*63
$GPRMC,052257.80,A,3724.51225,N,12641.82677,E,4.097,211.51,110420,,,A*63
$GPRMC,052258.00,A,3724.51225,N,12641.82677,E,4.097,211.51,110420,,,A*63
$GPRMC,052258.20,A,3724.51225,N,12641.82677,E,4.097,211.51,110420,,,A*63
$GPRMC,052258.40,A,3724.51225,N,12641.82677,E,4.097,211.51,110420,,,A*63
$GPRMC,052258.60,A,3724.51225,N,12641.82677,E,4.097,211.51,110420,,,A*63
$GPRMC,052258.80,A,3724.51225,N,12641.82677,E,4.097,211.51,110420,,,A*63
$GPRMC,052259.00,A,3724.51225,N,12641.82677,E,4.097,211.51,110420,,,A*63
$GPRMC,052259.20,A,3724.51225,N,12641.82677,E,4.097,211.51,110420,,,A*63
$GPRMC,052259.40,A,3724.51225,N,12641.82677,E,4.097,211.51,110420,,,A*63
$GPRMC,052259.60,A,3724.51225,N,12641.82677,E,4.097,211.51,110420,,,A*63
$GPRMC,052259.80,A,3724.51225,N,12641.82677,E,4.097,211.51,110420,,,A*63
$GPRMC,052300.00,A,3724.51225,N,12641.82677,E,4.097,211.51,110420,,,A*63
$GPRMC,052300.20,A,3724.51225,N,12641.82677,E,4.097,211.51,110420,,,A*63
$GPRMC,052300.40,A,3724.51225,N,12641.82677,E,4.097,211.51,110420,,,A*63
$GPRMC,052300.60,A,3724.51225,N,12641.82677,E,4.097,211.51,110420,,,A*63
$GPRMC,052300.80,A,3724.51225,N,12641.82677,E,4.097,211.51,110420,,,A*63
$GPRMC,052301.00,A,3724.51225,N,12641.82677,E,4.097,211.51,110420,,,A*63
$GPRMC,052301.20,A,3724.51225,N,12641.82677,E,4.097,211.51,110420,,,A*63
$GPRMC,052301.40,A,3724.51225,N,12641.82677,E,4.097,211.51,110420,,,A*63
$GPRMC,052301.60,A,3724.51225,N,12641.82677,E,4.097,211.51,110420,,,A*63
$GPRMC,052301.80,A,3724.51225,N,12641.82677,E,4.097,211.51,110420,,,A*63
$GPRMC,052302.00,A,3724.51225,N,12641.82677,E,4.097,211.51,110420,,,A*63
$GPRMC,052302.20,A,3724.51225,N,12641.82677,E,4.097,211.51,110420,,,A*63
$GPRMC,052302.40,A,3724.51225,N,12641.82677,E,4.097,211.51,110420,,,A*63
$GPRMC,052302.60,A,3724.51225,N,12641.82677,E,4.097,211.51,110420,,,A*63
$GPRMC,052302.80,A,3724.51225,N,12641.82677,E,4.097,211.51,110420,,,A*63
$GPRMC,052303.00,A,3724.51225,N,12641.82677,E,4.097,211.51,110420,,,A*63
$GPRMC,052303.20,A,3724.51225,N,12641.82677,E,4.097,211.51,110420,,,A*63
$GPRMC,052303.40,A,3724.51225,N,12641.82677,E,4.097,211.51,110420,,,A*63
$GPRMC,052303.60,A,3724.51225,N,12641.82677,E,4.097,211.51,110420,,,A*63
$GPRMC,052303.80,A,3724.51225,N,12641.82677,E,4.097,211.51,110420,,,A*63
$GPRMC,052304.00,A,3724.51225,N,12641.82677,E,4.097,211.51,110420,,,A*63
$GPRMC,052304.20,A,3724.51225,N,12641.82677,E,4.097,211.51,110420,,,A*63
$GPRMC,052304.40,A,3724.51225,N,12641.82677,E,4.097,211.51,110420,,,A*63
$GPRMC,052304.60,A,3724.51225,N,12641.82677,E,4.097,211.51,110420,,,A*63
$GPRMC,052304.80,A,3724.51225,N,12641.82677,E,4.097,211.51,110420,,,A*63
$GPRMC,052305.00,A,3724.51225,N,12641.82677,E,4.097,211.51,110420,,,A*63
$GPRMC,052305.20,A,3724.51225,N,12641.82677,E,4.097,211.51,110420,,,A*63
$GPRMC,052305.40,A,3724.51225,N,12641.82677,E,4.097,211.51,110420,,,A*63
$GPRMC,052305.60,A,3724.51225,N,12641.82677,E,4.097,211.51,110420,,,A*63
$GPRMC,052305.80,A,3724.51225,N,12641.82677,E,4.097,211.51,110420,,,A*63
$GPRMC,052306.00,A,3724.51225,N,12641.82677,E,4.097,211.51,110420,,,A*63
$GPRMC,052306.20,A,3724.51225,N,12641.82677,E,4.097,211.51,110420,,,A*63
$GPRMC,052306.40,A,3724.51225,N,12641.82677,E,4.097,211.51,110420,,,A*63
$GPRMC,052306.60,A,3724.51225,N,12641.82677,E,4.097,211.51,110420,,,A*63
$GPRMC,052306.80,A,3724.51225,N,12641.82677,E,4.097,211.51,110420,,,A*63
$GPRMC,052307.00,A,3724.51225,N,12641.82677,E,4.097,211.51,110420,,,A*63
$GPRMC,052307.20,A,3724.51225,N,12641.82677,E,4.097,211.51,110420,,,A*63
$GPRMC,052307.40,A,3724.51225,N,12641.82677,E,4.097,211.51,110420,,,A*63
$GPRMC,052307.60,A,3724.51225,N,12641.82677,E,4.097,211.51,110420,,,A*63
$GPRMC,052307.80,A,3724.51225,N,12641.82677,E,4.097,211.51,110420,,,A*63
$GPRMC,052308.00,A,3724.51225,N,12641.82677,E,4.097,211.51,110420,,,A*63
$GPRMC,052308.20,A,3724.51225,N,12641.82677,E,4.097,211.51,110420,,,A*63
$GPRMC,052308.40,A,3724.51225,N,12641.82677,E,4.097,211.51,110420,,,A*63
$GPRMC,052308.60,A,3724.51225,N,12641.82677,E,4.097,211.51,110420,,,A*63
$GPRMC,052308.80,A,3724.51225,N,12641.82677,E,4.097,211.51,110420,,,A*63
$GPRMC,052309.00,A,3724.51225,N,12641.82677,E,4.097,211.51,110420,,,A*63
$GPRMC,052309.20,A,3724.51225,N,12641.82677,E,4.097,211.51,110420,,,A*63
$GPRMC,052309.40,A,3724.51225,N,12641.82677,E,4.097,211.51,110420,,,A*63
$GPRMC,052309.60,A,3724.51225,N,12641.82677,E,4.097,211.51,110420,,,A*63
$GPRMC,052309.80,A,3724.51225,N,12641.82677,E,4.097,211.51,110420,,,A*63
$GPRMC,052310.00,A,3724.51225,N,12641.82677,E,4.097,211.51,110420,,,A*63
$GPRMC,052310.20,A,3724.51225,N,12641.82677,E,4.097,211.51,110420,,,A*63
$GPRMC,052310.40,A,3724.51225,N,12641.82677,E,4.097,211.51,110420,,,A*63
$GPRMC,052310.60,A,3724.51225,N,12641.82677,E,4.097,211.51,110420,,,A*63
$GPRMC,052310.80,A,3724.51225,N,12641.82677,E,4.097,211.51,110420,,,A*63
$GPRMC,052311.00,A,3724.51225,N,12641.82677,E,4.097,211.51,110420,,,A*63
$GPRMC,052311.20,A,3724.51225,N,12641.82677,E,4.097,211.51,110420,,,A*63
$GPRMC,052311.40,A,3724.51225,N,12641.82677,E,4.097,211.51,110420,,,A*63
$GPRMC,052311.60,A,3724.51225,N,12641.82677,E,4.097,211.51,110420,,,A*63
$GPRMC,052311.80,A,3724.51225,N,12641.82677,E,4.097,211.51,110420,,,A*63
$GPRMC,052312.00,A,3724.51225,N,12641.82677,E,4.097,211.51,110420,,,A*63
$GPRMC,052312.20,A,3724.51225,N,12641.82677,E,4.097,211.51,110420,,,A*63
$GPRMC,052312.40,A,3724.51225,N,12641.82677,E,4.097,211.51,110420,,,A*63
$GPRMC,052312.60,A,3724.51225,N,12641.82677,E,4.097,211.51,110420,,,A*63
$GPRMC,052312.80,A,3724.51225,N,12641.82677,E,4.097,211.51,110420,,,A*63
$GPRMC,052313.00,A,3724.51225,N,12641.82677,E,4.097,211.51,110420,,,A*63
$GPRMC,052313.20,A,3724.51225,N,12641.82677,E,4.097,211.51,110420,,,A*63
$GPRMC,052313.40,A,3724.51225,N,12641.82677,E,4.097,211.51,110420,,,A*63
$GPRMC,052313.60,A,3724.51225,N,12641.82677,E,4.097,211.51,110420,,,A*63
$GPRMC,052313.80,A,3724.51225,N,12641.82677,E,4.097,211.51,110420,,,A*63
$GPRMC,052314.00,A,3724.51225,N,12641.82677,E,4.097,211.51,110420,,,A*63
$GPRMC,052314.20,A,3724.51225,N,12641.82677,E,4.097,211.51,110420,,,A*63
$GPRMC,052314.40,A,3724.51225,N,12641.82677,E,4.097,211.51,110420,,,A*63
$GPRMC,052314.60,A,3724.51225,N,12641.82677,E,4.097,211.51,110420,,,A*63
$GPRMC,052314.80,A,3724.51225,N,12641.82677,E,4.097,211.51,110420,,,A*63
$GPRMC,052315.00,A,3724.51225,N,12641.82677,E,4.097,211.51,110420,,,A*63
$GPRMC,052315.20,A,3724.51225,N,12641.82677,E,4.097,211.51,110420,,,A*63
$GPRMC,052315.40,A,3724.51225,N,12641.82677,E,4.097,211.51,110420,,,A*63
$GPRMC,052315.60,A,3724.51225,N,12641.82677,E,4.097,211.51,110420,,,A*63
$GPRMC,052315.80,A,3724.51225,N,12641.82677,E,4.097,211.51,110420,,,A*63
$GPRMC,052316.00,A,3724.51225,N,12641.82677,E,4.097,211.51,110420,,,A*63
$GPRMC,052316.20,A,3724.51225,N,12641.82677,E,4.097,211.51,110420,,,A*63
$GPRMC,052316.40,A,3724.51225,N,12641.82677,E,4.097,211.51,110420,,,A*63
$GPRMC,052316.60,A,3724.51225,N,12641.82677,E,4.097,211.51,110420,,,A*63
$GPRMC,052316.80,A,3724.51225,N,12641.82677,E,4.097,211.51,110420,,,A*63
$GPRMC,052317.00,A,3724.51225,N,12641.82677,E,4.097,211.51,110420,,,A*63
$GPRMC,052317.20,A,3724.51225,N,12641.82677,E,4.097,211.51,110420,,,A*63
$GPRMC,052317.40,A,3724.51225,N,12641.82677,E,4.097,211.51,110420,,,A*63
$GPRMC,052317.60,A,3724.51225,N,12641.82677,E,4.097,211.51,110420,,,A*63
$GPRMC,052317.80,A,3724.51225,N,12641.82677,E,4.097,211.51,110420,,,A*63
$GPRMC,052318.00,A,3724.51225,N,12641.82677,E,4.097,211.51,110420,,,A*63
$GPRMC,052318.20,A,3724.51225,N,12641.82677,E,4.097,211.51,110420,,,A*63
$GPRMC,052318.40,A,3724.51225,N,12641.82677,E,4.097,211.51,110420,,,A*63
$GPRMC,052318.60,A,3724.51225,N,12641.82677,E,4.097,211.51,110420,,,A*63
$GPRMC,052318.80,A,3724.51225,N,12641.82677,E,4.097,211.51,110420,,,A*63
$GPRMC,052319.00,A,3724.51225,N,12641.82677,E,4.097,211.51,110420,,,A*63
$GPRMC,052319.20,A,3724.51225,N,12641.82677,E,4.097,211.51,110420,,,A*63
$GPRMC,052319.40,A,3724.51225,N,12641.82677,E,4.097,211.51,110420,,,A*63
$GPRMC,052319.60,A,3724.51225,N,12641.82677,E,4.097,211.51,110420,,,A*63
$GPRMC,052319.80,A,3724.51225,N,12641.82677,E,4.097,211.51,110420,,,A*63
$GPRMC,052320.00,A,3724.51225,N,12641.82677,E,4.097,211.51,110420,,,A*63
$GPRMC,052320.20,A,3724.51225,N,12641.82677,E,4.097,211.51,110420,,,A*63
$GPRMC,052320.40,A,3724.51225,N,12641.82677,E,4.097,211.51,110420,,,A*63
$GPRMC,052320.60,A,3724.51225,N,12641.82677,E,4.097,211.51,110420,,,A*63
$GPRMC,052320.80,A,3724.51225,N,12641.82677,E,4.097,211.51,110420,,,A*63
$GPRMC,052321.00,A,3724.51225,N,12641.82677,E,4.097,211.51,110420,,,A*63
$GPRMC,052321.20,A,3724.51225,N,12641.82677,E,4.097,211.51,110420,,,A*63
$GPRMC,052321.40,A,3724.51225,N,12641.82677,E,4.097,211.51,110420,,,A*63
$GPRMC,052321.60,A,3724.51225,N,12641.82677,E,4.097,211.51,110420,,,A*63
$GPRMC,052321.80,A,3724.51225,N,12641.82677,E,4.097,211.51,110420,,,A*63
$GPRMC,052322.00,A,3724.51225,N,12641.82677,E,4.097,211.51,110420,,,A*63
$GPRMC,052322.20,A,3724.51225,N,12641.82677,E,4.097,211.51,110420,,,A*63
$GPRMC,052322.40,A,3724.51225,N,12641.82677,E,4.097,211.51,110420,,,A*63
$GPRMC,052322.60,A,3724.51225,N,12641.82677,E,4.097,211.51,110420,,,A*63
$GPRMC,052322.80,A,3724.51225,N,12641.82677,E,4.097,211.51,110420,,,A*63
$GPRMC,052323.00,A,3724.51225,N,12641.82677,E,4.097,211.51,110420,,,A*63
$GPRMC,052323.20,A,3724.51225,N,12641.82677,E,4.097,211.51,110420,,,A*63
$GPRMC,052323.40,A,3724.51225,N,12641.82677,E,4.097,211.51,110420,,,A*63
$GPRMC,052323.60,A,3724.51225,N,12641.82677,E,4.097,211.51,110420,,,A*63
$GPRMC,052323.80,A,3724.51225,N,12641.82677,E,4.097,211.51,110420,,,A*63
$GPRMC,052324.00,A,3724.51225,N,12641.82677,E,4.097,211.51,110420,,,A*63
$GPRMC,052324.20,A,3724.51225,N,12641.82677,E,4.097,211.51,110420,,,A*63
$GPRMC,052324.40,A,3724.51225,N,12641.82677,E,4.097,211.51,110420,,,A*63
$GPRMC,052324.60,A,3724.51225,N,12641.82677,E,4.097,211.51,110420,,,A*63
$GPRMC,052324.80,A,3724.51225,N,12641.82677,E,4.097,211.51,110420,,,A*63
$GPRMC,052325.00,A,3724.51225,N,12641.82677,E,4.097,211.51,110420,,,A*63
$GPRMC,052325.20,A,3724.51225,N,12641.82677,E,4.097,211.51,110420,,,A*63
$GPRMC,052325.40,A,3724.51225,N,12641.82677,E,4.097,211.51,110420,,,A*63
$GPRMC,052325.60,A,3724.51225,N,12641.82677,E,4.097,211.51,110420,,,A*63
$GPRMC,052325.80,A,3724.51225,N,12641.82677,E,4.097,211.51,110420,,,A*63
$GPRMC,052326.00,A,3724.51225,N,12641.82677,E,4.097,211.51,110420,,,A*63
$GPRMC,052326.20,A,3724.51225,N,12641.82677,E,4.097,211.51,110420,,,A*63
$GPRMC,052326.40,A,3724.51225,N,12641.82677,E,4.097,211.51,110420,,,A*63
$GPRMC,052326.60,A,3724.51225,N,12641.82677,E,4.097,211.51,110420,,,A*63
$GPRMC,052326.80,A,3724.51225,N,12641.82677,E,4.097,211.51,110420,,,A*63
$GPRMC,052327.00,A,3724.51225,N,12641.82677,E,4.097,211.51,110420,,,A*63
$GPRMC,052327.20,A,3724.51225,N,12641.82677,E,4.097,211.51,110420,,,A*63
$GPRMC,052327.40,A,3724.51225,N,12641.82677,E,4.097,211.51,110420,,,A*63
$GPRMC,052327.60,A,3724.51225,N,12641.82677,E,4.097,211.51,110420,,,A*63
$GPRMC,052327.80,A,3724.51225,N,12641.82677,E,4.097,211.51,110420,,,A*63
$GPRMC,052328.00,A,3724.51225,N,12641.82677,E,4.097,211.51,110420,,,A*63
$GPRMC,052328.20,A,3724.51225,N,12641.82677,E,4.097,211.51,110420,,,A*63
$GPRMC,052328.40,A,3724.51225,N,12641.82677,E,4.097,211.51,110420,,,A*63
$GPRMC,052328.60,A,3724.51225,N,12641.82677,E,4.097,211.51,110420,,,A*63
$GPRMC,052328.80,A,3724.51225,N,12641.82677,E,4.097,211.51,110420,,,A*63
$GPRMC,052329.00,A,3724.51225,N,12641.82677,E,4.097,211.51,110420,,,A*63
$GPRMC,052329.20,A,3724.51225,N,12641.82677,E,4.097,211.51,110420,,,A*63
$GPRMC,052329.40,A,3724.51225,N,12641.82677,E,4.097,211.51,110420,,,A*63
$GPRMC,052329.60,A,3724.51225,N,12641.82677,E,4.097,211.51,110420,,,A*63
$GPRMC,052329.80,A,3724.51225,N,12641.82677,E,4.097,211.51,110420,,,A*63
$GPRMC,052330.00,A,3724.51225,N,12641.82677,E,4.097,211.51,110420,,,A*63
$GPRMC,052330.20,A,3724.51225,N,12641.82677,E,4.097,211.51,110420,,,A*63
$GPRMC,052330.40,A,3724.51225,N,12641.82677,E,4.097,211.51,110420,,,A*63
$GPRMC,052330.60,A,3724.51225,N,12641.82677,E,4.097,211.51,110420,,,A*63
$GPRMC,052330.80,A,3724.51225,N,12641.82677,E,4.097,211.51,110420,,,A*63
$GPRMC,052331.00,A,3724.51225,N,12641.82677,E,4.097,211.51,110420,,,A*63
$GPRMC,052331.20,A,3724.51225,N,12641.82677,E,4.097,211.51,110420,,,A*63
$GPRMC,052331.40,A,3724.51225,N,12641.82677,E,4.097,211.51,110420,,,A*63
$GPRMC,052331.60,A,3724.51225,N,12641.82677,E,4.097,211.51,110420,,,A*63
$GPRMC,052331.80,A,3724.51225,N,12641.82677,E,4.097,211.51,110420,,,A*63
$GPRMC,052332.00,A,3724.51225,N,12641.82677,E,4.097,211.51,110420,,,A*63
$GPRMC,052332.20,A,3724.51225,N,12641.82677,E,4.097,211.51,110420,,,A*63
$GPRMC,052332.40,A,3724.51225,N,12641.82677,E,4.097,211.51,110420,,,A*63
$GPRMC,052332.60,A,3724.51225,N,12641.82677,E,4.097,211.51,110420,,,A*63
$GPRMC,052332.80,A,3724.51225,N,12641.82677,E,4.097,211.51,110420,,,A*63
$GPRMC,052333.00,A,3724.51225,N,12641.82677,E,4.097,211.51,110420,,,A*63
$GPRMC,052333.20,A,3724.51225,N,12641.82677,E,4.097,211.51,110420,,,A*63
$GPRMC,052333.40,A,3724.51225,N,12641.82677,E,4.097,211.51,110420,,,A*63
$GPRMC,052333.60,A,3724.51225,N,12641.82677,E,4.097,211.51,110420,,,A*63
$GPRMC,052333.80,A,3724.51225,N,12641.82677,E,4.097,211.51,110420,,,A*63
$GPRMC,052334.00,A,3724.51225,N,12641.82677,E,4.097,211.51,110420,,,A*63
$GPRMC,052334.20,A,3724.51225,N,12641.82677,E,4.097,211.51,110420,,,A*63
$GPRMC,052334.40,A,3724.51225,N,12641.82677,E,4.097,211.51,110420,,,A*63
$GPRMC,052334.60,A,3724.51225,N,12641.82677,E,4.097,211.51,110420,,,A*63
$GPRMC,052334.80,A,3724.51225,N,12641.82677,E,4.097,211.51,110420,,,A*63
$GPRMC,052335.00,A,3724.51225,N,12641.82677,E,4.097,211.51,110420,,,A*63
$GPRMC,052335.20,A,3724.51225,N,12641.82677,E,4.097,211.51,110420,,,A*63
$GPRMC,052335.40,A,3724.51225,N,12641.82677,E,4.097,211.51,110420,,,A*63
$GPRMC,052335.60,A,3724.51225,N,12641.82677,E,4.097,211.51,110420,,,A*63
$GPRMC,052335.80,A,3724.51225,N,12641.82677,E,4.097,211.51,110420,,,A*63
$GPRMC,052336.00,A,3724.51225,N,12641.82677,E,4.097,211.51,110420,,,A*63
$GPRMC,052336.20,A,3724.51225,N,12641.82677,E,4.097,211.51,110420,,,A*63
$GPRMC,052336.40,A,3724.51225,N,12641.82677,E,4.097,211.51,110420,,,A*63
$GPRMC,052336.60,A,3724.51225,N,12641.82677,E,4.097,211.51,110420,,,A*63
$GPRMC,052336.80,A,3724.51225,N,12641.82677,E,4.097,211.51,110420,,,A*63
$GPRMC,052337.00,A,3724.51225,N,12641.82677,E,4.097,211.51,110420,,,A*63
$GPRMC,052337.20,A,3724.51225,N,12641.82677,E,4.097,211.51,110420,,,A*63
$GPRMC,052337.40,A,3724.51225,N,12641.82677,E,4.097,211.51,110420,,,A*63
$GPRMC,052337.60,A,3724.51225,N,12641.82677,E,4.097,211.51,110420,,,A*63
$GPRMC,052337.80,A,3724.51225,N,12641.82677,E,4.097,211.51,110420,,,A*63
$GPRMC,052338.00,A,3724.51225,N,12641.82677,E,4.097,211.51,110420,,,A*63
$GPRMC,052338.20,A,3724.51225,N,12641.82677,E,4.097,211.51,110420,,,A*63
