$GPRMC,051519.10,A,3724.51225,N,12641.82677,E,4.097,211.51,110420,,,A*63
$GPRMC,051519.30,A,3724.51225,N,12641.82677,E,4.097,211.51,110420,,,A*63
$GPRMC,051519.50,A,3724.51225,N,12641.82677,E,4.097,211.51,110420,,,A*63
$GPRMC,051519.70,A,3724.51225,N,12641.82677,E,4.097,211.51,110420,,,A*63
$GPRMC,051519.90,A,3724.51225,N,12641.82677,E,4.097,211.51,110420,,,A*63
$GPRMC,051520.10,A,3724.51225,N,12641.82677,E,4.097,211.51,110420,,,A*63
$GPRMC,051520.30,A,3724.51225,N,12641.82677,E,4.097,211.51,110420,,,A*63
$GPRMC,051520.50,A,3724.51225,N,12641.82677,E,4.097,211.51,110420,,,A*63
$GPRMC,051520.70,A,3724.51225,N,12641.82677,E,4.097,211.51,110420,,,A*63
$GPRMC,051520.90,A,3724.51225,N,12641.82677,E,4.097,211.51,110420,,,A*63
$GPRMC,051521.10,A,3724.51225,N,12641.82677,E,4.097,211.51,110420,,,A*63
$GPRMC,051521.30,A,3724.51225,N,12641.82677,E,4.097,211.51,110420,,,A*63
$GPRMC,051521.50,A,3724.51225,N,12641.82677,E,4.097,211.51,110420,,,A*63
$GPRMC,051521.70,A,3724.51225,N,12641.82677,E,4.097,211.51,110420,,,A*63
$GPRMC,051521.90,A,3724.51225,N,12641.82677,E,4.097,211.51,110420,,,A*63
$GPRMC,051522.10,A,3724.51225,N,12641.82677,E,4.097,211.51,110420,,,A*63
$GPRMC,051522.30,A,3724.51225,N,12641.82677,E,4.097,211.51,110420,,,A*63
$GPRMC,051522.50,A,3724.51225,N,12641.82677,E,4.097,211.51,110420,,,A*63
$GPRMC,051522.70,A,3724.51225,N,12641.82677,E,4.097,211.51,110420,,,A*63
$GPRMC,051522.90,A,3724.51225,N,12641.82677,E,4.097,211.51,110420,,,A*63
$GPRMC,051523.10,A,3724.51225,N,12641.82677,E,4.097,211.51,110420,,,A*63
$GPRMC,051523.30,A,3724.51225,N,12641.82677,E,4.097,211.51,110420,,,A*63
$GPRMC,051523.50,A,3724.51225,N,12641.82677,E,4.097,211.51,110420,,,A*63
$GPRMC,051523.70,A,3724.51225,N,12641.82677,E,4.097,211.51,110420,,,A*63
$GPRMC,051523.90,A,3724.51225,N,12641.82677,E,4.097,211.51,110420,,,A*63
$GPRMC,051524.10,A,3724.51225,N,12641.82677,E,4.097,211.51,110420,,,A*63
$GPRMC,051524.30,A,3724.51225,N,12641.82677,E,4.097,211.51,110420,,,A*63
$GPRMC,051524.50,A,3724.51225,N,12641.82677,E,4.097,211.51,110420,,,A*63
$GPRMC,051524.70,A,3724.51225,N,12641.82677,E,4.097,211.51,110420,,,A*63
$GPRMC,051524.90,A,3724.51225,N,12641.82677,E,4.097,211.51,110420,,,A*63
$GPRMC,051525.10,A,3724.51225,N,12641.82677,E,4.097,211.51,110420,,,A*63
$GPRMC,051525.30,A,3724.51225,N,12641.82677,E,4.097,211.51,110420,,,A*63
$GPRMC,051525.50,A,3724.51225,N,12641.82677,E,4.097,211.51,110420,,,A*63
$GPRMC,051525.70,A,3724.51225,N,12641.82677,E,4.097,211.51,110420,,,A*63
$GPRMC,051525.90,A,3724.51225,N,12641.82677,E,4.097,211.51,110420,,,A*63
$GPRMC,051526.10,A,3724.51225,N,12641.82677,E,4.097,211.51,110420,,,A*63
$GPRMC,051526.30,A,3724.51225,N,12641.82677,E,4.097,211.51,110420,,,A*63
$GPRMC,051526.50,A,3724.51225,N,12641.82677,E,4.097,211.51,110420,,,A*63
$GPRMC,051526.70,A,3724.51225,N,12641.82677,E,4.097,211.51,110420,,,A*63
$GPRMC,051526.90,A,3724.51225,N,12641.82677,E,4.097,211.51,110420,,,A*63
$GPRMC,051527.10,A,3724.51225,N,12641.82677,E,4.097,211.51,110420,,,A*63
$GPRMC,051527.30,A,3724.51225,N,12641.82677,E,4.097,211.51,110420,,,A*63
$GPRMC,051527.50,A,3724.51225,N,12641.82677,E,4.097,211.51,110420,,,A*63
$GPRMC,051527.70,A,3724.51225,N,12641.82677,E,4.097,211.51,110420,,,A*63
$GPRMC,051527.90,A,3724.51225,N,12641.82677,E,4.097,211.51,110420,,,A*63
$GPRMC,051528.10,A,3724.51225,N,12641.82677,E,4.097,211.51,110420,,,A*63
$GPRMC,051528.30,A,3724.51225,N,12641.82677,E,4.097,211.51,110420,,,A*63
$GPRMC,051528.50,A,3724.51225,N,12641.82677,E,4.097,211.51,110420,,,A*63
$GPRMC,051528.70,A,3724.51225,N,12641.82677,E,4.097,211.51,110420,,,A*63
$GPRMC,051528.90,A,3724.51225,N,12641.82677,E,4.097,211.51,110420,,,A*63
$GPRMC,051529.10,A,3724.51225,N,12641.82677,E,4.097,211.51,110420,,,A*63
$GPRMC,051529.30,A,3724.51225,N,12641.82677,E,4.097,211.51,110420,,,A*63
$GPRMC,051529.50,A,3724.51225,N,12641.82677,E,4.097,211.51,110420,,,A*63
$GPRMC,051529.70,A,3724.51225,N,12641.82677,E,4.097,211.51,110420,,,A*63
$GPRMC,051529.90,A,3724.51225,N,12641.82677,E,4.097,211.51,110420,,,A*63
$GPRMC,051530.10,A,3724.51225,N,12641.82677,E,4.097,211.51,110420,,,A*63
$GPRMC,051530.30,A,3724.51225,N,12641.82677,E,4.097,211.51,110420,,,A*63
$GPRMC,051530.50,A,3724.51225,N,12641.82677,E,4.097,211.51,110420,,,A*63
$GPRMC,051530.70,A,3724.51225,N,12641.82677,E,4.097,211.51,110420,,,A*63
$GPRMC,051530.90,A,3724.51225,N,12641.82677,E,4.097,211.51,110420,,,A*63
$GPRMC,051531.10,A,3724.51225,N,12641.82677,E,4.097,211.51,110420,,,A*63
$GPRMC,051531.30,A,3724.51225,N,12641.82677,E,4.097,211.51,110420,,,A*63
$GPRMC,051531.50,A,3724.51225,N,12641.82677,E,4.097,211.51,110420,,,A*63
$GPRMC,051531.70,A,3724.51225,N,12641.82677,E,4.097,211.51,110420,,,A*63
$GPRMC,051531.90,A,3724.51225,N,12641.82677,E,4.097,211.51,110420,,,A*63
$GPRMC,051532.10,A,3724.51225,N,12641.82677,E,4.097,211.51,110420,,,A*63
$GPRMC,051532.30,A,3724.51225,N,12641.82677,E,4.097,211.51,110420,,,A*63
$GPRMC,051532.50,A,3724.51225,N,12641.82677,E,4.097,211.51,110420,,,A*63
$GPRMC,051532.70,A,3724.51225,N,12641.82677,E,4.097,211.51,110420,,,A*63
$GPRMC,051532.90,A,3724.51225,N,12641.82677,E,4.097,211.51,110420,,,A*63
$GPRMC,051533.10,A,3724.51225,N,12641.82677,E,4.097,211.51,110420,,,A*63
$GPRMC,051533.30,A,3724.51225,N,12641.82677,E,4.097,211.51,110420,,,A*63
$GPRMC,051533.50,A,3724.51225,N,12641.82677,E,4.097,211.51,110420,,,A*63
$GPRMC,051533.70,A,3724.51225,N,12641.82677,E,4.097,211.51,110420,,,A*63
$GPRMC,051533.90,A,3724.51225,N,12641.82677,E,4.097,211.51,110420,,,A*63
$GPRMC,051534.10,A,3724.51225,N,12641.82677,E,4.097,211.51,110420,,,A*63
$GPRMC,051534.30,A,3724.51225,N,12641.82677,E,4.097,211.51,110420,,,A*63
$GPRMC,051534.50,A,3724.51225,N,12641.82677,E,4.097,211.51,110420,,,A*63
$GPRMC,051534.70,A,3724.51225,N,12641.82677,E,4.097,211.51,110420,,,A*63
$GPRMC,051534.90,A,3724.51225,N,12641.82677,E,4.097,211.51,110420,,,A*63
$GPRMC,051535.10,A,3724.51225,N,12641.82677,E,4.097,211.51,110420,,,A*63
$GPRMC,051535.30,A,3724.51225,N,12641.82677,E,4.097,211.51,110420,,,A*63
$GPRMC,051535.50,A,3724.51225,N,12641.82677,E,4.097,211.51,110420,,,A*63
$GPRMC,051535.70,A,3724.51225,N,12641.82677,E,4.097,211.51,110420,,,A*63
$GPRMC,051535.90,A,3724.51225,N,12641.82677,E,4.097,211.51,110420,,,A*63
$GPRMC,051536.10,A,3724.51225,N,12641.82677,E,4.097,211.51,110420,,,A*63
$GPRMC,051536.30,A,3724.51225,N,12641.82677,E,4.097,211.51,110420,,,A*63
$GPRMC,051536.50,A,3724.51225,N,12641.82677,E,4.097,211.51,110420,,,A*63
$GPRMC,051536.70,A,3724.51225,N,12641.82677,E,4.097,211.51,110420,,,A*63
$GPRMC,051536.90,A,3724.51225,N,12641.82677,E,4.097,211.51,110420,,,A*63
$GPRMC,051537.10,A,3724.51225,N,12641.82677,E,4.097,211.51,110420,,,A*63
$GPRMC,051537.30,A,3724.51225,N,12641.82677,E,4.097,211.51,110420,,,A*63
$GPRMC,051537.50,A,3724.51225,N,12641.82677,E,4.097,211.51,110420,,,A*63
$GPRMC,051537.70,A,3724.51225,N,12641.82677,E,4.097,211.51,110420,,,A*63
$GPRMC,051537.90,A,3724.51225,N,12641.82677,E,4.097,211.51,110420,,,A*63
$GPRMC,051538.10,A,3724.51225,N,12641.82677,E,4.097,211.51,110420,,,A*63
$GPRMC,051538.30,A,3724.51225,N,12641.82677,E,4.097,211.51,110420,,,A*63
$GPRMC,051538.50,A,3724.51225,N,12641.82677,E,4.097,211.51,110420,,,A*63
$GPRMC,051538.70,A,3724.51225,N,12641.82677,E,4.097,211.51,110420,,,A*63
$GPRMC,051538.90,A,3724.51225,N,12641.82677,E,4.097,211.51,110420,,,A*63
$GPRMC,051539.10,A,3724.51225,N,12641.82677,E,4.097,211.51,110420,,,A*63
$GPRMC,051539.30,A,3724.51225,N,12641.82677,E,4.097,211.51,110420,,,A*63
$GPRMC,051539.50,A,3724.51225,N,12641.82677,E,4.097,211.51,110420,,,A*63
$GPRMC,051539.70,A,3724.51225,N,12641.82677,E,4.097,211.51,110420,,,A*63
$GPRMC,051539.90,A,3724.51225,N,12641.82677,E,4.097,211.51,110420,,,A*63
$GPRMC,051540.10,A,3724.51225,N,12641.82677,E,4.097,211.51,110420,,,A*63
$GPRMC,051540.30,A,3724.51225,N,12641.82677,E,4.097,211.51,110420,,,A*63
$GPRMC,051540.50,A,3724.51225,N,12641.82677,E,4.097,211.51,110420,,,A*63
$GPRMC,051540.70,A,3724.51225,N,12641.82677,E,4.097,211.51,110420,,,A*63
$GPRMC,051540.90,A,3724.51225,N,12641.82677,E,4.097,211.51,110420,,,A*63
$GPRMC,051541.10,A,3724.51225,N,12641.82677,E,4.097,211.51,110420,,,A*63
$GPRMC,051541.30,A,3724.51225,N,12641.82677,E,4.097,211.51,110420,,,A*63
$GPRMC,051541.50,A,3724.51225,N,12641.82677,E,4.097,211.51,110420,,,A*63
$GPRMC,051541.70,A,3724.51225,N,12641.82677,E,4.097,211.51,110420,,,A*63
$GPRMC,051541.90,A,3724.51225,N,12641.82677,E,4.097,211.51,110420,,,A*63
$GPRMC,051542.10,A,3724.51225,N,12641.82677,E,4.097,211.51,110420,,,A*63
$GPRMC,051542.30,A,3724.51225,N,12641.82677,E,4.097,211.51,110420,,,A*63
$GPRMC,051542.50,A,3724.51225,N,12641.82677,E,4.097,211.51,110420,,,A*63
$GPRMC,051542.70,A,3724.51225,N,12641.82677,E,4.097,211.51,110420,,,A*63
$GPRMC,051542.90,A,3724.51225,N,12641.82677,E,4.097,211.51,110420,,,A*63
$GPRMC,051543.10,A,3724.51225,N,12641.82677,E,4.097,211.51,110420,,,A*63
$GPRMC,051543.30,A,3724.51225,N,12641.82677,E,4.097,211.51,110420,,,A*63
$GPRMC,051543.50,A,3724.51225,N,12641.82677,E,4.097,211.51,110420,,,A*63
$GPRMC,051543.70,A,3724.51225,N,12641.82677,E,4.097,211.51,110420,,,A*63
$GPRMC,051543.90,A,3724.51225,N,12641.82677,E,4.097,211.51,110420,,,A*63
$GPRMC,051544.10,A,3724.51225,N,12641.82677,E,4.097,211.51,110420,,,A*63
$GPRMC,051544.30,A,3724.51225,N,12641.82677,E,4.097,211.51,110420,,,A*63
$GPRMC,051544.50,A,3724.51225,N,12641.82677,E,4.097,211.51,110420,,,A*63
$GPRMC,051544.70,A,3724.51225,N,12641.82677,E,4.097,211.51,110420,,,A*63
$GPRMC,051544.90,A,3724.51225,N,12641.82677,E,4.097,211.51,110420,,,A*63
$GPRMC,051545.10,A,3724.51225,N,12641.82677,E,4.097,211.51,110420,,,A*63
$GPRMC,051545.30,A,3724.51225,N,12641.82677,E,4.097,211.51,110420,,,A*63
$GPRMC,051545.50,A,3724.51225,N,12641.82677,E,4.097,211.51,110420,,,A*63
$GPRMC,051545.70,A,3724.51225,N,12641.82677,E,4.097,211.51,110420,,,A*63
$GPRMC,051545.90,A,3724.51225,N,12641.82677,E,4.097,211.51,110420,,,A*63
$GPRMC,051546.10,A,3724.51225,N,12641.82677,E,4.097,211.51,110420,,,A*63
$GPRMC,051546.30,A,3724.51225,N,12641.82677,E,4.097,211.51,110420,,,A*63
$GPRMC,051546.50,A,3724.51225,N,12641.82677,E,4.097,211.51,110420,,,A*63
$GPRMC,051546.70,A,3724.51225,N,12641.82677,E,4.097,211.51,110420,,,A*63
$GPRMC,051546.90,A,3724.51225,N,12641.82677,E,4.097,211.51,110420,,,A*63
$GPRMC,051547.10,A,3724.51225,N,12641.82677,E,4.097,211.51,110420,,,A*63
$GPRMC,051547.30,A,3724.51225,N,12641.82677,E,4.097,211.51,110420,,,A*63
$GPRMC,051547.50,A,3724.51225,N,12641.82677,E,4.097,211.51,110420,,,A*63
$GPRMC,051547.70,A,3724.51225,N,12641.82677,E,4.097,211.51,110420,,,A*63
$GPRMC,051547.90,A,3724.51225,N,12641.82677,E,4.097,211.51,110420,,,A*63
$GPRMC,051548.10,A,3724.51225,N,12641.82677,E,4.097,211.51,110420,,,A*63
$GPRMC,051548.30,A,3724.51225,N,12641.82677,E,4.097,211.51,110420,,,A*63
$GPRMC,051548.50,A,3724.51225,N,12641.82677,E,4.097,211.51,110420,,,A*63
$GPRMC,051548.70,A,3724.51225,N,12641.82677,E,4.097,211.51,110420,,,A*63
$GPRMC,051548.90,A,3724.51225,N,12641.82677,E,4.097,211.51,110420,,,A*63
$GPRMC,051549.10,A,3724.51225,N,12641.82677,E,4.097,211.51,110420,,,A*63
$GPRMC,051549.30,A,3724.51225,N,12641.82677,E,4.097,211.51,110420,,,A*63
$GPRMC,051549.50,A,3724.51225,N,12641.82677,E,4.097,211.51,110420,,,A*63
$GPRMC,051549.70,A,3724.51225,N,12641.82677,E,4.097,211.51,110420,,,A*63
$GPRMC,051549.90,A,3724.51225,N,12641.82677,E,4.097,211.51,110420,,,A*63
$GPRMC,051550.10,A,3724.51225,N,12641.82677,E,4.097,211.51,110420,,,A*63
$GPRMC,051550.30,A,3724.51225,N,12641.82677,E,4.097,211.51,110420,,,A*63
$GPRMC,051550.50,A,3724.51225,N,12641.82677,E,4.097,211.51,110420,,,A*63
$GPRMC,051550.70,A,3724.51225,N,12641.82677,E,4.097,211.51,110420,,,A*63
$GPRMC,051550.90,A,3724.51225,N,12641.82677,E,4.097,211.51,110420,,,A*63
$GPRMC,051551.10,A,3724.51225,N,12641.82677,E,4.097,211.51,110420,,,A*63
$GPRMC,051551.30,A,3724.51225,N,12641.82677,E,4.097,211.51,110420,,,A*63
$GPRMC,051551.50,A,3724.51225,N,12641.82677,E,4.097,211.51,110420,,,A*63
$GPRMC,051551.70,A,3724.51225,N,12641.82677,E,4.097,211.51,110420,,,A*63
$GPRMC,051551.90,A,3724.51225,N,12641.82677,E,4.097,211.51,110420,,,A*63
$GPRMC,051552.10,A,3724.51225,N,12641.82677,E,4.097,211.51,110420,,,A*63
$GPRMC,051552.30,A,3724.51225,N,12641.82677,E,4.097,211.51,110420,,,A*63
$GPRMC,051552.50,A,3724.51225,N,12641.82677,E,4.097,211.51,110420,,,A*63
$GPRMC,051552.70,A,3724.51225,N,12641.82677,E,4.097,211.51,110420,,,A*63
$GPRMC,051552.90,A,3724.51225,N,12641.82677,E,4.097,211.51,110420,,,A*63
$GPRMC,051553.10,A,3724.51225,N,12641.82677,E,4.097,211.51,110420,,,A*63
$GPRMC,051553.30,A,3724.51225,N,12641.82677,E,4.097,211.51,110420,,,A*63
$GPRMC,051553.50,A,3724.51225,N,12641.82677,E,4.097,211.51,110420,,,A*63
$GPRMC,051553.70,A,3724.51225,N,12641.82677,E,4.097,211.51,110420,,,A*63
$GPRMC,051553.90,A,3724.51225,N,12641.82677,E,4.097,211.51,110420,,,A*63
$GPRMC,051554.10,A,3724.51225,N,12641.82677,E,4.097,211.51,110420,,,A*63
$GPRMC,051554.30,A,3724.51225,N,12641.82677,E,4.097,211.51,110420,,,A*63
$GPRMC,051554.50,A,3724.51225,N,12641.82677,E,4.097,211.51,110420,,,A*63
$GPRMC,051554.70,A,3724.51225,N,12641.82677,E,4.097,211.51,110420,,,A*63
$GPRMC,051554.90,A,3724.51225,N,12641.82677,E,4.097,211.51,110420,,,A*63
$GPRMC,051555.10,A,3724.51225,N,12641.82677,E,4.097,211.51,110420,,,A*63
$GPRMC,051555.30,A,3724.51225,N,12641.82677,E,4.097,211.51,110420,,,A*63
$GPRMC,051555.50,A,3724.51225,N,12641.82677,E,4.097,211.51,110420,,,A*63
$GPRMC,051555.70,A,3724.51225,N,12641.82677,E,4.097,211.51,110420,,,A*63
$GPRMC,051555.90,A,3724.51225,N,12641.82677,E,4.097,211.51,110420,,,A*63
$GPRMC,051556.10,A,3724.51225,N,12641.82677,E,4.097,211.51,110420,,,A*63
$GPRMC,051556.30,A,3724.51225,N,12641.82677,E,4.097,211.51,110420,,,A*63
$GPRMC,051556.50,A,3724.51225,N,12641.82677,E,4.097,211.51,110420,,,A*63
$GPRMC,051556.70,A,3724.51225,N,12641.82677,E,4.097,211.51,110420,,,A*63
$GPRMC,051556.90,A,3724.51225,N,12641.82677,E,4.097,211.51,110420,,,A*63
$GPRMC,051557.10,A,3724.51225,N,12641.82677,E,4.097,211.51,110420,,,A*63
$GPRMC,051557.30,A,3724.51225,N,12641.82677,E,4.097,211.51,110420,,,A*63
$GPRMC,051557.50,A,3724.51225,N,12641.82677,E,4.097,211.51,110420,,,A*63
$GPRMC,051557.70,A,3724.51225,N,12641.82677,E,4.097,211.51,110420,,,A*63
$GPRMC,051557.90,A,3724.51225,N,12641.82677,E,4.097,211.51,110420,,,A*63
$GPRMC,051558.10,A,3724.51225,N,12641.82677,E,4.097,211.51,110420,,,A*63
$GPRMC,051558.40,A,3724.51225,N,12641.82677,E,4.097,211.51,110420,,,A*63
$GPRMC,051558.60,A,3724.51225,N,12641.82677,E,4.097,211.51,110420,,,A*63
$GPRMC,051558.80,A,3724.51225,N,12641.82677,E,4.097,211.51,110420,,,A*63
$GPRMC,051559.00,A,3724.51225,N,12641.82677,E,4.097,211.51,110420,,,A*63
$GPRMC,051559.20,A,3724.51225,N,12641.82677,E,4.097,211.51,110420,,,A*63
$GPRMC,051559.40,A,3724.51225,N,12641.82677,E,4.097,211.51,110420,,,A*63
$GPRMC,051559.60,A,3724.51225,N,12641.82677,E,4.097,211.51,110420,,,A*63
$GPRMC,051559.80,A,3724.51225,N,12641.82677,E,4.097,211.51,110420,,,A*63
$GPRMC,051600.00,A,3724.51225,N,12641.82677,E,4.097,211.51,110420,,,A*63
$GPRMC,051600.20,A,3724.51225,N,12641.82677,E,4.097,211.51,110420,,,A*63
$GPRMC,051600.40,A,3724.51225,N,12641.82677,E,4.097,211.51,110420,,,A*63
$GPRMC,051600.60,A,3724.51225,N,12641.82677,E,4.097,211.51,110420,,,A*63
$GPRMC,051600.80,A,3724.51225,N,12641.82677,E,4.097,211.51,110420,,,A*63
$GPRMC,051601.00,A,3724.51225,N,12641.82677,E,4.097,211.51,110420,,,A*63
$GPRMC,051601.20,A,3724.51225,N,12641.82677,E,4.097,211.51,110420,,,A*63
$GPRMC,051601.40,A,3724.51225,N,12641.82677,E,4.097,211.51,110420,,,A*63
$GPRMC,051601.60,A,3724.51225,N,12641.82677,E,4.097,211.51,110420,,,A*63
$GPRMC,051601.80,A,3724.51225,N,12641.82677,E,4.097,211.51,110420,,,A*63
$GPRMC,051602.00,A,3724.51225,N,12641.82677,E,4.097,211.51,110420,,,A*63
$GPRMC,051602.20,A,3724.51225,N,12641.82677,E,4.097,211.51,110420,,,A*63
$GPRMC,051602.40,A,3724.51225,N,12641.82677,E,4.097,211.51,110420,,,A*63
$GPRMC,051602.60,A,3724.51225,N,12641.82677,E,4.097,211.51,110420,,,A*63
$GPRMC,051602.80,A,3724.51225,N,12641.82677,E,4.097,211.51,110420,,,A*63
$GPRMC,051603.00,A,3724.51225,N,12641.82677,E,4.097,211.51,110420,,,A*63
$GPRMC,051603.20,A,3724.51225,N,12641.82677,E,4.097,211.51,110420,,,A*63
$GPRMC,051603.40,A,3724.51225,N,12641.82677,E,4.097,211.51,110420,,,A*63
$GPRMC,051603.60,A,3724.51225,N,12641.82677,E,4.097,211.51,110420,,,A*63
$GPRMC,051603.80,A,3724.51225,N,12641.82677,E,4.097,211.51,110420,,,A*63
$GPRMC,051604.00,A,3724.51225,N,12641.82677,E,4.097,211.51,110420,,,A*63
$GPRMC,051604.20,A,3724.51225,N,12641.82677,E,4.097,211.51,110420,,,A*63
$GPRMC,051604.40,A,3724.51225,N,12641.82677,E,4.097,211.51,110420,,,A*63
$GPRMC,051604.60,A,3724.51225,N,12641.82677,E,4.097,211.51,110420,,,A*63
$GPRMC,051604.80,A,3724.51225,N,12641.82677,E,4.097,211.51,110420,,,A*63
$GPRMC,051605.00,A,3724.51225,N,12641.82677,E,4.097,211.51,110420,,,A*63
$GPRMC,051605.20,A,3724.51225,N,12641.82677,E,4.097,211.51,110420,,,A*63
$GPRMC,051605.40,A,3724.51225,N,12641.82677,E,4.097,211.51,110420,,,A*63
$GPRMC,051605.60,A,3724.51225,N,12641.82677,E,4.097,211.51,110420,,,A*63
$GPRMC,051605.80,A,3724.51225,N,12641.82677,E,4.097,211.51,110420,,,A*63
$GPRMC,051606.00,A,3724.51225,N,12641.82677,E,4.097,211.51,110420,,,A*63
$GPRMC,051606.20,A,3724.51225,N,12641.82677,E,4.097,211.51,110420,,,A*63
$GPRMC,051606.40,A,3724.51225,N,12641.82677,E,4.097,211.51,110420,,,A*63
$GPRMC,051606.60,A,3724.51225,N,12641.82677,E,4.097,211.51,110420,,,A*63
$GPRMC,051606.80,A,3724.51225,N,12641.82677,E,4.097,211.51,110420,,,A*63
$GPRMC,051607.00,A,3724.51225,N,12641.82677,E,4.097,211.51,110420,,,A*63
$GPRMC,051607.20,A,3724.51225,N,12641.82677,E,4.097,211.51,110420,,,A*63
$GPRMC,051607.40,A,3724.51225,N,12641.82677,E,4.097,211.51,110420,,,A*63
$GPRMC,051607.60,A,3724.51225,N,12641.82677,E,4.097,211.51,110420,,,A*63
$GPRMC,051607.80,A,3724.51225,N,12641.82677,E,4.097,211.51,110420,,,A*63
$GPRMC,051608.00,A,3724.51225,N,12641.82677,E,4.097,211.51,110420,,,A*63
$GPRMC,051608.20,A,3724.51225,N,12641.82677,E,4.097,211.51,110420,,,A*63
$GPRMC,051608.40,A,3724.51225,N,12641.82677,E,4.097,211.51,110420,,,A*63
$GPRMC,051608.60,A,3724.51225,N,12641.82677,E,4.097,211.51,110420,,,A*63
$GPRMC,051608.80,A,3724.51225,N,12641.82677,E,4.097,211.51,110420,,,A*63
$GPRMC,051609.00,A,3724.51225,N,12641.82677,E,4.097,211.51,110420,,,A*63
$GPRMC,051609.20,A,3724.51225,N,12641.82677,E,4.097,211.51,110420,,,A*63
$GPRMC,051609.40,A,3724.51225,N,12641.82677,E,4.097,211.51,110420,,,A*63
$GPRMC,051609.60,A,3724.51225,N,12641.82677,E,4.097,211.51,110420,,,A*63
$GPRMC,051609.80,A,3724.51225,N,12641.82677,E,4.097,211.51,110420,,,A*63
$GPRMC,051610.00,A,3724.51225,N,12641.82677,E,4.097,211.51,110420,,,A*63
$GPRMC,051610.20,A,3724.51225,N,12641.82677,E,4.097,211.51,110420,,,A*63
$GPRMC,051610.40,A,3724.51225,N,12641.82677,E,4.097,211.51,110420,,,A*63
$GPRMC,051610.60,A,3724.51225,N,12641.82677,E,4.097,211.51,110420,,,A*63
$GPRMC,051610.80,A,3724.51225,N,12641.82677,E,4.097,211.51,110420,,,A*63
$GPRMC,051611.00,A,3724.51225,N,12641.82677,E,4.097,211.51,110420,,,A*63
$GPRMC,051611.20,A,3724.51225,N,12641.82677,E,4.097,211.51,110420,,,A*63
$GPRMC,051611.40,A,3724.51225,N,12641.82677,E,4.097,211.51,110420,,,A*63
$GPRMC,051611.60,A,3724.51225,N,12641.82677,E,4.097,211.51,110420,,,A*63
$GPRMC,051611.80,A,3724.51225,N,12641.82677,E,4.097,211.51,110420,,,A*63
$GPRMC,051612.00,A,3724.51225,N,12641.82677,E,4.097,211.51,110420,,,A*63
$GPRMC,051612.30,A,3724.51225,N,12641.82677,E,4.097,211.51,110420,,,A*63
$GPRMC,051612.50,A,3724.51225,N,12641.82677,E,4.097,211.51,110420,,,A*63
$GPRMC,051612.70,A,3724.51225,N,12641.82677,E,4.097,211.51,110420,,,A*63
$GPRMC,051612.90,A,3724.51225,N,12641.82677,E,4.097,211.51,110420,,,A*63
$GPRMC,051613.10,A,3724.51225,N,12641.82677,E,4.097,211.51,110420,,,A*63
$GPRMC,051613.30,A,3724.51225,N,12641.82677,E,4.097,211.51,110420,,,A*63
$GPRMC,051613.50,A,3724.51225,N,12641.82677,E,4.097,211.51,110420,,,A*63
$GPRMC,051613.70,A,3724.51225,N,12641.82677,E,4.097,211.51,110420,,,A*63
$GPRMC,051613.90,A,3724.51225,N,12641.82677,E,4.097,211.51,110420,,,A*63
$GPRMC,051614.10,A,3724.51225,N,12641.82677,E,4.097,211.51,110420,,,A*63
$GPRMC,051614.30,A,3724.51225,N,12641.82677,E,4.097,211.51,110420,,,A*63
$GPRMC,051614.50,A,3724.51225,N,12641.82677,E,4.097,211.51,110420,,,A*63
$GPRMC,051614.70,A,3724.51225,N,12641.82677,E,4.097,211.51,110420,,,A*63
$GPRMC,051614.90,A,3724.51225,N,12641.82677,E,4.097,211.51,110420,,,A*63
$GPRMC,051615.10,A,3724.51225,N,12641.82677,E,4.097,211.51,110420,,,A*63
$GPRMC,051615.40,A,3724.51225,N,12641.82677,E,4.097,211.51,110420,,,A*63
$GPRMC,051615.60,A,3724.51225,N,12641.82677,E,4.097,211.51,110420,,,A*63
$GPRMC,051615.80,A,3724.51225,N,12641.82677,E,4.097,211.51,110420,,,A*63
$GPRMC,051616.00,A,3724.51225,N,12641.82677,E,4.097,211.51,110420,,,A*63
$GPRMC,051616.20,A,3724.51225,N,12641.82677,E,4.097,211.51,110420,,,A*63
$GPRMC,051616.40,A,3724.51225,N,12641.82677,E,4.097,211.51,110420,,,A*63
$GPRMC,051616.60,A,3724.51225,N,12641.82677,E,4.097,211.51,110420,,,A*63
$GPRMC,051616.80,A,3724.51225,N,12641.82677,E,4.097,211.51,110420,,,A*63
$GPRMC,051617.00,A,3724.51225,N,12641.82677,E,4.097,211.51,110420,,,A*63
$GPRMC,051617.30,A,3724.51225,N,12641.82677,E,4.097,211.51,110420,,,A*63
$GPRMC,051617.50,A,3724.51225,N,12641.82677,E,4.097,211.51,110420,,,A*63
$GPRMC,051617.70,A,3724.51225,N,12641.82677,E,4.097,211.51,110420,,,A*63
$GPRMC,051617.90,A,3724.51225,N,12641.82677,E,4.097,211.51,110420,,,A*63
$GPRMC,051618.20,A,3724.51225,N,12641.82677,E,4.097,211.51,110420,,,A*63
$GPRMC,051618.40,A,3724.51225,N,12641.82677,E,4.097,211.51,110420,,,A*63
$GPRMC,051618.60,A,3724.51225,N,12641.82677,E,4.097,211.51,110420,,,A*63
$GPRMC,051618.80,A,3724.51225,N,12641.82677,E,4.097,211.51,110420,,,A*63
$GPRMC,051619.00,A,3724.51225,N,12641.82677,E,4.097,211.51,110420,,,A*63
$GPRMC,051619.20,A,3724.51225,N,12641.82677,E,4.097,211.51,110420,,,A*63
$GPRMC,051619.40,A,3724.51225,N,12641.82677,E,4.097,211.51,110420,,,A*63
$GPRMC,051619.60,A,3724.51225,N,12641.82677,E,4.097,211.51,110420,,,A*63
$GPRMC,051619.80,A,3724.51225,N,12641.82677,E,4.097,211.51,110420,,,A*63
$GPRMC,051620.00,A,3724.51225,N,12641.82677,E,4.097,211.51,110420,,,A*63
$GPRMC,051620.30,A,3724.51225,N,12641.82677,E,4.097,211.51,110420,,,A*63
$GPRMC,051620.50,A,3724.51225,N,12641.82677,E,4.097,211.51,110420,,,A*63
$GPRMC,051620.70,A,3724.51225,N,12641.82677,E,4.097,211.51,110420,,,A*63
$GPRMC,051620.90,A,3724.51225,N,12641.82677,E,4.097,211.51,110420,,,A*63
$GPRMC,051621.10,A,3724.51225,N,12641.82677,E,4.097,211.51,110420,,,A*63
$GPRMC,051621.30,A,3724.51225,N,12641.82677,E,4.097,211.51,110420,,,A*63
$GPRMC,051621.50,A,3724.51225,N,12641.82677,E,4.097,211.51,110420,,,A*63
$GPRMC,051621.70,A,3724.51225,N,12641.82677,E,4.097,211.51,110420,,,A*63
$GPRMC,051621.90,A,3724.51225,N,12641.82677,E,4.097,211.51,110420,,,A*63
$GPRMC,051622.10,A,3724.51225,N,12641.82677,E,4.097,211.51,110420,,,A*63
$GPRMC,051622.30,A,3724.51225,N,12641.82677,E,4.097,211.51,110420,,,A*63
$GPRMC,051622.50,A,3724.51225,N,12641.82677,E,4.097,211.51,110420,,,A*63
$GPRMC,051622.70,A,3724.51225,N,12641.82677,E,4.097,211.51,110420,,,A*63
$GPRMC,051623.00,A,3724.51225,N,12641.82677,E,4.097,211.51,110420,,,A*63
$GPRMC,051623.30,A,3724.51225,N,12641.82677,E,4.097,211.51,110420,,,A*63
$GPRMC,051623.50,A,3724.51225,N,12641.82677,E,4.097,211.51,110420,,,A*63
$GPRMC,051623.70,A,3724.51225,N,12641.82677,E,4.097,211.51,110420,,,A*63
$GPRMC,051623.90,A,3724.51225,N,12641.82677,E,4.097,211.51,110420,,,A*63
$GPRMC,051624.10,A,3724.51225,N,12641.82677,E,4.097,211.51,110420,,,A*63
$GPRMC,051624.30,A,3724.51225,N,12641.82677,E,4.097,211.51,110420,,,A*63
$GPRMC,051624.50,A,3724.51225,N,12641.82677,E,4.097,211.51,110420,,,A*63
$GPRMC,051624.70,A,3724.51225,N,12641.82677,E,4.097,211.51,110420,,,A*63
$GPRMC,051624.90,A,3724.51225,N,12641.82677,E,4.097,211.51,110420,,,A*63
$GPRMC,051625.10,A,3724.51225,N,12641.82677,E,4.097,211.51,110420,,,A*63
$GPRMC,051625.40,A,3724.51225,N,12641.82677,E,4.097,211.51,110420,,,A*63
$GPRMC,051625.60,A,3724.51225,N,12641.82677,E,4.097,211.51,110420,,,A*63
$GPRMC,051625.80,A,3724.51225,N,12641.82677,E,4.097,211.51,110420,,,A*63
$GPRMC,051626.00,A,3724.51225,N,12641.82677,E,4.097,211.51,110420,,,A*63
$GPRMC,051626.30,A,3724.51225,N,12641.82677,E,4.097,211.51,110420,,,A*63
$GPRMC,051626.50,A,3724.51225,N,12641.82677,E,4.097,211.51,110420,,,A*63
$GPRMC,051626.70,A,3724.51225,N,12641.82677,E,4.097,211.51,110420,,,A*63
$GPRMC,051626.90,A,3724.51225,N,12641.82677,E,4.097,211.51,110420,,,A*63
$GPRMC,051627.10,A,3724.51225,N,12641.82677,E,4.097,211.51,110420,,,A*63
$GPRMC,051627.30,A,3724.51225,N,12641.82677,E,4.097,211.51,110420,,,A*63
$GPRMC,051627.50,A,3724.51225,N,12641.82677,E,4.097,211.51,110420,,,A*63
$GPRMC,051627.70,A,3724.51225,N,12641.82677,E,4.097,211.51,110420,,,A*63
$GPRMC,051627.90,A,3724.51225,N,12641.82677,E,4.097,211.51,110420,,,A*63
$GPRMC,051628.10,A,3724.51225,N,12641.82677,E,4.097,211.51,110420,,,A*63
$GPRMC,051628.40,A,3724.51225,N,12641.82677,E,4.097,211.51,110420,,,A*63
$GPRMC,051628.60,A,3724.51225,N,12641.82677,E,4.097,211.51,110420,,,A*63
$GPRMC,051628.80,A,3724.51225,N,12641.82677,E,4.097,211.51,110420,,,A*63
$GPRMC,051629.00,A,3724.51225,N,12641.82677,E,4.097,211.51,110420,,,A*63
$GPRMC,051629.30,A,3724.51225,N,12641.82677,E,4.097,211.51,110420,,,A*63
$GPRMC,051629.50,A,3724.51225,N,12641.82677,E,4.097,211.51,110420,,,A*63
$GPRMC,051629.70,A,3724.51225,N,12641.82677,E,4.097,211.51,110420,,,A*63
$GPRMC,051629.90,A,3724.51225,N,12641.82677,E,4.097,211.51,110420,,,A*63
$GPRMC,051630.10,A,3724.51225,N,12641.82677,E,4.097,211.51,110420,,,A*63
$GPRMC,051630.30,A,3724.51225,N,12641.82677,E,4.097,211.51,110420,,,A*63
$GPRMC,051630.50,A,3724.51225,N,12641.82677,E,4.097,211.51,110420,,,A*63
$GPRMC,051630.70,A,3724.51225,N,12641.82677,E,4.097,211.51,110420,,,A*63
$GPRMC,051630.90,A,3724.51225,N,12641.82677,E,4.097,211.51,110420,,,A*63
$GPRMC,051631.20,A,3724.51225,N,12641.82677,E,4.097,211.51,110420,,,A*63
$GPRMC,051631.50,A,3724.51225,N,12641.82677,E,4.097,211.51,110420,,,A*63
$GPRMC,051631.70,A,3724.51225,N,12641.82677,E,4.097,211.51,110420,,,A*63
$GPRMC,051631.90,A,3724.51225,N,12641.82677,E,4.097,211.51,110420,,,A*63
$GPRMC,051632.10,A,3724.51225,N,12641.82677,E,4.097,211.51,110420,,,A*63
$GPRMC,051632.30,A,3724.51225,N,12641.82677,E,4.097,211.51,110420,,,A*63
$GPRMC,051632.50,A,3724.51225,N,12641.82677,E,4.097,211.51,110420,,,A*63
$GPRMC,051632.70,A,3724.51225,N,12641.82677,E,4.097,211.51,110420,,,A*63
$GPRMC,051632.90,A,3724.51225,N,12641.82677,E,4.097,211.51,110420,,,A*63
$GPRMC,051633.10,A,3724.51225,N,12641.82677,E,4.097,211.51,110420,,,A*63
$GPRMC,051633.30,A,3724.51225,N,12641.82677,E,4.097,211.51,110420,,,A*63
$GPRMC,051633.50,A,3724.51225,N,12641.82677,E,4.097,211.51,110420,,,A*63
$GPRMC,051633.70,A,3724.51225,N,12641.82677,E,4.097,211.51,110420,,,A*63
$GPRMC,051633.90,A,3724.51225,N,12641.82677,E,4.097,211.51,110420,,,A*63
$GPRMC,051634.20,A,3724.51225,N,12641.82677,E,4.097,211.51,110420,,,A*63
$GPRMC,051634.40,A,3724.51225,N,12641.82677,E,4.097,211.51,110420,,,A*63
$GPRMC,051634.60,A,3724.51225,N,12641.82677,E,4.097,211.51,110420,,,A*63
$GPRMC,051634.80,A,3724.51225,N,12641.82677,E,4.097,211.51,110420,,,A*63
$GPRMC,051635.00,A,3724.51225,N,12641.82677,E,4.097,211.51,110420,,,A*63
$GPRMC,051635.20,A,3724.51225,N,12641.82677,E,4.097,211.51,110420,,,A*63
$GPRMC,051635.40,A,3724.51225,N,12641.82677,E,4.097,211.51,110420,,,A*63
$GPRMC,051635.60,A,3724.51225,N,12641.82677,E,4.097,211.51,110420,,,A*63
$GPRMC,051635.80,A,3724.51225,N,12641.82677,E,4.097,211.51,110420,,,A*63
$GPRMC,051636.00,A,3724.51225,N,12641.82677,E,4.097,211.51,110420,,,A*63
$GPRMC,051636.20,A,3724.51225,N,12641.82677,E,4.097,211.51,110420,,,A*63
$GPRMC,051636.40,A,3724.51225,N,12641.82677,E,4.097,211.51,110420,,,A*63
$GPRMC,051636.70,A,3724.51225,N,12641.82677,E,4.097,211.51,110420,,,A*63
$GPRMC,051636.90,A,3724.51225,N,12641.82677,E,4.097,211.51,110420,,,A*63
$GPRMC,051637.20,A,3724.51225,N,12641.82677,E,4.097,211.51,110420,,,A*63
$GPRMC,051637.40,A,3724.51225,N,12641.82677,E,4.097,211.51,110420,,,A*63
$GPRMC,051637.60,A,3724.51225,N,12641.82677,E,4.097,211.51,110420,,,A*63
$GPRMC,051637.80,A,3724.51225,N,12641.82677,E,4.097,211.51,110420,,,A*63
$GPRMC,051638.00,A,3724.51225,N,12641.82677,E,4.097,211.51,110420,,,A*63
$GPRMC,051638.20,A,3724.51225,N,12641.82677,E,4.097,211.51,110420,,,A*63
$GPRMC,051638.40,A,3724.51225,N,12641.82677,E,4.097,211.51,110420,,,A*63
$GPRMC,051638.60,A,3724.51225,N,12641.82677,E,4.097,211.51,110420,,,A*63
$GPRMC,051638.80,A,3724.51225,N,12641.82677,E,4.097,211.51,110420,,,A*63
$GPRMC,051639.00,A,3724.51225,N,12641.82677,E,4.097,211.51,110420,,,A*63
$GPRMC,051639.20,A,3724.51225,N,12641.82677,E,4.097,211.51,110420,,,A*63
$GPRMC,051639.40,A,3724.51225,N,12641.82677,E,4.097,211.51,110420,,,A*63
$GPRMC,051639.60,A,3724.51225,N,12641.82677,E,4.097,211.51,110420,,,A*63
$GPRMC,051639.80,A,3724.51225,N,12641.82677,E,4.097,211.51,110420,,,A*63
$GPRMC,051640.00,A,3724.51225,N,12641.82677,E,4.097,211.51,110420,,,A*63
$GPRMC,051640.30,A,3724.51225,N,12641.82677,E,4.097,211.51,110420,,,A*63
$GPRMC,051640.50,A,3724.51225,N,12641.82677,E,4.097,211.51,110420,,,A*63
$GPRMC,051640.70,A,3724.51225,N,12641.82677,E,4.097,211.51,110420,,,A*63
$GPRMC,051640.90,A,3724.51225,N,12641.82677,E,4.097,211.51,110420,,,A*63
$GPRMC,051641.10,A,3724.51225,N,12641.82677,E,4.097,211.51,110420,,,A*63
$GPRMC,051641.30,A,3724.51225,N,12641.82677,E,4.097,211.51,110420,,,A*63
$GPRMC,051641.50,A,3724.51225,N,12641.82677,E,4.097,211.51,110420,,,A*63
$GPRMC,051641.70,A,3724.51225,N,12641.82677,E,4.097,211.51,110420,,,A*63
$GPRMC,051641.90,A,3724.51225,N,12641.82677,E,4.097,211.51,110420,,,A*63
$GPRMC,051642.10,A,3724.51225,N,12641.82677,E,4.097,211.51,110420,,,A*63
$GPRMC,051642.50,A,3724.51225,N,12641.82677,E,4.097,211.51,110420,,,A*63
$GPRMC,051642.70,A,3724.51225,N,12641.82677,E,4.097,211.51,110420,,,A*63
$GPRMC,051642.90,A,3724.51225,N,12641.82677,E,4.097,211.51,110420,,,A*63
$GPRMC,051643.20,A,3724.51225,N,12641.82677,E,4.097,211.51,110420,,,A*63
$GPRMC,051643.40,A,3724.51225,N,12641.82677,E,4.097,211.51,110420,,,A*63
$GPRMC,051643.60,A,3724.51225,N,12641.82677,E,4.097,211.51,110420,,,A*63
$GPRMC,051643.80,A,3724.51225,N,12641.82677,E,4.097,211.51,110420,,,A*63
$GPRMC,051644.00,A,3724.51225,N,12641.82677,E,4.097,211.51,110420,,,A*63
$GPRMC,051644.20,A,3724.51225,N,12641.82677,E,4.097,211.51,110420,,,A*63
$GPRMC,051644.40,A,3724.51225,N,12641.82677,E,4.097,211.51,110420,,,A*63
$GPRMC,051644.60,A,3724.51225,N,12641.82677,E,4.097,211.51,110420,,,A*63
$GPRMC,051644.80,A,3724.51225,N,12641.82677,E,4.097,211.51,110420,,,A*63
$GPRMC,051645.00,A,3724.51225,N,12641.82677,E,4.097,211.51,110420,,,A*63
$GPRMC,051645.30,A,3724.51225,N,12641.82677,E,4.097,211.51,110420,,,A*63
$GPRMC,051645.50,A,3724.51225,N,12641.82677,E,4.097,211.51,110420,,,A*63
$GPRMC,051645.70,A,3724.51225,N,12641.82677,E,4.097,211.51,110420,,,A*63
$GPRMC,051645.90,A,3724.51225,N,12641.82677,E,4.097,211.51,110420,,,A*63
$GPRMC,051646.10,A,3724.51225,N,12641.82677,E,4.097,211.51,110420,,,A*63
$GPRMC,051646.30,A,3724.51225,N,12641.82677,E,4.097,211.51,110420,,,A*63
$GPRMC,051646.50,A,3724.51225,N,12641.82677,E,4.097,211.51,110420,,,A*63
$GPRMC,051646.70,A,3724.51225,N,12641.82677,E,4.097,211.51,110420,,,A*63
$GPRMC,051646.90,A,3724.51225,N,12641.82677,E,4.097,211.51,110420,,,A*63
$GPRMC,051647.10,A,3724.51225,N,12641.82677,E,4.097,211.51,110420,,,A*63
$GPRMC,051647.30,A,3724.51225,N,12641.82677,E,4.097,211.51,110420,,,A*63
$GPRMC,051647.50,A,3724.51225,N,12641.82677,E,4.097,211.51,110420,,,A*63
$GPRMC,051647.70,A,3724.51225,N,12641.82677,E,4.097,211.51,110420,,,A*63
$GPRMC,051647.90,A,3724.51225,N,12641.82677,E,4.097,211.51,110420,,,A*63
$GPRMC,051648.10,A,3724.51225,N,12641.82677,E,4.097,211.51,110420,,,A*63
$GPRMC,051648.40,A,3724.51225,N,12641.82677,E,4.097,211.51,110420,,,A*63
$GPRMC,051648.60,A,3724.51225,N,12641.82677,E,4.097,211.51,110420,,,A*63
$GPRMC,051648.80,A,3724.51225,N,12641.82677,E,4.097,211.51,110420,,,A*63
$GPRMC,051649.00,A,3724.51225,N,12641.82677,E,4.097,211.51,110420,,,A*63
$GPRMC,051649.30,A,3724.51225,N,12641.82677,E,4.097,211.51,110420,,,A*63
$GPRMC,051649.50,A,3724.51225,N,12641.82677,E,4.097,211.51,110420,,,A*63
$GPRMC,051649.70,A,3724.51225,N,12641.82677,E,4.097,211.51,110420,,,A*63
$GPRMC,051649.90,A,3724.51225,N,12641.82677,E,4.097,211.51,110420,,,A*63
$GPRMC,051650.10,A,3724.51225,N,12641.82677,E,4.097,211.51,110420,,,A*63
$GPRMC,051650.40,A,3724.51225,N,12641.82677,E,4.097,211.51,110420,,,A*63
$GPRMC,051650.60,A,3724.51225,N,12641.82677,E,4.097,211.51,110420,,,A*63
$GPRMC,051650.80,A,3724.51225,N,12641.82677,E,4.097,211.51,110420,,,A*63
$GPRMC,051651.00,A,3724.51225,N,12641.82677,E,4.097,211.51,110420,,,A*63
$GPRMC,051651.30,A,3724.51225,N,12641.82677,E,4.097,211.51,110420,,,A*63
$GPRMC,051651.50,A,3724.51225,N,12641.82677,E,4.097,211.51,110420,,,A*63
$GPRMC,051651.70,A,3724.51225,N,12641.82677,E,4.097,211.51,110420,,,A*63
$GPRMC,051651.90,A,3724.51225,N,12641.82677,E,4.097,211.51,110420,,,A*63
$GPRMC,051652.10,A,3724.51225,N,12641.82677,E,4.097,211.51,110420,,,A*63
$GPRMC,051652.30,A,3724.51225,N,12641.82677,E,4.097,211.51,110420,,,A*63
$GPRMC,051652.50,A,3724.51225,N,12641.82677,E,4.097,211.51,110420,,,A*63
$GPRMC,051652.70,A,3724.51225,N,12641.82677,E,4.097,211.51,110420,,,A*63
$GPRMC,051652.90,A,3724.51225,N,12641.82677,E,4.097,211.51,110420,,,A*63
$GPRMC,051653.10,A,3724.51225,N,12641.82677,E,4.097,211.51,110420,,,A*63
$GPRMC,051653.40,A,3724.51225,N,12641.82677,E,4.097,211.51,110420,,,A*63
$GPRMC,051653.60,A,3724.51225,N,12641.82677,E,4.097,211.51,110420,,,A*63
$GPRMC,051653.80,A,3724.51225,N,12641.82677,E,4.097,211.51,110420,,,A*63
$GPRMC,051654.00,A,3724.51225,N,12641.82677,E,4.097,211.51,110420,,,A*63
$GPRMC,051654.20,A,3724.51225,N,12641.82677,E,4.097,211.51,110420,,,A*63
$GPRMC,051654.40,A,3724.51225,N,12641.82677,E,4.097,211.51,110420,,,A*63
$GPRMC,051654.60,A,3724.51225,N,12641.82677,E,4.097,211.51,110420,,,A*63
$GPRMC,051654.80,A,3724.51225,N,12641.82677,E,4.097,211.51,110420,,,A*63
$GPRMC,051655.00,A,3724.51225,N,12641.82677,E,4.097,211.51,110420,,,A*63
$GPRMC,051655.30,A,3724.51225,N,12641.82677,E,4.097,211.51,110420,,,A*63
$GPRMC,051655.50,A,3724.51225,N,12641.82677,E,4.097,211.51,110420,,,A*63
$GPRMC,051655.70,A,3724.51225,N,12641.82677,E,4.097,211.51,110420,,,A*63
$GPRMC,051655.90,A,3724.51225,N,12641.82677,E,4.097,211.51,110420,,,A*63
$GPRMC,051656.10,A,3724.51225,N,12641.82677,E,4.097,211.51,110420,,,A*63
$GPRMC,051656.40,A,3724.51225,N,12641.82677,E,4.097,211.51,110420,,,A*63
$GPRMC,051656.60,A,3724.51225,N,12641.82677,E,4.097,211.51,110420,,,A*63
$GPRMC,051656.80,A,3724.51225,N,12641.82677,E,4.097,211.51,110420,,,A*63
$GPRMC,051657.00,A,3724.51225,N,12641.82677,E,4.097,211.51,110420,,,A*63
$GPRMC,051657.20,A,3724.51225,N,12641.82677,E,4.097,211.51,110420,,,A*63
$GPRMC,051657.40,A,3724.51225,N,12641.82677,E,4.097,211.51,110420,,,A*63
$GPRMC,051657.60,A,3724.51225,N,12641.82677,E,4.097,211.51,110420,,,A*63
$GPRMC,051657.80,A,3724.51225,N,12641.82677,E,4.097,211.51,110420,,,A*63
$GPRMC,051658.00,A,3724.51225,N,12641.82677,E,4.097,211.51,110420,,,A*63
$GPRMC,051658.20,A,3724.51225,N,12641.82677,E,4.097,211.51,110420,,,A*63
$GPRMC,051658.40,A,3724.51225,N,12641.82677,E,4.097,211.51,110420,,,A*63
$GPRMC,051658.60,A,3724.51225,N,12641.82677,E,4.097,211.51,110420,,,A*63
$GPRMC,051658.80,A,3724.51225,N,12641.82677,E,4.097,211.51,110420,,,A*63
$GPRMC,051659.00,A,3724.51225,N,12641.82677,E,4.097,211.51,110420,,,A*63
$GPRMC,051659.30,A,3724.51225,N,12641.82677,E,4.097,211.51,110420,,,A*63
$GPRMC,051659.50,A,3724.51225,N,12641.82677,E,4.097,211.51,110420,,,A*63
$GPRMC,051659.70,A,3724.51225,N,12641.82677,E,4.097,211.51,110420,,,A*63
$GPRMC,051659.90,A,3724.51225,N,12641.82677,E,4.097,211.51,110420,,,A*63
$GPRMC,051700.10,A,3724.51225,N,12641.82677,E,4.097,211.51,110420,,,A*63
$GPRMC,051700.30,A,3724.51225,N,12641.82677,E,4.097,211.51,110420,,,A*63
$GPRMC,051700.50,A,3724.51225,N,12641.82677,E,4.097,211.51,110420,,,A*63
$GPRMC,051700.70,A,3724.51225,N,12641.82677,E,4.097,211.51,110420,,,A*63
$GPRMC,051700.90,A,3724.51225,N,12641.82677,E,4.097,211.51,110420,,,A*63
$GPRMC,051701.10,A,3724.51225,N,12641.82677,E,4.097,211.51,110420,,,A*63
$GPRMC,051701.40,A,3724.51225,N,12641.82677,E,4.097,211.51,110420,,,A*63
$GPRMC,051701.60,A,3724.51225,N,12641.82677,E,4.097,211.51,110420,,,A*63
$GPRMC,051701.80,A,3724.51225,N,12641.82677,E,4.097,211.51,110420,,,A*63
$GPRMC,051702.00,A,3724.51225,N,12641.82677,E,4.097,211.51,110420,,,A*63
$GPRMC,051702.30,A,3724.51225,N,12641.82677,E,4.097,211.51,110420,,,A*63
$GPRMC,051702.50,A,3724.51225,N,12641.82677,E,4.097,211.51,110420,,,A*63
$GPRMC,051702.70,A,3724.51225,N,12641.82677,E,4.097,211.51,110420,,,A*63
$GPRMC,051702.90,A,3724.51225,N,12641.82677,E,4.097,211.51,110420,,,A*63
$GPRMC,051703.10,A,3724.51225,N,12641.82677,E,4.097,211.51,110420,,,A*63
$GPRMC,051703.30,A,3724.51225,N,12641.82677,E,4.097,211.51,110420,,,A*63
$GPRMC,051703.50,A,3724.51225,N,12641.82677,E,4.097,211.51,110420,,,A*63
$GPRMC,051703.70,A,3724.51225,N,12641.82677,E,4.097,211.51,110420,,,A*63
$GPRMC,051703.90,A,3724.51225,N,12641.82677,E,4.097,211.51,110420,,,A*63
$GPRMC,051704.10,A,3724.51225,N,12641.82677,E,4.097,211.51,110420,,,A*63
$GPRMC,051704.40,A,3724.51225,N,12641.82677,E,4.097,211.51,110420,,,A*63
$GPRMC,051704.70,A,3724.51225,N,12641.82677,E,4.097,211.51,110420,,,A*63
$GPRMC,051704.90,A,3724.51225,N,12641.82677,E,4.097,211.51,110420,,,A*63
$GPRMC,051705.10,A,3724.51225,N,12641.82677,E,4.097,211.51,110420,,,A*63
$GPRMC,051705.40,A,3724.51225,N,12641.82677,E,4.097,211.51,110420,,,A*63
$GPRMC,051705.60,A,3724.51225,N,12641.82677,E,4.097,211.51,110420,,,A*63
$GPRMC,051705.80,A,3724.51225,N,12641.82677,E,4.097,211.51,110420,,,A*63
$GPRMC,051706.00,A,3724.51225,N,12641.82677,E,4.097,211.51,110420,,,A*63
$GPRMC,051706.20,A,3724.51225,N,12641.82677,E,4.097,211.51,110420,,,A*63
$GPRMC,051706.40,A,3724.51225,N,12641.82677,E,4.097,211.51,110420,,,A*63
$GPRMC,051706.60,A,3724.51225,N,12641.82677,E,4.097,211.51,110420,,,A*63
$GPRMC,051706.80,A,3724.51225,N,12641.82677,E,4.097,211.51,110420,,,A*63
$GPRMC,051707.10,A,3724.51225,N,12641.82677,E,4.097,211.51,110420,,,A*63
$GPRMC,051707.40,A,3724.51225,N,12641.82677,E,4.097,211.51,110420,,,A*63
$GPRMC,051707.60,A,3724.51225,N,12641.82677,E,4.097,211.51,110420,,,A*63
$GPRMC,051707.80,A,3724.51225,N,12641.82677,E,4.097,211.51,110420,,,A*63
$GPRMC,051708.00,A,3724.51225,N,12641.82677,E,4.097,211.51,110420,,,A*63
$GPRMC,051708.20,A,3724.51225,N,12641.82677,E,4.097,211.51,110420,,,A*63
$GPRMC,051708.40,A,3724.51225,N,12641.82677,E,4.097,211.51,110420,,,A*63
$GPRMC,051708.60,A,3724.51225,N,12641.82677,E,4.097,211.51,110420,,,A*63
$GPRMC,051708.80,A,3724.51225,N,12641.82677,E,4.097,211.51,110420,,,A*63
$GPRMC,051709.00,A,3724.51225,N,12641.82677,E,4.097,211.51,110420,,,A*63
$GPRMC,051709.30,A,3724.51225,N,12641.82677,E,4.097,211.51,110420,,,A*63
$GPRMC,051709.50,A,3724.51225,N,12641.82677,E,4.097,211.51,110420,,,A*63
$GPRMC,051709.70,A,3724.51225,N,12641.82677,E,4.097,211.51,110420,,,A*63
$GPRMC,051709.90,A,3724.51225,N,12641.82677,E,4.097,211.51,110420,,,A*63
$GPRMC,051710.10,A,3724.51225,N,12641.82677,E,4.097,211.51,110420,,,A*63
$GPRMC,051710.40,A,3724.51225,N,12641.82677,E,4.097,211.51,110420,,,A*63
$GPRMC,051710.60,A,3724.51225,N,12641.82677,E,4.097,211.51,110420,,,A*63
$GPRMC,051710.80,A,3724.51225,N,12641.82677,E,4.097,211.51,110420,,,A*63
$GPRMC,051711.00,A,3724.51225,N,12641.82677,E,4.097,211.51,110420,,,A*63
$GPRMC,051711.30,A,3724.51225,N,12641.82677,E,4.097,211.51,110420,,,A*63
$GPRMC,051711.50,A,3724.51225,N,12641.82677,E,4.097,211.51,110420,,,A*63
$GPRMC,051711.70,A,3724.51225,N,12641.82677,E,4.097,211.51,110420,,,A*63
$GPRMC,051711.90,A,3724.51225,N,12641.82677,E,4.097,211.51,110420,,,A*63
$GPRMC,051712.10,A,3724.51225,N,12641.82677,E,4.097,211.51,110420,,,A*63
$GPRMC,051712.30,A,3724.51225,N,12641.82677,E,4.097,211.51,110420,,,A*63
$GPRMC,051712.60,A,3724.51225,N,12641.82677,E,4.097,211.51,110420,,,A*63
$GPRMC,051712.90,A,3724.51225,N,12641.82677,E,4.097,211.51,110420,,,A*63
$GPRMC,051713.20,A,3724.51225,N,12641.82677,E,4.097,211.51,110420,,,A*63
$GPRMC,051713.40,A,3724.51225,N,12641.82677,E,4.097,211.51,110420,,,A*63
$GPRMC,051713.60,A,3724.51225,N,12641.82677,E,4.097,211.51,110420,,,A*63
$GPRMC,051713.80,A,3724.51225,N,12641.82677,E,4.097,211.51,110420,,,A*63
$GPRMC,051714.00,A,3724.51225,N,12641.82677,E,4.097,211.51,110420,,,A*63
$GPRMC,051714.20,A,3724.51225,N,12641.82677,E,4.097,211.51,110420,,,A*63
$GPRMC,051714.40,A,3724.51225,N,12641.82677,E,4.097,211.51,110420,,,A*63
$GPRMC,051714.70,A,3724.51225,N,12641.82677,E,4.097,211.51,110420,,,A*63
$GPRMC,051714.90,A,3724.51225,N,12641.82677,E,4.097,211.51,110420,,,A*63
$GPRMC,051715.10,A,3724.51225,N,12641.82677,E,4.097,211.51,110420,,,A*63
$GPRMC,051715.30,A,3724.51225,N,12641.82677,E,4.097,211.51,110420,,,A*63
$GPRMC,051715.50,A,3724.51225,N,12641.82677,E,4.097,211.51,110420,,,A*63
$GPRMC,051715.70,A,3724.51225,N,12641.82677,E,4.097,211.51,110420,,,A*63
$GPRMC,051715.90,A,3724.51225,N,12641.82677,E,4.097,211.51,110420,,,A*63
$GPRMC,051716.10,A,3724.51225,N,12641.82677,E,4.097,211.51,110420,,,A*63
$GPRMC,051716.30,A,3724.51225,N,12641.82677,E,4.097,211.51,110420,,,A*63
$GPRMC,051716.50,A,3724.51225,N,12641.82677,E,4.097,211.51,110420,,,A*63
$GPRMC,051716.70,A,3724.51225,N,12641.82677,E,4.097,211.51,110420,,,A*63
$GPRMC,051716.90,A,3724.51225,N,12641.82677,E,4.097,211.51,110420,,,A*63
$GPRMC,051717.20,A,3724.51225,N,12641.82677,E,4.097,211.51,110420,,,A*63
$GPRMC,051717.40,A,3724.51225,N,12641.82677,E,4.097,211.51,110420,,,A*63
$GPRMC,051717.60,A,3724.51225,N,12641.82677,E,4.097,211.51,110420,,,A*63
$GPRMC,051717.80,A,3724.51225,N,12641.82677,E,4.097,211.51,110420,,,A*63
$GPRMC,051718.00,A,3724.51225,N,12641.82677,E,4.097,211.51,110420,,,A*63
$GPRMC,051718.20,A,3724.51225,N,12641.82677,E,4.097,211.51,110420,,,A*63
$GPRMC,051718.40,A,3724.51225,N,12641.82677,E,4.097,211.51,110420,,,A*63
$GPRMC,051718.60,A,3724.51225,N,12641.82677,E,4.097,211.51,110420,,,A*63
$GPRMC,051718.80,A,3724.51225,N,12641.82677,E,4.097,211.51,110420,,,A*63
$GPRMC,051719.00,A,3724.51225,N,12641.82677,E,4.097,211.51,110420,,,A*63
$GPRMC,051719.30,A,3724.51225,N,12641.82677,E,4.097,211.51,110420,,,A*63
$GPRMC,051719.50,A,3724.51225,N,12641.82677,E,4.097,211.51,110420,,,A*63
$GPRMC,051719.70,A,3724.51225,N,12641.82677,E,4.097,211.51,110420,,,A*63
$GPRMC,051719.90,A,3724.51225,N,12641.82677,E,4.097,211.51,110420,,,A*63
$GPRMC,051720.10,A,3724.51225,N,12641.82677,E,4.097,211.51,110420,,,A*63
$GPRMC,051720.30,A,3724.51225,N,12641.82677,E,4.097,211.51,110420,,,A*63
$GPRMC,051720.50,A,3724.51225,N,12641.82677,E,4.097,211.51,110420,,,A*63
$GPRMC,051720.70,A,3724.51225,N,12641.82677,E,4.097,211.51,110420,,,A*63
$GPRMC,051720.90,A,3724.51225,N,12641.82677,E,4.097,211.51,110420,,,A*63
$GPRMC,051721.10,A,3724.51225,N,12641.82677,E,4.097,211.51,110420,,,A*63
$GPRMC,051721.30,A,3724.51225,N,12641.82677,E,4.097,211.51,110420,,,A*63
$GPRMC,051721.50,A,3724.51225,N,12641.82677,E,4.097,211.51,110420,,,A*63
$GPRMC,051721.70,A,3724.51225,N,12641.82677,E,4.097,211.51,110420,,,A*63
$GPRMC,051721.90,A,3724.51225,N,12641.82677,E,4.097,211.51,110420,,,A*63
$GPRMC,051722.10,A,3724.51225,N,12641.82677,E,4.097,211.51,110420,,,A*63
$GPRMC,051722.30,A,3724.51225,N,12641.82677,E,4.097,211.51,110420,,,A*63
$GPRMC,051722.60,A,3724.51225,N,12641.82677,E,4.097,211.51,110420,,,A*63
$GPRMC,051722.90,A,3724.51225,N,12641.82677,E,4.097,211.51,110420,,,A*63
$GPRMC,051723.10,A,3724.51225,N,12641.82677,E,4.097,211.51,110420,,,A*63
$GPRMC,051723.30,A,3724.51225,N,12641.82677,E,4.097,211.51,110420,,,A*63
$GPRMC,051723.50,A,3724.51225,N,12641.82677,E,4.097,211.51,110420,,,A*63
$GPRMC,051723.70,A,3724.51225,N,12641.82677,E,4.097,211.51,110420,,,A*63
$GPRMC,051723.90,A,3724.51225,N,12641.82677,E,4.097,211.51,110420,,,A*63
$GPRMC,051724.10,A,3724.51225,N,12641.82677,E,4.097,211.51,110420,,,A*63
$GPRMC,051724.30,A,3724.51225,N,12641.82677,E,4.097,211.51,110420,,,A*63
$GPRMC,051724.50,A,3724.51225,N,12641.82677,E,4.097,211.51,110420,,,A*63
$GPRMC,051724.80,A,3724.51225,N,12641.82677,E,4.097,211.51,110420,,,A*63
$GPRMC,051725.00,A,3724.51225,N,12641.82677,E,4.097,211.51,110420,,,A*63
$GPRMC,051725.30,A,3724.51225,N,12641.82677,E,4.097,211.51,110420,,,A*63
$GPRMC,051725.50,A,3724.51225,N,12641.82677,E,4.097,211.51,110420,,,A*63
$GPRMC,051725.70,A,3724.51225,N,12641.82677,E,4.097,211.51,110420,,,A*63
$GPRMC,051725.90,A,3724.51225,N,12641.82677,E,4.097,211.51,110420,,,A*63
$GPRMC,051726.10,A,3724.51225,N,12641.82677,E,4.097,211.51,110420,,,A*63
$GPRMC,051726.30,A,3724.51225,N,12641.82677,E,4.097,211.51,110420,,,A*63
$GPRMC,051726.50,A,3724.51225,N,12641.82677,E,4.097,211.51,110420,,,A*63
$GPRMC,051726.70,A,3724.51225,N,12641.82677,E,4.097,211.51,110420,,,A*63
$GPRMC,051726.90,A,3724.51225,N,12641.82677,E,4.097,211.51,110420,,,A*63
$GPRMC,051727.10,A,3724.51225,N,12641.82677,E,4.097,211.51,110420,,,A*63
$GPRMC,051727.30,A,3724.51225,N,12641.82677,E,4.097,211.51,110420,,,A*63
$GPRMC,051727.50,A,3724.51225,N,12641.82677,E,4.097,211.51,110420,,,A*63
$GPRMC,051727.70,A,3724.51225,N,12641.82677,E,4.097,211.51,110420,,,A*63
$GPRMC,051727.90,A,3724.51225,N,12641.82677,E,4.097,211.51,110420,,,A*63
$GPRMC,051728.10,A,3724.51225,N,12641.82677,E,4.097,211.51,110420,,,A*63
$GPRMC,051728.40,A,3724.51225,N,12641.82677,E,4.097,211.51,110420,,,A*63
$GPRMC,051728.60,A,3724.51225,N,12641.82677,E,4.097,211.51,110420,,,A*63
$GPRMC,051728.80,A,3724.51225,N,12641.82677,E,4.097,211.51,110420,,,A*63
$GPRMC,051729.00,A,3724.51225,N,12641.82677,E,4.097,211.51,110420,,,A*63
$GPRMC,051729.20,A,3724.51225,N,12641.82677,E,4.097,211.51,110420,,,A*63
$GPRMC,051729.40,A,3724.51225,N,12641.82677,E,4.097,211.51,110420,,,A*63
$GPRMC,051729.60,A,3724.51225,N,12641.82677,E,4.097,211.51,110420,,,A*63
$GPRMC,051729.80,A,3724.51225,N,12641.82677,E,4.097,211.51,110420,,,A*63
$GPRMC,051730.00,A,3724.51225,N,12641.82677,E,4.097,211.51,110420,,,A*63
$GPRMC,051730.20,A,3724.51225,N,12641.82677,E,4.097,211.51,110420,,,A*63
$GPRMC,051730.40,A,3724.51225,N,12641.82677,E,4.097,211.51,110420,,,A*63
$GPRMC,051730.60,A,3724.51225,N,12641.82677,E,4.097,211.51,110420,,,A*63
$GPRMC,051730.80,A,3724.51225,N,12641.82677,E,4.097,211.51,110420,,,A*63
$GPRMC,051731.00,A,3724.51225,N,12641.82677,E,4.097,211.51,110420,,,A*63
$GPRMC,051731.40,A,3724.51225,N,12641.82677,E,4.097,211.51,110420,,,A*63
$GPRMC,051731.60,A,3724.51225,N,12641.82677,E,4.097,211.51,110420,,,A*63
$GPRMC,051731.80,A,3724.51225,N,12641.82677,E,4.097,211.51,110420,,,A*63
$GPRMC,051732.00,A,3724.51225,N,12641.82677,E,4.097,211.51,110420,,,A*63
$GPRMC,051732.20,A,3724.51225,N,12641.82677,E,4.097,211.51,110420,,,A*63
$GPRMC,051732.40,A,3724.51225,N,12641.82677,E,4.097,211.51,110420,,,A*63
$GPRMC,051732.60,A,3724.51225,N,12641.82677,E,4.097,211.51,110420,,,A*63
$GPRMC,051732.80,A,3724.51225,N,12641.82677,E,4.097,211.51,110420,,,A*63
$GPRMC,051733.00,A,3724.51225,N,12641.82677,E,4.097,211.51,110420,,,A*63
$GPRMC,051733.30,A,3724.51225,N,12641.82677,E,4.097,211.51,110420,,,A*63
$GPRMC,051733.50,A,3724.51225,N,12641.82677,E,4.097,211.51,110420,,,A*63
$GPRMC,051733.70,A,3724.51225,N,12641.82677,E,4.097,211.51,110420,,,A*63
$GPRMC,051733.90,A,3724.51225,N,12641.82677,E,4.097,211.51,110420,,,A*63
$GPRMC,051734.10,A,3724.51225,N,12641.82677,E,4.097,211.51,110420,,,A*63
$GPRMC,051734.30,A,3724.51225,N,12641.82677,E,4.097,211.51,110420,,,A*63
$GPRMC,051734.50,A,3724.51225,N,12641.82677,E,4.097,211.51,110420,,,A*63
$GPRMC,051734.70,A,3724.51225,N,12641.82677,E,4.097,211.51,110420,,,A*63
$GPRMC,051734.90,A,3724.51225,N,12641.82677,E,4.097,211.51,110420,,,A*63
$GPRMC,051735.10,A,3724.51225,N,12641.82677,E,4.097,211.51,110420,,,A*63
$GPRMC,051735.30,A,3724.51225,N,12641.82677,E,4.097,211.51,110420,,,A*63
$GPRMC,051735.50,A,3724.51225,N,12641.82677,E,4.097,211.51,110420,,,A*63
$GPRMC,051735.70,A,3724.51225,N,12641.82677,E,4.097,211.51,110420,,,A*63
$GPRMC,051735.90,A,3724.51225,N,12641.82677,E,4.097,211.51,110420,,,A*63
$GPRMC,051736.10,A,3724.51225,N,12641.82677,E,4.097,211.51,110420,,,A*63
$GPRMC,051736.30,A,3724.51225,N,12641.82677,E,4.097,211.51,110420,,,A*63
$GPRMC,051736.50,A,3724.51225,N,12641.82677,E,4.097,211.51,110420,,,A*63
$GPRMC,051736.70,A,3724.51225,N,12641.82677,E,4.097,211.51,110420,,,A*63
$GPRMC,051736.90,A,3724.51225,N,12641.82677,E,4.097,211.51,110420,,,A*63
$GPRMC,051737.10,A,3724.51225,N,12641.82677,E,4.097,211.51,110420,,,A*63
$GPRMC,051737.30,A,3724.51225,N,12641.82677,E,4.097,211.51,110420,,,A*63
$GPRMC,051737.50,A,3724.51225,N,12641.82677,E,4.097,211.51,110420,,,A*63
$GPRMC,051737.70,A,3724.51225,N,12641.82677,E,4.097,211.51,110420,,,A*63
$GPRMC,051737.90,A,3724.51225,N,12641.82677,E,4.097,211.51,110420,,,A*63
$GPRMC,051738.10,A,3724.51225,N,12641.82677,E,4.097,211.51,110420,,,A*63
$GPRMC,051738.30,A,3724.51225,N,12641.82677,E,4.097,211.51,110420,,,A*63
$GPRMC,051738.50,A,3724.51225,N,12641.82677,E,4.097,211.51,110420,,,A*63
$GPRMC,051738.70,A,3724.51225,N,12641.82677,E,4.097,211.51,110420,,,A*63
$GPRMC,051738.90,A,3724.51225,N,12641.82677,E,4.097,211.51,110420,,,A*63
$GPRMC,051739.10,A,3724.51225,N,12641.82677,E,4.097,211.51,110420,,,A*63
$GPRMC,051739.30,A,3724.51225,N,12641.82677,E,4.097,211.51,110420,,,A*63
$GPRMC,051739.50,A,3724.51225,N,12641.82677,E,4.097,211.51,110420,,,A*63
$GPRMC,051739.70,A,3724.51225,N,12641.82677,E,4.097,211.51,110420,,,A*63
$GPRMC,051739.90,A,3724.51225,N,12641.82677,E,4.097,211.51,110420,,,A*63
$GPRMC,051740.10,A,3724.51225,N,12641.82677,E,4.097,211.51,110420,,,A*63
$GPRMC,051740.30,A,3724.51225,N,12641.82677,E,4.097,211.51,110420,,,A*63
$GPRMC,051740.50,A,3724.51225,N,12641.82677,E,4.097,211.51,110420,,,A*63
$GPRMC,051740.70,A,3724.51225,N,12641.82677,E,4.097,211.51,110420,,,A*63
$GPRMC,051740.90,A,3724.51225,N,12641.82677,E,4.097,211.51,110420,,,A*63
$GPRMC,051741.10,A,3724.51225,N,12641.82677,E,4.097,211.51,110420,,,A*63
$GPRMC,051741.30,A,3724.51225,N,12641.82677,E,4.097,211.51,110420,,,A*63
$GPRMC,051741.50,A,3724.51225,N,12641.82677,E,4.097,211.51,110420,,,A*63
$GPRMC,051741.70,A,3724.51225,N,12641.82677,E,4.097,211.51,110420,,,A*63
$GPRMC,051741.90,A,3724.51225,N,12641.82677,E,4.097,211.51,110420,,,A*63
$GPRMC,051742.10,A,3724.51225,N,12641.82677,E,4.097,211.51,110420,,,A*63
$GPRMC,051742.30,A,3724.51225,N,12641.82677,E,4.097,211.51,110420,,,A*63
$GPRMC,051742.50,A,3724.51225,N,12641.82677,E,4.097,211.51,110420,,,A*63
$GPRMC,051742.70,A,3724.51225,N,12641.82677,E,4.097,211.51,110420,,,A*63
$GPRMC,051742.90,A,3724.51225,N,12641.82677,E,4.097,211.51,110420,,,A*63
$GPRMC,051743.20,A,3724.51225,N,12641.82677,E,4.097,211.51,110420,,,A*63
$GPRMC,051743.40,A,3724.51225,N,12641.82677,E,4.097,211.51,110420,,,A*63
$GPRMC,051743.60,A,3724.51225,N,12641.82677,E,4.097,211.51,110420,,,A*63
$GPRMC,051743.80,A,3724.51225,N,12641.82677,E,4.097,211.51,110420,,,A*63
$GPRMC,051744.00,A,3724.51225,N,12641.82677,E,4.097,211.51,110420,,,A*63
$GPRMC,051744.20,A,3724.51225,N,12641.82677,E,4.097,211.51,110420,,,A*63
$GPRMC,051744.40,A,3724.51225,N,12641.82677,E,4.097,211.51,110420,,,A*63
$GPRMC,051744.60,A,3724.51225,N,12641.82677,E,4.097,211.51,110420,,,A*63
$GPRMC,051744.90,A,3724.51225,N,12641.82677,E,4.097,211.51,110420,,,A*63
$GPRMC,051745.10,A,3724.51225,N,12641.82677,E,4.097,211.51,110420,,,A*63
$GPRMC,051745.30,A,3724.51225,N,12641.82677,E,4.097,211.51,110420,,,A*63
$GPRMC,051745.50,A,3724.51225,N,12641.82677,E,4.097,211.51,110420,,,A*63
$GPRMC,051745.70,A,3724.51225,N,12641.82677,E,4.097,211.51,110420,,,A*63
$GPRMC,051745.90,A,3724.51225,N,12641.82677,E,4.097,211.51,110420,,,A*63
$GPRMC,051746.10,A,3724.51225,N,12641.82677,E,4.097,211.51,110420,,,A*63
$GPRMC,051746.30,A,3724.51225,N,12641.82677,E,4.097,211.51,110420,,,A*63
$GPRMC,051746.50,A,3724.51225,N,12641.82677,E,4.097,211.51,110420,,,A*63
$GPRMC,051746.70,A,3724.51225,N,12641.82677,E,4.097,211.51,110420,,,A*63
$GPRMC,051746.90,A,3724.51225,N,12641.82677,E,4.097,211.51,110420,,,A*63
$GPRMC,051747.10,A,3724.51225,N,12641.82677,E,4.097,211.51,110420,,,A*63
$GPRMC,051747.40,A,3724.51225,N,12641.82677,E,4.097,211.51,110420,,,A*63
$GPRMC,051747.60,A,3724.51225,N,12641.82677,E,4.097,211.51,110420,,,A*63
$GPRMC,051747.80,A,3724.51225,N,12641.82677,E,4.097,211.51,110420,,,A*63
$GPRMC,051748.00,A,3724.51225,N,12641.82677,E,4.097,211.51,110420,,,A*63
$GPRMC,051748.20,A,3724.51225,N,12641.82677,E,4.097,211.51,110420,,,A*63
$GPRMC,051748.40,A,3724.51225,N,12641.82677,E,4.097,211.51,110420,,,A*63
$GPRMC,051748.60,A,3724.51225,N,12641.82677,E,4.097,211.51,110420,,,A*63
$GPRMC,051748.80,A,3724.51225,N,12641.82677,E,4.097,211.51,110420,,,A*63
$GPRMC,051749.00,A,3724.51225,N,12641.82677,E,4.097,211.51,110420,,,A*63
$GPRMC,051749.20,A,3724.51225,N,12641.82677,E,4.097,211.51,110420,,,A*63
$GPRMC,051749.40,A,3724.51225,N,12641.82677,E,4.097,211.51,110420,,,A*63
$GPRMC,051749.60,A,3724.51225,N,12641.82677,E,4.097,211.51,110420,,,A*63
$GPRMC,051749.80,A,3724.51225,N,12641.82677,E,4.097,211.51,110420,,,A*63
$GPRMC,051750.00,A,3724.51225,N,12641.82677,E,4.097,211.51,110420,,,A*63
$GPRMC,051750.30,A,3724.51225,N,12641.82677,E,4.097,211.51,110420,,,A*63
$GPRMC,051750.50,A,3724.51225,N,12641.82677,E,4.097,211.51,110420,,,A*63
$GPRMC,051750.70,A,3724.51225,N,12641.82677,E,4.097,211.51,110420,,,A*63
$GPRMC,051750.90,A,3724.51225,N,12641.82677,E,4.097,211.51,110420,,,A*63
$GPRMC,051751.10,A,3724.51225,N,12641.82677,E,4.097,211.51,110420,,,A*63
$GPRMC,051751.30,A,3724.51225,N,12641.82677,E,4.097,211.51,110420,,,A*63
$GPRMC,051751.50,A,3724.51225,N,12641.82677,E,4.097,211.51,110420,,,A*63
$GPRMC,051751.70,A,3724.51225,N,12641.82677,E,4.097,211.51,110420,,,A*63
$GPRMC,051751.90,A,3724.51225,N,12641.82677,E,4.097,211.51,110420,,,A*63
$GPRMC,051752.10,A,3724.51225,N,12641.82677,E,4.097,211.51,110420,,,A*63
$GPRMC,051752.40,A,3724.51225,N,12641.82677,E,4.097,211.51,110420,,,A*63
$GPRMC,051752.70,A,3724.51225,N,12641.82677,E,4.097,211.51,110420,,,A*63
$GPRMC,051752.90,A,3724.51225,N,12641.82677,E,4.097,211.51,110420,,,A*63
$GPRMC,051753.20,A,3724.51225,N,12641.82677,E,4.097,211.51,110420,,,A*63
$GPRMC,051753.40,A,3724.51225,N,12641.82677,E,4.097,211.51,110420,,,A*63
$GPRMC,051753.60,A,3724.51225,N,12641.82677,E,4.097,211.51,110420,,,A*63
$GPRMC,051753.80,A,3724.51225,N,12641.82677,E,4.097,211.51,110420,,,A*63
$GPRMC,051754.00,A,3724.51225,N,12641.82677,E,4.097,211.51,110420,,,A*63
$GPRMC,051754.30,A,3724.51225,N,12641.82677,E,4.097,211.51,110420,,,A*63
$GPRMC,051754.50,A,3724.51225,N,12641.82677,E,4.097,211.51,110420,,,A*63
$GPRMC,051754.70,A,3724.51225,N,12641.82677,E,4.097,211.51,110420,,,A*63
$GPRMC,051755.00,A,3724.51225,N,12641.82677,E,4.097,211.51,110420,,,A*63
$GPRMC,051755.30,A,3724.51225,N,12641.82677,E,4.097,211.51,110420,,,A*63
$GPRMC,051755.50,A,3724.51225,N,12641.82677,E,4.097,211.51,110420,,,A*63
$GPRMC,051755.70,A,3724.51225,N,12641.82677,E,4.097,211.51,110420,,,A*63
$GPRMC,051755.90,A,3724.51225,N,12641.82677,E,4.097,211.51,110420,,,A*63
$GPRMC,051756.10,A,3724.51225,N,12641.82677,E,4.097,211.51,110420,,,A*63
$GPRMC,051756.40,A,3724.51225,N,12641.82677,E,4.097,211.51,110420,,,A*63
$GPRMC,051756.60,A,3724.51225,N,12641.82677,E,4.097,211.51,110420,,,A*63
$GPRMC,051756.80,A,3724.51225,N,12641.82677,E,4.097,211.51,110420,,,A*63
$GPRMC,051757.00,A,3724.51225,N,12641.82677,E,4.097,211.51,110420,,,A*63
$GPRMC,051757.30,A,3724.51225,N,12641.82677,E,4.097,211.51,110420,,,A*63
$GPRMC,051757.50,A,3724.51225,N,12641.82677,E,4.097,211.51,110420,,,A*63
$GPRMC,051757.70,A,3724.51225,N,12641.82677,E,4.097,211.51,110420,,,A*63
$GPRMC,051757.90,A,3724.51225,N,12641.82677,E,4.097,211.51,110420,,,A*63
$GPRMC,051758.10,A,3724.51225,N,12641.82677,E,4.097,211.51,110420,,,A*63
$GPRMC,051758.40,A,3724.51225,N,12641.82677,E,4.097,211.51,110420,,,A*63
$GPRMC,051758.60,A,3724.51225,N,12641.82677,E,4.097,211.51,110420,,,A*63
$GPRMC,051758.80,A,3724.51225,N,12641.82677,E,4.097,211.51,110420,,,A*63
$GPRMC,051759.00,A,3724.51225,N,12641.82677,E,4.097,211.51,110420,,,A*63
$GPRMC,051759.30,A,3724.51225,N,12641.82677,E,4.097,211.51,110420,,,A*63
$GPRMC,051759.50,A,3724.51225,N,12641.82677,E,4.097,211.51,110420,,,A*63
$GPRMC,051759.70,A,3724.51225,N,12641.82677,E,4.097,211.51,110420,,,A*63
$GPRMC,051759.90,A,3724.51225,N,12641.82677,E,4.097,211.51,110420,,,A*63
$GPRMC,051800.10,A,3724.51225,N,12641.82677,E,4.097,211.51,110420,,,A*63
$GPRMC,051800.40,A,3724.51225,N,12641.82677,E,4.097,211.51,110420,,,A*63
$GPRMC,051800.60,A,3724.51225,N,12641.82677,E,4.097,211.51,110420,,,A*63
$GPRMC,051800.80,A,3724.51225,N,12641.82677,E,4.097,211.51,110420,,,A*63
$GPRMC,051801.00,A,3724.51225,N,12641.82677,E,4.097,211.51,110420,,,A*63
$GPRMC,051801.30,A,3724.51225,N,12641.82677,E,4.097,211.51,110420,,,A*63
$GPRMC,051801.50,A,3724.51225,N,12641.82677,E,4.097,211.51,110420,,,A*63
$GPRMC,051801.70,A,3724.51225,N,12641.82677,E,4.097,211.51,110420,,,A*63
$GPRMC,051801.90,A,3724.51225,N,12641.82677,E,4.097,211.51,110420,,,A*63
$GPRMC,051802.10,A,3724.51225,N,12641.82677,E,4.097,211.51,110420,,,A*63
$GPRMC,051802.40,A,3724.51225,N,12641.82677,E,4.097,211.51,110420,,,A*63
$GPRMC,051802.60,A,3724.51225,N,12641.82677,E,4.097,211.51,110420,,,A*63
$GPRMC,051802.80,A,3724.51225,N,12641.82677,E,4.097,211.51,110420,,,A*63
$GPRMC,051803.00,A,3724.51225,N,12641.82677,E,4.097,211.51,110420,,,A*63
$GPRMC,051803.20,A,3724.51225,N,12641.82677,E,4.097,211.51,110420,,,A*63
$GPRMC,051803.40,A,3724.51225,N,12641.82677,E,4.097,211.51,110420,,,A*63
$GPRMC,051803.60,A,3724.51225,N,12641.82677,E,4.097,211.51,110420,,,A*63
$GPRMC,051803.80,A,3724.51225,N,12641.82677,E,4.097,211.51,110420,,,A*63
$GPRMC,051804.00,A,3724.51225,N,12641.82677,E,4.097,211.51,110420,,,A*63
$GPRMC,051804.30,A,3724.51225,N,12641.82677,E,4.097,211.51,110420,,,A*63
$GPRMC,051804.50,A,3724.51225,N,12641.82677,E,4.097,211.51,110420,,,A*63
$GPRMC,051804.70,A,3724.51225,N,12641.82677,E,4.097,211.51,110420,,,A*63
$GPRMC,051805.00,A,3724.51225,N,12641.82677,E,4.097,211.51,110420,,,A*63
$GPRMC,051805.30,A,3724.51225,N,12641.82677,E,4.097,211.51,110420,,,A*63
$GPRMC,051805.50,A,3724.51225,N,12641.82677,E,4.097,211.51,110420,,,A*63
$GPRMC,051805.70,A,3724.51225,N,12641.82677,E,4.097,211.51,110420,,,A*63
$GPRMC,051805.90,A,3724.51225,N,12641.82677,E,4.097,211.51,110420,,,A*63
$GPRMC,051806.10,A,3724.51225,N,12641.82677,E,4.097,211.51,110420,,,A*63
$GPRMC,051806.30,A,3724.51225,N,12641.82677,E,4.097,211.51,110420,,,A*63
$GPRMC,051806.50,A,3724.51225,N,12641.82677,E,4.097,211.51,110420,,,A*63
$GPRMC,051806.70,A,3724.51225,N,12641.82677,E,4.097,211.51,110420,,,A*63
$GPRMC,051806.90,A,3724.51225,N,12641.82677,E,4.097,211.51,110420,,,A*63
$GPRMC,051807.20,A,3724.51225,N,12641.82677,E,4.097,211.51,110420,,,A*63
$GPRMC,051807.40,A,3724.51225,N,12641.82677,E,4.097,211.51,110420,,,A*63
$GPRMC,051807.70,A,3724.51225,N,12641.82677,E,4.097,211.51,110420,,,A*63
$GPRMC,051807.90,A,3724.51225,N,12641.82677,E,4.097,211.51,110420,,,A*63
$GPRMC,051808.10,A,3724.51225,N,12641.82677,E,4.097,211.51,110420,,,A*63
$GPRMC,051808.30,A,3724.51225,N,12641.82677,E,4.097,211.51,110420,,,A*63
$GPRMC,051808.50,A,3724.51225,N,12641.82677,E,4.097,211.51,110420,,,A*63
$GPRMC,051808.70,A,3724.51225,N,12641.82677,E,4.097,211.51,110420,,,A*63
$GPRMC,051808.90,A,3724.51225,N,12641.82677,E,4.097,211.51,110420,,,A*63
$GPRMC,051809.10,A,3724.51225,N,12641.82677,E,4.097,211.51,110420,,,A*63
$GPRMC,051809.30,A,3724.51225,N,12641.82677,E,4.097,211.51,110420,,,A*63
$GPRMC,051809.50,A,3724.51225,N,12641.82677,E,4.097,211.51,110420,,,A*63
$GPRMC,051809.70,A,3724.51225,N,12641.82677,E,4.097,211.51,110420,,,A*63
$GPRMC,051809.90,A,3724.51225,N,12641.82677,E,4.097,211.51,110420,,,A*63
$GPRMC,051810.10,A,3724.51225,N,12641.82677,E,4.097,211.51,110420,,,A*63
$GPRMC,051810.40,A,3724.51225,N,12641.82677,E,4.097,211.51,110420,,,A*63
$GPRMC,051810.60,A,3724.51225,N,12641.82677,E,4.097,211.51,110420,,,A*63
$GPRMC,051810.80,A,3724.51225,N,12641.82677,E,4.097,211.51,110420,,,A*63
