$GPRMC,053232.00,A,3724.51225,N,12641.82677,E,4.097,211.51,110420,,,A*63
$GPRMC,053232.20,A,3724.51225,N,12641.82677,E,4.097,211.51,110420,,,A*63
$GPRMC,053232.40,A,3724.51225,N,12641.82677,E,4.097,211.51,110420,,,A*63
$GPRMC,053232.60,A,3724.51225,N,12641.82677,E,4.097,211.51,110420,,,A*63
$GPRMC,053232.80,A,3724.51225,N,12641.82677,E,4.097,211.51,110420,,,A*63
$GPRMC,053233.00,A,3724.51225,N,12641.82677,E,4.097,211.51,110420,,,A*63
$GPRMC,053233.20,A,3724.51225,N,12641.82677,E,4.097,211.51,110420,,,A*63
$GPRMC,053233.40,A,3724.51225,N,12641.82677,E,4.097,211.51,110420,,,A*63
$GPRMC,053233.60,A,3724.51225,N,12641.82677,E,4.097,211.51,110420,,,A*63
$GPRMC,053233.80,A,3724.51225,N,12641.82677,E,4.097,211.51,110420,,,A*63
$GPRMC,053234.00,A,3724.51225,N,12641.82677,E,4.097,211.51,110420,,,A*63
$GPRMC,053234.20,A,3724.51225,N,12641.82677,E,4.097,211.51,110420,,,A*63
$GPRMC,053234.40,A,3724.51225,N,12641.82677,E,4.097,211.51,110420,,,A*63
$GPRMC,053234.60,A,3724.51225,N,12641.82677,E,4.097,211.51,110420,,,A*63
$GPRMC,053234.80,A,3724.51225,N,12641.82677,E,4.097,211.51,110420,,,A*63
$GPRMC,053235.00,A,3724.51225,N,12641.82677,E,4.097,211.51,110420,,,A*63
$GPRMC,053235.20,A,3724.51225,N,12641.82677,E,4.097,211.51,110420,,,A*63
$GPRMC,053235.40,A,3724.51225,N,12641.82677,E,4.097,211.51,110420,,,A*63
$GPRMC,053235.60,A,3724.51225,N,12641.82677,E,4.097,211.51,110420,,,A*63
$GPRMC,053235.80,A,3724.51225,N,12641.82677,E,4.097,211.51,110420,,,A*63
$GPRMC,053236.00,A,3724.51225,N,12641.82677,E,4.097,211.51,110420,,,A*63
$GPRMC,053236.20,A,3724.51225,N,12641.82677,E,4.097,211.51,110420,,,A*63
$GPRMC,053236.40,A,3724.51225,N,12641.82677,E,4.097,211.51,110420,,,A*63
$GPRMC,053236.60,A,3724.51225,N,12641.82677,E,4.097,211.51,110420,,,A*63
$GPRMC,053236.80,A,3724.51225,N,12641.82677,E,4.097,211.51,110420,,,A*63
$GPRMC,053237.00,A,3724.51225,N,12641.82677,E,4.097,211.51,110420,,,A*63
$GPRMC,053237.20,A,3724.51225,N,12641.82677,E,4.097,211.51,110420,,,A*63
$GPRMC,053237.40,A,3724.51225,N,12641.82677,E,4.097,211.51,110420,,,A*63
$GPRMC,053237.60,A,3724.51225,N,12641.82677,E,4.097,211.51,110420,,,A*63
$GPRMC,053237.80,A,3724.51225,N,12641.82677,E,4.097,211.51,110420,,,A*63
$GPRMC,053238.00,A,3724.51225,N,12641.82677,E,4.097,211.51,110420,,,A*63
$GPRMC,053238.20,A,3724.51225,N,12641.82677,E,4.097,211.51,110420,,,A*63
$GPRMC,053238.40,A,3724.51225,N,12641.82677,E,4.097,211.51,110420,,,A*63
$GPRMC,053238.60,A,3724.51225,N,12641.82677,E,4.097,211.51,110420,,,A*63
$GPRMC,053238.80,A,3724.51225,N,12641.82677,E,4.097,211.51,110420,,,A*63
$GPRMC,053239.00,A,3724.51225,N,12641.82677,E,4.097,211.51,110420,,,A*63
$GPRMC,053239.20,A,3724.51225,N,12641.82677,E,4.097,211.51,110420,,,A*63
$GPRMC,053239.40,A,3724.51225,N,12641.82677,E,4.097,211.51,110420,,,A*63
$GPRMC,053239.60,A,3724.51225,N,12641.82677,E,4.097,211.51,110420,,,A*63
$GPRMC,053239.80,A,3724.51225,N,12641.82677,E,4.097,211.51,110420,,,A*63
$GPRMC,053240.00,A,3724.51225,N,12641.82677,E,4.097,211.51,110420,,,A*63
$GPRMC,053240.20,A,3724.51225,N,12641.82677,E,4.097,211.51,110420,,,A*63
$GPRMC,053240.40,A,3724.51225,N,12641.82677,E,4.097,211.51,110420,,,A*63
$GPRMC,053240.60,A,3724.51225,N,12641.82677,E,4.097,211.51,110420,,,A*63
$GPRMC,053240.80,A,3724.51225,N,12641.82677,E,4.097,211.51,110420,,,A*63
$GPRMC,053241.00,A,3724.51225,N,12641.82677,E,4.097,211.51,110420,,,A*63
$GPRMC,053241.20,A,3724.51225,N,12641.82677,E,4.097,211.51,110420,,,A*63
$GPRMC,053241.40,A,3724.51225,N,12641.82677,E,4.097,211.51,110420,,,A*63
$GPRMC,053241.60,A,3724.51225,N,12641.82677,E,4.097,211.51,110420,,,A*63
$GPRMC,053241.80,A,3724.51225,N,12641.82677,E,4.097,211.51,110420,,,A*63
$GPRMC,053242.00,A,3724.51225,N,12641.82677,E,4.097,211.51,110420,,,A*63
$GPRMC,053242.20,A,3724.51225,N,12641.82677,E,4.097,211.51,110420,,,A*63
$GPRMC,053242.40,A,3724.51225,N,12641.82677,E,4.097,211.51,110420,,,A*63
$GPRMC,053242.60,A,3724.51225,N,12641.82677,E,4.097,211.51,110420,,,A*63
$GPRMC,053242.80,A,3724.51225,N,12641.82677,E,4.097,211.51,110420,,,A*63
$GPRMC,053243.00,A,3724.51225,N,12641.82677,E,4.097,211.51,110420,,,A*63
$GPRMC,053243.20,A,3724.51225,N,12641.82677,E,4.097,211.51,110420,,,A*63
$GPRMC,053243.40,A,3724.51225,N,12641.82677,E,4.097,211.51,110420,,,A*63
$GPRMC,053243.60,A,3724.51225,N,12641.82677,E,4.097,211.51,110420,,,A*63
$GPRMC,053243.80,A,3724.51225,N,12641.82677,E,4.097,211.51,110420,,,A*63
$GPRMC,053244.00,A,3724.51225,N,12641.82677,E,4.097,211.51,110420,,,A*63
$GPRMC,053244.20,A,3724.51225,N,12641.82677,E,4.097,211.51,110420,,,A*63
$GPRMC,053244.40,A,3724.51225,N,12641.82677,E,4.097,211.51,110420,,,A*63
$GPRMC,053244.60,A,3724.51225,N,12641.82677,E,4.097,211.51,110420,,,A*63
$GPRMC,053244.80,A,3724.51225,N,12641.82677,E,4.097,211.51,110420,,,A*63
$GPRMC,053245.00,A,3724.51225,N,12641.82677,E,4.097,211.51,110420,,,A*63
$GPRMC,053245.20,A,3724.51225,N,12641.82677,E,4.097,211.51,110420,,,A*63
$GPRMC,053245.40,A,3724.51225,N,12641.82677,E,4.097,211.51,110420,,,A*63
$GPRMC,053245.60,A,3724.51225,N,12641.82677,E,4.097,211.51,110420,,,A*63
$GPRMC,053245.80,A,3724.51225,N,12641.82677,E,4.097,211.51,110420,,,A*63
$GPRMC,053246.00,A,3724.51225,N,12641.82677,E,4.097,211.51,110420,,,A*63
$GPRMC,053246.20,A,3724.51225,N,12641.82677,E,4.097,211.51,110420,,,A*63
$GPRMC,053246.40,A,3724.51225,N,12641.82677,E,4.097,211.51,110420,,,A*63
$GPRMC,053246.60,A,3724.51225,N,12641.82677,E,4.097,211.51,110420,,,A*63
$GPRMC,053246.80,A,3724.51225,N,12641.82677,E,4.097,211.51,110420,,,A*63
$GPRMC,053247.00,A,3724.51225,N,12641.82677,E,4.097,211.51,110420,,,A*63
$GPRMC,053247.20,A,3724.51225,N,12641.82677,E,4.097,211.51,110420,,,A*63
$GPRMC,053247.40,A,3724.51225,N,12641.82677,E,4.097,211.51,110420,,,A*63
$GPRMC,053247.60,A,3724.51225,N,12641.82677,E,4.097,211.51,110420,,,A*63
$GPRMC,053247.80,A,3724.51225,N,12641.82677,E,4.097,211.51,110420,,,A*63
$GPRMC,053248.00,A,3724.51225,N,12641.82677,E,4.097,211.51,110420,,,A*63
$GPRMC,053248.20,A,3724.51225,N,12641.82677,E,4.097,211.51,110420,,,A*63
$GPRMC,053248.40,A,3724.51225,N,12641.82677,E,4.097,211.51,110420,,,A*63
$GPRMC,053248.60,A,3724.51225,N,12641.82677,E,4.097,211.51,110420,,,A*63
$GPRMC,053248.80,A,3724.51225,N,12641.82677,E,4.097,211.51,110420,,,A*63
$GPRMC,053249.00,A,3724.51225,N,12641.82677,E,4.097,211.51,110420,,,A*63
$GPRMC,053249.20,A,3724.51225,N,12641.82677,E,4.097,211.51,110420,,,A*63
$GPRMC,053249.40,A,3724.51225,N,12641.82677,E,4.097,211.51,110420,,,A*63
$GPRMC,053249.60,A,3724.51225,N,12641.82677,E,4.097,211.51,110420,,,A*63
$GPRMC,053249.80,A,3724.51225,N,12641.82677,E,4.097,211.51,110420,,,A*63
$GPRMC,053250.00,A,3724.51225,N,12641.82677,E,4.097,211.51,110420,,,A*63
$GPRMC,053250.20,A,3724.51225,N,12641.82677,E,4.097,211.51,110420,,,A*63
$GPRMC,053250.40,A,3724.51225,N,12641.82677,E,4.097,211.51,110420,,,A*63
$GPRMC,053250.60,A,3724.51225,N,12641.82677,E,4.097,211.51,110420,,,A*63
$GPRMC,053250.80,A,3724.51225,N,12641.82677,E,4.097,211.51,110420,,,A*63
$GPRMC,053251.00,A,3724.51225,N,12641.82677,E,4.097,211.51,110420,,,A*63
$GPRMC,053251.20,A,3724.51225,N,12641.82677,E,4.097,211.51,110420,,,A*63
$GPRMC,053251.40,A,3724.51225,N,12641.82677,E,4.097,211.51,110420,,,A*63
$GPRMC,053251.60,A,3724.51225,N,12641.82677,E,4.097,211.51,110420,,,A*63
$GPRMC,053251.80,A,3724.51225,N,12641.82677,E,4.097,211.51,110420,,,A*63
$GPRMC,053252.00,A,3724.51225,N,12641.82677,E,4.097,211.51,110420,,,A*63
$GPRMC,053252.20,A,3724.51225,N,12641.82677,E,4.097,211.51,110420,,,A*63
$GPRMC,053252.40,A,3724.51225,N,12641.82677,E,4.097,211.51,110420,,,A*63
$GPRMC,053252.60,A,3724.51225,N,12641.82677,E,4.097,211.51,110420,,,A*63
$GPRMC,053252.80,A,3724.51225,N,12641.82677,E,4.097,211.51,110420,,,A*63
$GPRMC,053253.00,A,3724.51225,N,12641.82677,E,4.097,211.51,110420,,,A*63
$GPRMC,053253.20,A,3724.51225,N,12641.82677,E,4.097,211.51,110420,,,A*63
$GPRMC,053253.40,A,3724.51225,N,12641.82677,E,4.097,211.51,110420,,,A*63
$GPRMC,053253.60,A,3724.51225,N,12641.82677,E,4.097,211.51,110420,,,A*63
$GPRMC,053253.80,A,3724.51225,N,12641.82677,E,4.097,211.51,110420,,,A*63
$GPRMC,053254.00,A,3724.51225,N,12641.82677,E,4.097,211.51,110420,,,A*63
$GPRMC,053254.20,A,3724.51225,N,12641.82677,E,4.097,211.51,110420,,,A*63
$GPRMC,053254.40,A,3724.51225,N,12641.82677,E,4.097,211.51,110420,,,A*63
$GPRMC,053254.60,A,3724.51225,N,12641.82677,E,4.097,211.51,110420,,,A*63
$GPRMC,053254.80,A,3724.51225,N,12641.82677,E,4.097,211.51,110420,,,A*63
$GPRMC,053255.00,A,3724.51225,N,12641.82677,E,4.097,211.51,110420,,,A*63
$GPRMC,053255.20,A,3724.51225,N,12641.82677,E,4.097,211.51,110420,,,A*63
$GPRMC,053255.40,A,3724.51225,N,12641.82677,E,4.097,211.51,110420,,,A*63
$GPRMC,053255.60,A,3724.51225,N,12641.82677,E,4.097,211.51,110420,,,A*63
$GPRMC,053255.80,A,3724.51225,N,12641.82677,E,4.097,211.51,110420,,,A*63
$GPRMC,053256.00,A,3724.51225,N,12641.82677,E,4.097,211.51,110420,,,A*63
$GPRMC,053256.20,A,3724.51225,N,12641.82677,E,4.097,211.51,110420,,,A*63
$GPRMC,053256.40,A,3724.51225,N,12641.82677,E,4.097,211.51,110420,,,A*63
$GPRMC,053256.60,A,3724.51225,N,12641.82677,E,4.097,211.51,110420,,,A*63
$GPRMC,053256.80,A,3724.51225,N,12641.82677,E,4.097,211.51,110420,,,A*63
$GPRMC,053257.00,A,3724.51225,N,12641.82677,E,4.097,211.51,110420,,,A*63
$GPRMC,053257.20,A,3724.51225,N,12641.82677,E,4.097,211.51,110420,,,A*63
$GPRMC,053257.40,A,3724.51225,N,12641.82677,E,4.097,211.51,110420,,,A*63
$GPRMC,053257.60,A,3724.51225,N,12641.82677,E,4.097,211.51,110420,,,A*63
$GPRMC,053257.80,A,3724.51225,N,12641.82677,E,4.097,211.51,110420,,,A*63
$GPRMC,053258.00,A,3724.51225,N,12641.82677,E,4.097,211.51,110420,,,A*63
$GPRMC,053258.20,A,3724.51225,N,12641.82677,E,4.097,211.51,110420,,,A*63
$GPRMC,053258.40,A,3724.51225,N,12641.82677,E,4.097,211.51,110420,,,A*63
$GPRMC,053258.60,A,3724.51225,N,12641.82677,E,4.097,211.51,110420,,,A*63
$GPRMC,053258.80,A,3724.51225,N,12641.82677,E,4.097,211.51,110420,,,A*63
$GPRMC,053259.00,A,3724.51225,N,12641.82677,E,4.097,211.51,110420,,,A*63
$GPRMC,053259.20,A,3724.51225,N,12641.82677,E,4.097,211.51,110420,,,A*63
$GPRMC,053259.40,A,3724.51225,N,12641.82677,E,4.097,211.51,110420,,,A*63
$GPRMC,053259.60,A,3724.51225,N,12641.82677,E,4.097,211.51,110420,,,A*63
$GPRMC,053259.80,A,3724.51225,N,12641.82677,E,4.097,211.51,110420,,,A*63
$GPRMC,053300.00,A,3724.51225,N,12641.82677,E,4.097,211.51,110420,,,A*63
$GPRMC,053300.20,A,3724.51225,N,12641.82677,E,4.097,211.51,110420,,,A*63
$GPRMC,053300.40,A,3724.51225,N,12641.82677,E,4.097,211.51,110420,,,A*63
$GPRMC,053300.60,A,3724.51225,N,12641.82677,E,4.097,211.51,110420,,,A*63
$GPRMC,053300.80,A,3724.51225,N,12641.82677,E,4.097,211.51,110420,,,A*63
$GPRMC,053301.00,A,3724.51225,N,12641.82677,E,4.097,211.51,110420,,,A*63
$GPRMC,053301.20,A,3724.51225,N,12641.82677,E,4.097,211.51,110420,,,A*63
$GPRMC,053301.40,A,3724.51225,N,12641.82677,E,4.097,211.51,110420,,,A*63
$GPRMC,053301.60,A,3724.51225,N,12641.82677,E,4.097,211.51,110420,,,A*63
$GPRMC,053301.80,A,3724.51225,N,12641.82677,E,4.097,211.51,110420,,,A*63
$GPRMC,053302.00,A,3724.51225,N,12641.82677,E,4.097,211.51,110420,,,A*63
$GPRMC,053302.20,A,3724.51225,N,12641.82677,E,4.097,211.51,110420,,,A*63
$GPRMC,053302.40,A,3724.51225,N,12641.82677,E,4.097,211.51,110420,,,A*63
$GPRMC,053302.60,A,3724.51225,N,12641.82677,E,4.097,211.51,110420,,,A*63
$GPRMC,053302.80,A,3724.51225,N,12641.82677,E,4.097,211.51,110420,,,A*63
$GPRMC,053303.00,A,3724.51225,N,12641.82677,E,4.097,211.51,110420,,,A*63
$GPRMC,053303.20,A,3724.51225,N,12641.82677,E,4.097,211.51,110420,,,A*63
$GPRMC,053303.40,A,3724.51225,N,12641.82677,E,4.097,211.51,110420,,,A*63
$GPRMC,053303.60,A,3724.51225,N,12641.82677,E,4.097,211.51,110420,,,A*63
$GPRMC,053303.80,A,3724.51225,N,12641.82677,E,4.097,211.51,110420,,,A*63
$GPRMC,053304.00,A,3724.51225,N,12641.82677,E,4.097,211.51,110420,,,A*63
$GPRMC,053304.20,A,3724.51225,N,12641.82677,E,4.097,211.51,110420,,,A*63
$GPRMC,053304.40,A,3724.51225,N,12641.82677,E,4.097,211.51,110420,,,A*63
$GPRMC,053304.60,A,3724.51225,N,12641.82677,E,4.097,211.51,110420,,,A*63
$GPRMC,053304.80,A,3724.51225,N,12641.82677,E,4.097,211.51,110420,,,A*63
$GPRMC,053305.00,A,3724.51225,N,12641.82677,E,4.097,211.51,110420,,,A*63
$GPRMC,053305.20,A,3724.51225,N,12641.82677,E,4.097,211.51,110420,,,A*63
$GPRMC,053305.40,A,3724.51225,N,12641.82677,E,4.097,211.51,110420,,,A*63
$GPRMC,053305.60,A,3724.51225,N,12641.82677,E,4.097,211.51,110420,,,A*63
$GPRMC,053305.80,A,3724.51225,N,12641.82677,E,4.097,211.51,110420,,,A*63
$GPRMC,053306.00,A,3724.51225,N,12641.82677,E,4.097,211.51,110420,,,A*63
$GPRMC,053306.20,A,3724.51225,N,12641.82677,E,4.097,211.51,110420,,,A*63
$GPRMC,053306.40,A,3724.51225,N,12641.82677,E,4.097,211.51,110420,,,A*63
$GPRMC,053306.60,A,3724.51225,N,12641.82677,E,4.097,211.51,110420,,,A*63
$GPRMC,053306.80,A,3724.51225,N,12641.82677,E,4.097,211.51,110420,,,A*63
$GPRMC,053307.00,A,3724.51225,N,12641.82677,E,4.097,211.51,110420,,,A*63
$GPRMC,053307.20,A,3724.51225,N,12641.82677,E,4.097,211.51,110420,,,A*63
$GPRMC,053307.40,A,3724.51225,N,12641.82677,E,4.097,211.51,110420,,,A*63
$GPRMC,053307.60,A,3724.51225,N,12641.82677,E,4.097,211.51,110420,,,A*63
$GPRMC,053307.80,A,3724.51225,N,12641.82677,E,4.097,211.51,110420,,,A*63
$GPRMC,053308.00,A,3724.51225,N,12641.82677,E,4.097,211.51,110420,,,A*63
$GPRMC,053308.20,A,3724.51225,N,12641.82677,E,4.097,211.51,110420,,,A*63
$GPRMC,053308.40,A,3724.51225,N,12641.82677,E,4.097,211.51,110420,,,A*63
$GPRMC,053308.60,A,3724.51225,N,12641.82677,E,4.097,211.51,110420,,,A*63
$GPRMC,053308.80,A,3724.51225,N,12641.82677,E,4.097,211.51,110420,,,A*63
$GPRMC,053309.00,A,3724.51225,N,12641.82677,E,4.097,211.51,110420,,,A*63
$GPRMC,053309.20,A,3724.51225,N,12641.82677,E,4.097,211.51,110420,,,A*63
$GPRMC,053309.40,A,3724.51225,N,12641.82677,E,4.097,211.51,110420,,,A*63
$GPRMC,053309.60,A,3724.51225,N,12641.82677,E,4.097,211.51,110420,,,A*63
$GPRMC,053309.80,A,3724.51225,N,12641.82677,E,4.097,211.51,110420,,,A*63
$GPRMC,053310.00,A,3724.51225,N,12641.82677,E,4.097,211.51,110420,,,A*63
$GPRMC,053310.20,A,3724.51225,N,12641.82677,E,4.097,211.51,110420,,,A*63
$GPRMC,053310.40,A,3724.51225,N,12641.82677,E,4.097,211.51,110420,,,A*63
$GPRMC,053310.60,A,3724.51225,N,12641.82677,E,4.097,211.51,110420,,,A*63
$GPRMC,053310.80,A,3724.51225,N,12641.82677,E,4.097,211.51,110420,,,A*63
$GPRMC,053311.00,A,3724.51225,N,12641.82677,E,4.097,211.51,110420,,,A*63
$GPRMC,053311.20,A,3724.51225,N,12641.82677,E,4.097,211.51,110420,,,A*63
$GPRMC,053311.40,A,3724.51225,N,12641.82677,E,4.097,211.51,110420,,,A*63
$GPRMC,053311.60,A,3724.51225,N,12641.82677,E,4.097,211.51,110420,,,A*63
$GPRMC,053311.80,A,3724.51225,N,12641.82677,E,4.097,211.51,110420,,,A*63
$GPRMC,053312.00,A,3724.51225,N,12641.82677,E,4.097,211.51,110420,,,A*63
$GPRMC,053312.20,A,3724.51225,N,12641.82677,E,4.097,211.51,110420,,,A*63
$GPRMC,053312.40,A,3724.51225,N,12641.82677,E,4.097,211.51,110420,,,A*63
$GPRMC,053312.60,A,3724.51225,N,12641.82677,E,4.097,211.51,110420,,,A*63
$GPRMC,053312.80,A,3724.51225,N,12641.82677,E,4.097,211.51,110420,,,A*63
$GPRMC,053313.00,A,3724.51225,N,12641.82677,E,4.097,211.51,110420,,,A*63
$GPRMC,053313.20,A,3724.51225,N,12641.82677,E,4.097,211.51,110420,,,A*63
$GPRMC,053313.40,A,3724.51225,N,12641.82677,E,4.097,211.51,110420,,,A*63
$GPRMC,053313.60,A,3724.51225,N,12641.82677,E,4.097,211.51,110420,,,A*63
$GPRMC,053313.80,A,3724.51225,N,12641.82677,E,4.097,211.51,110420,,,A*63
$GPRMC,053314.00,A,3724.51225,N,12641.82677,E,4.097,211.51,110420,,,A*63
$GPRMC,053314.20,A,3724.51225,N,12641.82677,E,4.097,211.51,110420,,,A*63
$GPRMC,053314.40,A,3724.51225,N,12641.82677,E,4.097,211.51,110420,,,A*63
$GPRMC,053314.60,A,3724.51225,N,12641.82677,E,4.097,211.51,110420,,,A*63
$GPRMC,053314.80,A,3724.51225,N,12641.82677,E,4.097,211.51,110420,,,A*63
$GPRMC,053315.00,A,3724.51225,N,12641.82677,E,4.097,211.51,110420,,,A*63
$GPRMC,053315.20,A,3724.51225,N,12641.82677,E,4.097,211.51,110420,,,A*63
$GPRMC,053315.40,A,3724.51225,N,12641.82677,E,4.097,211.51,110420,,,A*63
$GPRMC,053315.60,A,3724.51225,N,12641.82677,E,4.097,211.51,110420,,,A*63
$GPRMC,053315.80,A,3724.51225,N,12641.82677,E,4.097,211.51,110420,,,A*63
$GPRMC,053316.00,A,3724.51225,N,12641.82677,E,4.097,211.51,110420,,,A*63
$GPRMC,053316.20,A,3724.51225,N,12641.82677,E,4.097,211.51,110420,,,A*63
$GPRMC,053316.40,A,3724.51225,N,12641.82677,E,4.097,211.51,110420,,,A*63
$GPRMC,053316.60,A,3724.51225,N,12641.82677,E,4.097,211.51,110420,,,A*63
$GPRMC,053316.80,A,3724.51225,N,12641.82677,E,4.097,211.51,110420,,,A*63
$GPRMC,053317.00,A,3724.51225,N,12641.82677,E,4.097,211.51,110420,,,A*63
$GPRMC,053317.20,A,3724.51225,N,12641.82677,E,4.097,211.51,110420,,,A*63
$GPRMC,053317.40,A,3724.51225,N,12641.82677,E,4.097,211.51,110420,,,A*63
$GPRMC,053317.60,A,3724.51225,N,12641.82677,E,4.097,211.51,110420,,,A*63
$GPRMC,053317.80,A,3724.51225,N,12641.82677,E,4.097,211.51,110420,,,A*63
$GPRMC,053318.00,A,3724.51225,N,12641.82677,E,4.097,211.51,110420,,,A*63
$GPRMC,053318.20,A,3724.51225,N,12641.82677,E,4.097,211.51,110420,,,A*63
$GPRMC,053318.40,A,3724.51225,N,12641.82677,E,4.097,211.51,110420,,,A*63
$GPRMC,053318.60,A,3724.51225,N,12641.82677,E,4.097,211.51,110420,,,A*63
$GPRMC,053318.80,A,3724.51225,N,12641.82677,E,4.097,211.51,110420,,,A*63
$GPRMC,053319.00,A,3724.51225,N,12641.82677,E,4.097,211.51,110420,,,A*63
$GPRMC,053319.20,A,3724.51225,N,12641.82677,E,4.097,211.51,110420,,,A*63
$GPRMC,053319.40,A,3724.51225,N,12641.82677,E,4.097,211.51,110420,,,A*63
$GPRMC,053319.60,A,3724.51225,N,12641.82677,E,4.097,211.51,110420,,,A*63
$GPRMC,053319.80,A,3724.51225,N,12641.82677,E,4.097,211.51,110420,,,A*63
$GPRMC,053320.00,A,3724.51225,N,12641.82677,E,4.097,211.51,110420,,,A*63
$GPRMC,053320.20,A,3724.51225,N,12641.82677,E,4.097,211.51,110420,,,A*63
$GPRMC,053320.40,A,3724.51225,N,12641.82677,E,4.097,211.51,110420,,,A*63
$GPRMC,053320.60,A,3724.51225,N,12641.82677,E,4.097,211.51,110420,,,A*63
$GPRMC,053320.80,A,3724.51225,N,12641.82677,E,4.097,211.51,110420,,,A*63
$GPRMC,053321.00,A,3724.51225,N,12641.82677,E,4.097,211.51,110420,,,A*63
$GPRMC,053321.20,A,3724.51225,N,12641.82677,E,4.097,211.51,110420,,,A*63
$GPRMC,053321.40,A,3724.51225,N,12641.82677,E,4.097,211.51,110420,,,A*63
$GPRMC,053321.60,A,3724.51225,N,12641.82677,E,4.097,211.51,110420,,,A*63
$GPRMC,053321.80,A,3724.51225,N,12641.82677,E,4.097,211.51,110420,,,A*63
$GPRMC,053322.00,A,3724.51225,N,12641.82677,E,4.097,211.51,110420,,,A*63
$GPRMC,053322.20,A,3724.51225,N,12641.82677,E,4.097,211.51,110420,,,A*63
$GPRMC,053322.40,A,3724.51225,N,12641.82677,E,4.097,211.51,110420,,,A*63
$GPRMC,053322.60,A,3724.51225,N,12641.82677,E,4.097,211.51,110420,,,A*63
$GPRMC,053322.80,A,3724.51225,N,12641.82677,E,4.097,211.51,110420,,,A*63
$GPRMC,053323.00,A,3724.51225,N,12641.82677,E,4.097,211.51,110420,,,A*63
$GPRMC,053323.20,A,3724.51225,N,12641.82677,E,4.097,211.51,110420,,,A*63
$GPRMC,053323.40,A,3724.51225,N,12641.82677,E,4.097,211.51,110420,,,A*63
$GPRMC,053323.60,A,3724.51225,N,12641.82677,E,4.097,211.51,110420,,,A*63
$GPRMC,053323.80,A,3724.51225,N,12641.82677,E,4.097,211.51,110420,,,A*63
$GPRMC,053324.00,A,3724.51225,N,12641.82677,E,4.097,211.51,110420,,,A*63
$GPRMC,053324.20,A,3724.51225,N,12641.82677,E,4.097,211.51,110420,,,A*63
$GPRMC,053324.40,A,3724.51225,N,12641.82677,E,4.097,211.51,110420,,,A*63
$GPRMC,053324.60,A,3724.51225,N,12641.82677,E,4.097,211.51,110420,,,A*63
$GPRMC,053324.80,A,3724.51225,N,12641.82677,E,4.097,211.51,110420,,,A*63
$GPRMC,053325.00,A,3724.51225,N,12641.82677,E,4.097,211.51,110420,,,A*63
$GPRMC,053325.20,A,3724.51225,N,12641.82677,E,4.097,211.51,110420,,,A*63
$GPRMC,053325.40,A,3724.51225,N,12641.82677,E,4.097,211.51,110420,,,A*63
$GPRMC,053325.60,A,3724.51225,N,12641.82677,E,4.097,211.51,110420,,,A*63
$GPRMC,053325.80,A,3724.51225,N,12641.82677,E,4.097,211.51,110420,,,A*63
$GPRMC,053326.00,A,3724.51225,N,12641.82677,E,4.097,211.51,110420,,,A*63
$GPRMC,053326.20,A,3724.51225,N,12641.82677,E,4.097,211.51,110420,,,A*63
$GPRMC,053326.40,A,3724.51225,N,12641.82677,E,4.097,211.51,110420,,,A*63
$GPRMC,053326.60,A,3724.51225,N,12641.82677,E,4.097,211.51,110420,,,A*63
$GPRMC,053326.80,A,3724.51225,N,12641.82677,E,4.097,211.51,110420,,,A*63
$GPRMC,053327.00,A,3724.51225,N,12641.82677,E,4.097,211.51,110420,,,A*63
$GPRMC,053327.20,A,3724.51225,N,12641.82677,E,4.097,211.51,110420,,,A*63
$GPRMC,053327.40,A,3724.51225,N,12641.82677,E,4.097,211.51,110420,,,A*63
$GPRMC,053327.60,A,3724.51225,N,12641.82677,E,4.097,211.51,110420,,,A*63
$GPRMC,053327.80,A,3724.51225,N,12641.82677,E,4.097,211.51,110420,,,A*63
$GPRMC,053328.00,A,3724.51225,N,12641.82677,E,4.097,211.51,110420,,,A*63
$GPRMC,053328.20,A,3724.51225,N,12641.82677,E,4.097,211.51,110420,,,A*63
$GPRMC,053328.40,A,3724.51225,N,12641.82677,E,4.097,211.51,110420,,,A*63
$GPRMC,053328.60,A,3724.51225,N,12641.82677,E,4.097,211.51,110420,,,A*63
$GPRMC,053328.80,A,3724.51225,N,12641.82677,E,4.097,211.51,110420,,,A*63
$GPRMC,053329.00,A,3724.51225,N,12641.82677,E,4.097,211.51,110420,,,A*63
$GPRMC,053329.20,A,3724.51225,N,12641.82677,E,4.097,211.51,110420,,,A*63
$GPRMC,053329.40,A,3724.51225,N,12641.82677,E,4.097,211.51,110420,,,A*63
$GPRMC,053329.60,A,3724.51225,N,12641.82677,E,4.097,211.51,110420,,,A*63
$GPRMC,053329.80,A,3724.51225,N,12641.82677,E,4.097,211.51,110420,,,A*63
$GPRMC,053330.00,A,3724.51225,N,12641.82677,E,4.097,211.51,110420,,,A*63
$GPRMC,053330.20,A,3724.51225,N,12641.82677,E,4.097,211.51,110420,,,A*63
$GPRMC,053330.40,A,3724.51225,N,12641.82677,E,4.097,211.51,110420,,,A*63
$GPRMC,053330.60,A,3724.51225,N,12641.82677,E,4.097,211.51,110420,,,A*63
$GPRMC,053330.80,A,3724.51225,N,12641.82677,E,4.097,211.51,110420,,,A*63
$GPRMC,053331.00,A,3724.51225,N,12641.82677,E,4.097,211.51,110420,,,A*63
$GPRMC,053331.20,A,3724.51225,N,12641.82677,E,4.097,211.51,110420,,,A*63
$GPRMC,053331.40,A,3724.51225,N,12641.82677,E,4.097,211.51,110420,,,A*63
$GPRMC,053331.60,A,3724.51225,N,12641.82677,E,4.097,211.51,110420,,,A*63
$GPRMC,053331.80,A,3724.51225,N,12641.82677,E,4.097,211.51,110420,,,A*63
$GPRMC,053332.00,A,3724.51225,N,12641.82677,E,4.097,211.51,110420,,,A*63
$GPRMC,053332.20,A,3724.51225,N,12641.82677,E,4.097,211.51,110420,,,A*63
$GPRMC,053332.40,A,3724.51225,N,12641.82677,E,4.097,211.51,110420,,,A*63
$GPRMC,053332.60,A,3724.51225,N,12641.82677,E,4.097,211.51,110420,,,A*63
$GPRMC,053332.80,A,3724.51225,N,12641.82677,E,4.097,211.51,110420,,,A*63
$GPRMC,053333.00,A,3724.51225,N,12641.82677,E,4.097,211.51,110420,,,A*63
$GPRMC,053333.20,A,3724.51225,N,12641.82677,E,4.097,211.51,110420,,,A*63
$GPRMC,053333.40,A,3724.51225,N,12641.82677,E,4.097,211.51,110420,,,A*63
$GPRMC,053333.60,A,3724.51225,N,12641.82677,E,4.097,211.51,110420,,,A*63
$GPRMC,053333.80,A,3724.51225,N,12641.82677,E,4.097,211.51,110420,,,A*63
$GPRMC,053334.00,A,3724.51225,N,12641.82677,E,4.097,211.51,110420,,,A*63
$GPRMC,053334.20,A,3724.51225,N,12641.82677,E,4.097,211.51,110420,,,A*63
$GPRMC,053334.40,A,3724.51225,N,12641.82677,E,4.097,211.51,110420,,,A*63
$GPRMC,053334.60,A,3724.51225,N,12641.82677,E,4.097,211.51,110420,,,A*63
$GPRMC,053334.80,A,3724.51225,N,12641.82677,E,4.097,211.51,110420,,,A*63
$GPRMC,053335.00,A,3724.51225,N,12641.82677,E,4.097,211.51,110420,,,A*63
$GPRMC,053335.20,A,3724.51225,N,12641.82677,E,4.097,211.51,110420,,,A*63
$GPRMC,053335.40,A,3724.51225,N,12641.82677,E,4.097,211.51,110420,,,A*63
$GPRMC,053335.60,A,3724.51225,N,12641.82677,E,4.097,211.51,110420,,,A*63
$GPRMC,053335.80,A,3724.51225,N,12641.82677,E,4.097,211.51,110420,,,A*63
$GPRMC,053336.00,A,3724.51225,N,12641.82677,E,4.097,211.51,110420,,,A*63
$GPRMC,053336.20,A,3724.51225,N,12641.82677,E,4.097,211.51,110420,,,A*63
$GPRMC,053336.40,A,3724.51225,N,12641.82677,E,4.097,211.51,110420,,,A*63
$GPRMC,053336.60,A,3724.51225,N,12641.82677,E,4.097,211.51,110420,,,A*63
$GPRMC,053336.80,A,3724.51225,N,12641.82677,E,4.097,211.51,110420,,,A*63
$GPRMC,053337.00,A,3724.51225,N,12641.82677,E,4.097,211.51,110420,,,A*63
$GPRMC,053337.20,A,3724.51225,N,12641.82677,E,4.097,211.51,110420,,,A*63
$GPRMC,053337.40,A,3724.51225,N,12641.82677,E,4.097,211.51,110420,,,A*63
$GPRMC,053337.60,A,3724.51225,N,12641.82677,E,4.097,211.51,110420,,,A*63
$GPRMC,053337.80,A,3724.51225,N,12641.82677,E,4.097,211.51,110420,,,A*63
$GPRMC,053338.00,A,3724.51225,N,12641.82677,E,4.097,211.51,110420,,,A*63
$GPRMC,053338.20,A,3724.51225,N,12641.82677,E,4.097,211.51,110420,,,A*63
$GPRMC,053338.40,A,3724.51225,N,12641.82677,E,4.097,211.51,110420,,,A*63
$GPRMC,053338.60,A,3724.51225,N,12641.82677,E,4.097,211.51,110420,,,A*63
$GPRMC,053338.80,A,3724.51225,N,12641.82677,E,4.097,211.51,110420,,,A*63
$GPRMC,053339.00,A,3724.51225,N,12641.82677,E,4.097,211.51,110420,,,A*63
$GPRMC,053339.20,A,3724.51225,N,12641.82677,E,4.097,211.51,110420,,,A*63
$GPRMC,053339.40,A,3724.51225,N,12641.82677,E,4.097,211.51,110420,,,A*63
$GPRMC,053339.60,A,3724.51225,N,12641.82677,E,4.097,211.51,110420,,,A*63
$GPRMC,053339.80,A,3724.51225,N,12641.82677,E,4.097,211.51,110420,,,A*63
$GPRMC,053340.00,A,3724.51225,N,12641.82677,E,4.097,211.51,110420,,,A*63
$GPRMC,053340.20,A,3724.51225,N,12641.82677,E,4.097,211.51,110420,,,A*63
$GPRMC,053340.40,A,3724.51225,N,12641.82677,E,4.097,211.51,110420,,,A*63
$GPRMC,053340.60,A,3724.51225,N,12641.82677,E,4.097,211.51,110420,,,A*63
$GPRMC,053340.80,A,3724.51225,N,12641.82677,E,4.097,211.51,110420,,,A*63
$GPRMC,053341.00,A,3724.51225,N,12641.82677,E,4.097,211.51,110420,,,A*63
$GPRMC,053341.20,A,3724.51225,N,12641.82677,E,4.097,211.51,110420,,,A*63
$GPRMC,053341.40,A,3724.51225,N,12641.82677,E,4.097,211.51,110420,,,A*63
$GPRMC,053341.60,A,3724.51225,N,12641.82677,E,4.097,211.51,110420,,,A*63
$GPRMC,053341.80,A,3724.51225,N,12641.82677,E,4.097,211.51,110420,,,A*63
$GPRMC,053342.00,A,3724.51225,N,12641.82677,E,4.097,211.51,110420,,,A*63
$GPRMC,053342.20,A,3724.51225,N,12641.82677,E,4.097,211.51,110420,,,A*63
$GPRMC,053342.40,A,3724.51225,N,12641.82677,E,4.097,211.51,110420,,,A*63
$GPRMC,053342.60,A,3724.51225,N,12641.82677,E,4.097,211.51,110420,,,A*63
$GPRMC,053342.80,A,3724.51225,N,12641.82677,E,4.097,211.51,110420,,,A*63
$GPRMC,053343.00,A,3724.51225,N,12641.82677,E,4.097,211.51,110420,,,A*63
$GPRMC,053343.20,A,3724.51225,N,12641.82677,E,4.097,211.51,110420,,,A*63
$GPRMC,053343.40,A,3724.51225,N,12641.82677,E,4.097,211.51,110420,,,A*63
$GPRMC,053343.60,A,3724.51225,N,12641.82677,E,4.097,211.51,110420,,,A*63
$GPRMC,053343.80,A,3724.51225,N,12641.82677,E,4.097,211.51,110420,,,A*63
$GPRMC,053344.00,A,3724.51225,N,12641.82677,E,4.097,211.51,110420,,,A*63
$GPRMC,053344.20,A,3724.51225,N,12641.82677,E,4.097,211.51,110420,,,A*63
$GPRMC,053344.40,A,3724.51225,N,12641.82677,E,4.097,211.51,110420,,,A*63
$GPRMC,053344.60,A,3724.51225,N,12641.82677,E,4.097,211.51,110420,,,A*63
$GPRMC,053344.80,A,3724.51225,N,12641.82677,E,4.097,211.51,110420,,,A*63
$GPRMC,053345.00,A,3724.51225,N,12641.82677,E,4.097,211.51,110420,,,A*63
$GPRMC,053345.20,A,3724.51225,N,12641.82677,E,4.097,211.51,110420,,,A*63
$GPRMC,053345.40,A,3724.51225,N,12641.82677,E,4.097,211.51,110420,,,A*63
$GPRMC,053345.60,A,3724.51225,N,12641.82677,E,4.097,211.51,110420,,,A*63
$GPRMC,053345.80,A,3724.51225,N,12641.82677,E,4.097,211.51,110420,,,A*63
$GPRMC,053346.00,A,3724.51225,N,12641.82677,E,4.097,211.51,110420,,,A*63
$GPRMC,053346.20,A,3724.51225,N,12641.82677,E,4.097,211.51,110420,,,A*63
$GPRMC,053346.40,A,3724.51225,N,12641.82677,E,4.097,211.51,110420,,,A*63
$GPRMC,053346.60,A,3724.51225,N,12641.82677,E,4.097,211.51,110420,,,A*63
$GPRMC,053346.80,A,3724.51225,N,12641.82677,E,4.097,211.51,110420,,,A*63
$GPRMC,053347.00,A,3724.51225,N,12641.82677,E,4.097,211.51,110420,,,A*63
$GPRMC,053347.20,A,3724.51225,N,12641.82677,E,4.097,211.51,110420,,,A*63
$GPRMC,053347.40,A,3724.51225,N,12641.82677,E,4.097,211.51,110420,,,A*63
$GPRMC,053347.60,A,3724.51225,N,12641.82677,E,4.097,211.51,110420,,,A*63
$GPRMC,053347.80,A,3724.51225,N,12641.82677,E,4.097,211.51,110420,,,A*63
$GPRMC,053348.00,A,3724.51225,N,12641.82677,E,4.097,211.51,110420,,,A*63
$GPRMC,053348.20,A,3724.51225,N,12641.82677,E,4.097,211.51,110420,,,A*63
$GPRMC,053348.40,A,3724.51225,N,12641.82677,E,4.097,211.51,110420,,,A*63
$GPRMC,053348.60,A,3724.51225,N,12641.82677,E,4.097,211.51,110420,,,A*63
$GPRMC,053348.80,A,3724.51225,N,12641.82677,E,4.097,211.51,110420,,,A*63
$GPRMC,053349.00,A,3724.51225,N,12641.82677,E,4.097,211.51,110420,,,A*63
$GPRMC,053349.20,A,3724.51225,N,12641.82677,E,4.097,211.51,110420,,,A*63
$GPRMC,053349.40,A,3724.51225,N,12641.82677,E,4.097,211.51,110420,,,A*63
$GPRMC,053349.60,A,3724.51225,N,12641.82677,E,4.097,211.51,110420,,,A*63
$GPRMC,053349.80,A,3724.51225,N,12641.82677,E,4.097,211.51,110420,,,A*63
$GPRMC,053350.00,A,3724.51225,N,12641.82677,E,4.097,211.51,110420,,,A*63
$GPRMC,053350.20,A,3724.51225,N,12641.82677,E,4.097,211.51,110420,,,A*63
$GPRMC,053350.40,A,3724.51225,N,12641.82677,E,4.097,211.51,110420,,,A*63
$GPRMC,053350.60,A,3724.51225,N,12641.82677,E,4.097,211.51,110420,,,A*63
$GPRMC,053350.80,A,3724.51225,N,12641.82677,E,4.097,211.51,110420,,,A*63
$GPRMC,053351.00,A,3724.51225,N,12641.82677,E,4.097,211.51,110420,,,A*63
$GPRMC,053351.20,A,3724.51225,N,12641.82677,E,4.097,211.51,110420,,,A*63
$GPRMC,053351.40,A,3724.51225,N,12641.82677,E,4.097,211.51,110420,,,A*63
$GPRMC,053351.60,A,3724.51225,N,12641.82677,E,4.097,211.51,110420,,,A*63
$GPRMC,053351.80,A,3724.51225,N,12641.82677,E,4.097,211.51,110420,,,A*63
$GPRMC,053352.00,A,3724.51225,N,12641.82677,E,4.097,211.51,110420,,,A*63
$GPRMC,053352.20,A,3724.51225,N,12641.82677,E,4.097,211.51,110420,,,A*63
$GPRMC,053352.40,A,3724.51225,N,12641.82677,E,4.097,211.51,110420,,,A*63
$GPRMC,053352.60,A,3724.51225,N,12641.82677,E,4.097,211.51,110420,,,A*63
$GPRMC,053352.80,A,3724.51225,N,12641.82677,E,4.097,211.51,110420,,,A*63
$GPRMC,053353.00,A,3724.51225,N,12641.82677,E,4.097,211.51,110420,,,A*63
$GPRMC,053353.20,A,3724.51225,N,12641.82677,E,4.097,211.51,110420,,,A*63
$GPRMC,053353.40,A,3724.51225,N,12641.82677,E,4.097,211.51,110420,,,A*63
$GPRMC,053353.60,A,3724.51225,N,12641.82677,E,4.097,211.51,110420,,,A*63
$GPRMC,053353.80,A,3724.51225,N,12641.82677,E,4.097,211.51,110420,,,A*63
$GPRMC,053354.00,A,3724.51225,N,12641.82677,E,4.097,211.51,110420,,,A*63
$GPRMC,053354.20,A,3724.51225,N,12641.82677,E,4.097,211.51,110420,,,A*63
$GPRMC,053354.40,A,3724.51225,N,12641.82677,E,4.097,211.51,110420,,,A*63
$GPRMC,053354.60,A,3724.51225,N,12641.82677,E,4.097,211.51,110420,,,A*63
$GPRMC,053354.80,A,3724.51225,N,12641.82677,E,4.097,211.51,110420,,,A*63
$GPRMC,053355.00,A,3724.51225,N,12641.82677,E,4.097,211.51,110420,,,A*63
$GPRMC,053355.20,A,3724.51225,N,12641.82677,E,4.097,211.51,110420,,,A*63
$GPRMC,053355.40,A,3724.51225,N,12641.82677,E,4.097,211.51,110420,,,A*63
$GPRMC,053355.60,A,3724.51225,N,12641.82677,E,4.097,211.51,110420,,,A*63
$GPRMC,053355.80,A,3724.51225,N,12641.82677,E,4.097,211.51,110420,,,A*63
$GPRMC,053356.00,A,3724.51225,N,12641.82677,E,4.097,211.51,110420,,,A*63
$GPRMC,053356.20,A,3724.51225,N,12641.82677,E,4.097,211.51,110420,,,A*63
$GPRMC,053356.40,A,3724.51225,N,12641.82677,E,4.097,211.51,110420,,,A*63
$GPRMC,053356.60,A,3724.51225,N,12641.82677,E,4.097,211.51,110420,,,A*63
$GPRMC,053356.80,A,3724.51225,N,12641.82677,E,4.097,211.51,110420,,,A*63
$GPRMC,053357.00,A,3724.51225,N,12641.82677,E,4.097,211.51,110420,,,A*63
$GPRMC,053357.20,A,3724.51225,N,12641.82677,E,4.097,211.51,110420,,,A*63
$GPRMC,053357.40,A,3724.51225,N,12641.82677,E,4.097,211.51,110420,,,A*63
$GPRMC,053357.60,A,3724.51225,N,12641.82677,E,4.097,211.51,110420,,,A*63
$GPRMC,053357.80,A,3724.51225,N,12641.82677,E,4.097,211.51,110420,,,A*63
$GPRMC,053358.00,A,3724.51225,N,12641.82677,E,4.097,211.51,110420,,,A*63
$GPRMC,053358.20,A,3724.51225,N,12641.82677,E,4.097,211.51,110420,,,A*63
$GPRMC,053358.40,A,3724.51225,N,12641.82677,E,4.097,211.51,110420,,,A*63
$GPRMC,053358.60,A,3724.51225,N,12641.82677,E,4.097,211.51,110420,,,A*63
$GPRMC,053358.80,A,3724.51225,N,12641.82677,E,4.097,211.51,110420,,,A*63
$GPRMC,053359.00,A,3724.51225,N,12641.82677,E,4.097,211.51,110420,,,A*63
$GPRMC,053359.20,A,3724.51225,N,12641.82677,E,4.097,211.51,110420,,,A*63
$GPRMC,053359.40,A,3724.51225,N,12641.82677,E,4.097,211.51,110420,,,A*63
$GPRMC,053359.60,A,3724.51225,N,12641.82677,E,4.097,211.51,110420,,,A*63
$GPRMC,053359.80,A,3724.51225,N,12641.82677,E,4.097,211.51,110420,,,A*63
$GPRMC,053400.00,A,3724.51225,N,12641.82677,E,4.097,211.51,110420,,,A*63
$GPRMC,053400.20,A,3724.51225,N,12641.82677,E,4.097,211.51,110420,,,A*63
$GPRMC,053400.40,A,3724.51225,N,12641.82677,E,4.097,211.51,110420,,,A*63
$GPRMC,053400.60,A,3724.51225,N,12641.82677,E,4.097,211.51,110420,,,A*63
$GPRMC,053400.80,A,3724.51225,N,12641.82677,E,4.097,211.51,110420,,,A*63
$GPRMC,053401.00,A,3724.51225,N,12641.82677,E,4.097,211.51,110420,,,A*63
$GPRMC,053401.20,A,3724.51225,N,12641.82677,E,4.097,211.51,110420,,,A*63
$GPRMC,053401.40,A,3724.51225,N,12641.82677,E,4.097,211.51,110420,,,A*63
$GPRMC,053401.60,A,3724.51225,N,12641.82677,E,4.097,211.51,110420,,,A*63
$GPRMC,053401.80,A,3724.51225,N,12641.82677,E,4.097,211.51,110420,,,A*63
$GPRMC,053402.00,A,3724.51225,N,12641.82677,E,4.097,211.51,110420,,,A*63
$GPRMC,053402.20,A,3724.51225,N,12641.82677,E,4.097,211.51,110420,,,A*63
$GPRMC,053402.40,A,3724.51225,N,12641.82677,E,4.097,211.51,110420,,,A*63
$GPRMC,053402.60,A,3724.51225,N,12641.82677,E,4.097,211.51,110420,,,A*63
$GPRMC,053402.80,A,3724.51225,N,12641.82677,E,4.097,211.51,110420,,,A*63
$GPRMC,053403.00,A,3724.51225,N,12641.82677,E,4.097,211.51,110420,,,A*63
$GPRMC,053403.20,A,3724.51225,N,12641.82677,E,4.097,211.51,110420,,,A*63
$GPRMC,053403.40,A,3724.51225,N,12641.82677,E,4.097,211.51,110420,,,A*63
$GPRMC,053403.60,A,3724.51225,N,12641.82677,E,4.097,211.51,110420,,,A*63
$GPRMC,053403.80,A,3724.51225,N,12641.82677,E,4.097,211.51,110420,,,A*63
$GPRMC,053404.00,A,3724.51225,N,12641.82677,E,4.097,211.51,110420,,,A*63
$GPRMC,053404.20,A,3724.51225,N,12641.82677,E,4.097,211.51,110420,,,A*63
$GPRMC,053404.40,A,3724.51225,N,12641.82677,E,4.097,211.51,110420,,,A*63
$GPRMC,053404.60,A,3724.51225,N,12641.82677,E,4.097,211.51,110420,,,A*63
$GPRMC,053404.80,A,3724.51225,N,12641.82677,E,4.097,211.51,110420,,,A*63
$GPRMC,053405.00,A,3724.51225,N,12641.82677,E,4.097,211.51,110420,,,A*63
$GPRMC,053405.20,A,3724.51225,N,12641.82677,E,4.097,211.51,110420,,,A*63
$GPRMC,053405.40,A,3724.51225,N,12641.82677,E,4.097,211.51,110420,,,A*63
$GPRMC,053405.60,A,3724.51225,N,12641.82677,E,4.097,211.51,110420,,,A*63
$GPRMC,053405.80,A,3724.51225,N,12641.82677,E,4.097,211.51,110420,,,A*63
$GPRMC,053406.00,A,3724.51225,N,12641.82677,E,4.097,211.51,110420,,,A*63
$GPRMC,053406.20,A,3724.51225,N,12641.82677,E,4.097,211.51,110420,,,A*63
$GPRMC,053406.40,A,3724.51225,N,12641.82677,E,4.097,211.51,110420,,,A*63
$GPRMC,053406.60,A,3724.51225,N,12641.82677,E,4.097,211.51,110420,,,A*63
$GPRMC,053406.80,A,3724.51225,N,12641.82677,E,4.097,211.51,110420,,,A*63
$GPRMC,053407.00,A,3724.51225,N,12641.82677,E,4.097,211.51,110420,,,A*63
$GPRMC,053407.20,A,3724.51225,N,12641.82677,E,4.097,211.51,110420,,,A*63
$GPRMC,053407.40,A,3724.51225,N,12641.82677,E,4.097,211.51,110420,,,A*63
$GPRMC,053407.60,A,3724.51225,N,12641.82677,E,4.097,211.51,110420,,,A*63
$GPRMC,053407.80,A,3724.51225,N,12641.82677,E,4.097,211.51,110420,,,A*63
$GPRMC,053408.00,A,3724.51225,N,12641.82677,E,4.097,211.51,110420,,,A*63
$GPRMC,053408.20,A,3724.51225,N,12641.82677,E,4.097,211.51,110420,,,A*63
$GPRMC,053408.40,A,3724.51225,N,12641.82677,E,4.097,211.51,110420,,,A*63
$GPRMC,053408.60,A,3724.51225,N,12641.82677,E,4.097,211.51,110420,,,A*63
$GPRMC,053408.80,A,3724.51225,N,12641.82677,E,4.097,211.51,110420,,,A*63
$GPRMC,053409.00,A,3724.51225,N,12641.82677,E,4.097,211.51,110420,,,A*63
$GPRMC,053409.20,A,3724.51225,N,12641.82677,E,4.097,211.51,110420,,,A*63
$GPRMC,053409.40,A,3724.51225,N,12641.82677,E,4.097,211.51,110420,,,A*63
$GPRMC,053409.60,A,3724.51225,N,12641.82677,E,4.097,211.51,110420,,,A*63
$GPRMC,053409.80,A,3724.51225,N,12641.82677,E,4.097,211.51,110420,,,A*63
$GPRMC,053410.00,A,3724.51225,N,12641.82677,E,4.097,211.51,110420,,,A*63
$GPRMC,053410.20,A,3724.51225,N,12641.82677,E,4.097,211.51,110420,,,A*63
$GPRMC,053410.40,A,3724.51225,N,12641.82677,E,4.097,211.51,110420,,,A*63
$GPRMC,053410.60,A,3724.51225,N,12641.82677,E,4.097,211.51,110420,,,A*63
$GPRMC,053410.80,A,3724.51225,N,12641.82677,E,4.097,211.51,110420,,,A*63
$GPRMC,053411.00,A,3724.51225,N,12641.82677,E,4.097,211.51,110420,,,A*63
$GPRMC,053411.20,A,3724.51225,N,12641.82677,E,4.097,211.51,110420,,,A*63
$GPRMC,053411.40,A,3724.51225,N,12641.82677,E,4.097,211.51,110420,,,A*63
$GPRMC,053411.60,A,3724.51225,N,12641.82677,E,4.097,211.51,110420,,,A*63
$GPRMC,053411.80,A,3724.51225,N,12641.82677,E,4.097,211.51,110420,,,A*63
$GPRMC,053412.00,A,3724.51225,N,12641.82677,E,4.097,211.51,110420,,,A*63
$GPRMC,053412.20,A,3724.51225,N,12641.82677,E,4.097,211.51,110420,,,A*63
$GPRMC,053412.40,A,3724.51225,N,12641.82677,E,4.097,211.51,110420,,,A*63
$GPRMC,053412.60,A,3724.51225,N,12641.82677,E,4.097,211.51,110420,,,A*63
$GPRMC,053412.80,A,3724.51225,N,12641.82677,E,4.097,211.51,110420,,,A*63
$GPRMC,053413.00,A,3724.51225,N,12641.82677,E,4.097,211.51,110420,,,A*63
$GPRMC,053413.20,A,3724.51225,N,12641.82677,E,4.097,211.51,110420,,,A*63
$GPRMC,053413.40,A,3724.51225,N,12641.82677,E,4.097,211.51,110420,,,A*63
$GPRMC,053413.60,A,3724.51225,N,12641.82677,E,4.097,211.51,110420,,,A*63
$GPRMC,053413.80,A,3724.51225,N,12641.82677,E,4.097,211.51,110420,,,A*63
$GPRMC,053414.00,A,3724.51225,N,12641.82677,E,4.097,211.51,110420,,,A*63
$GPRMC,053414.20,A,3724.51225,N,12641.82677,E,4.097,211.51,110420,,,A*63
$GPRMC,053414.40,A,3724.51225,N,12641.82677,E,4.097,211.51,110420,,,A*63
$GPRMC,053414.60,A,3724.51225,N,12641.82677,E,4.097,211.51,110420,,,A*63
$GPRMC,053414.80,A,3724.51225,N,12641.82677,E,4.097,211.51,110420,,,A*63
$GPRMC,053415.00,A,3724.51225,N,12641.82677,E,4.097,211.51,110420,,,A*63
$GPRMC,053415.20,A,3724.51225,N,12641.82677,E,4.097,211.51,110420,,,A*63
$GPRMC,053415.40,A,3724.51225,N,12641.82677,E,4.097,211.51,110420,,,A*63
$GPRMC,053415.60,A,3724.51225,N,12641.82677,E,4.097,211.51,110420,,,A*63
$GPRMC,053415.80,A,3724.51225,N,12641.82677,E,4.097,211.51,110420,,,A*63
$GPRMC,053416.00,A,3724.51225,N,12641.82677,E,4.097,211.51,110420,,,A*63
$GPRMC,053416.20,A,3724.51225,N,12641.82677,E,4.097,211.51,110420,,,A*63
$GPRMC,053416.40,A,3724.51225,N,12641.82677,E,4.097,211.51,110420,,,A*63
$GPRMC,053416.60,A,3724.51225,N,12641.82677,E,4.097,211.51,110420,,,A*63
$GPRMC,053416.80,A,3724.51225,N,12641.82677,E,4.097,211.51,110420,,,A*63
$GPRMC,053417.00,A,3724.51225,N,12641.82677,E,4.097,211.51,110420,,,A*63
$GPRMC,053417.20,A,3724.51225,N,12641.82677,E,4.097,211.51,110420,,,A*63
$GPRMC,053417.40,A,3724.51225,N,12641.82677,E,4.097,211.51,110420,,,A*63
$GPRMC,053417.60,A,3724.51225,N,12641.82677,E,4.097,211.51,110420,,,A*63
$GPRMC,053417.80,A,3724.51225,N,12641.82677,E,4.097,211.51,110420,,,A*63
$GPRMC,053418.00,A,3724.51225,N,12641.82677,E,4.097,211.51,110420,,,A*63
$GPRMC,053418.20,A,3724.51225,N,12641.82677,E,4.097,211.51,110420,,,A*63
$GPRMC,053418.40,A,3724.51225,N,12641.82677,E,4.097,211.51,110420,,,A*63
$GPRMC,053418.60,A,3724.51225,N,12641.82677,E,4.097,211.51,110420,,,A*63
$GPRMC,053418.80,A,3724.51225,N,12641.82677,E,4.097,211.51,110420,,,A*63
$GPRMC,053419.00,A,3724.51225,N,12641.82677,E,4.097,211.51,110420,,,A*63
$GPRMC,053419.20,A,3724.51225,N,12641.82677,E,4.097,211.51,110420,,,A*63
$GPRMC,053419.40,A,3724.51225,N,12641.82677,E,4.097,211.51,110420,,,A*63
$GPRMC,053419.60,A,3724.51225,N,12641.82677,E,4.097,211.51,110420,,,A*63
$GPRMC,053419.80,A,3724.51225,N,12641.82677,E,4.097,211.51,110420,,,A*63
$GPRMC,053420.00,A,3724.51225,N,12641.82677,E,4.097,211.51,110420,,,A*63
$GPRMC,053420.20,A,3724.51225,N,12641.82677,E,4.097,211.51,110420,,,A*63
$GPRMC,053420.40,A,3724.51225,N,12641.82677,E,4.097,211.51,110420,,,A*63
$GPRMC,053420.60,A,3724.51225,N,12641.82677,E,4.097,211.51,110420,,,A*63
$GPRMC,053420.80,A,3724.51225,N,12641.82677,E,4.097,211.51,110420,,,A*63
$GPRMC,053421.00,A,3724.51225,N,12641.82677,E,4.097,211.51,110420,,,A*63
$GPRMC,053421.20,A,3724.51225,N,12641.82677,E,4.097,211.51,110420,,,A*63
$GPRMC,053421.40,A,3724.51225,N,12641.82677,E,4.097,211.51,110420,,,A*63
$GPRMC,053421.60,A,3724.51225,N,12641.82677,E,4.097,211.51,110420,,,A*63
$GPRMC,053421.80,A,3724.51225,N,12641.82677,E,4.097,211.51,110420,,,A*63
$GPRMC,053422.00,A,3724.51225,N,12641.82677,E,4.097,211.51,110420,,,A*63
$GPRMC,053422.20,A,3724.51225,N,12641.82677,E,4.097,211.51,110420,,,A*63
$GPRMC,053422.40,A,3724.51225,N,12641.82677,E,4.097,211.51,110420,,,A*63
$GPRMC,053422.60,A,3724.51225,N,12641.82677,E,4.097,211.51,110420,,,A*63
$GPRMC,053422.80,A,3724.51225,N,12641.82677,E,4.097,211.51,110420,,,A*63
$GPRMC,053423.00,A,3724.51225,N,12641.82677,E,4.097,211.51,110420,,,A*63
$GPRMC,053423.20,A,3724.51225,N,12641.82677,E,4.097,211.51,110420,,,A*63
$GPRMC,053423.40,A,3724.51225,N,12641.82677,E,4.097,211.51,110420,,,A*63
$GPRMC,053423.60,A,3724.51225,N,12641.82677,E,4.097,211.51,110420,,,A*63
$GPRMC,053423.80,A,3724.51225,N,12641.82677,E,4.097,211.51,110420,,,A*63
$GPRMC,053424.00,A,3724.51225,N,12641.82677,E,4.097,211.51,110420,,,A*63
$GPRMC,053424.20,A,3724.51225,N,12641.82677,E,4.097,211.51,110420,,,A*63
$GPRMC,053424.40,A,3724.51225,N,12641.82677,E,4.097,211.51,110420,,,A*63
$GPRMC,053424.60,A,3724.51225,N,12641.82677,E,4.097,211.51,110420,,,A*63
$GPRMC,053424.80,A,3724.51225,N,12641.82677,E,4.097,211.51,110420,,,A*63
$GPRMC,053425.00,A,3724.51225,N,12641.82677,E,4.097,211.51,110420,,,A*63
$GPRMC,053425.20,A,3724.51225,N,12641.82677,E,4.097,211.51,110420,,,A*63
$GPRMC,053425.40,A,3724.51225,N,12641.82677,E,4.097,211.51,110420,,,A*63
$GPRMC,053425.60,A,3724.51225,N,12641.82677,E,4.097,211.51,110420,,,A*63
$GPRMC,053425.80,A,3724.51225,N,12641.82677,E,4.097,211.51,110420,,,A*63
$GPRMC,053426.00,A,3724.51225,N,12641.82677,E,4.097,211.51,110420,,,A*63
$GPRMC,053426.20,A,3724.51225,N,12641.82677,E,4.097,211.51,110420,,,A*63
$GPRMC,053426.40,A,3724.51225,N,12641.82677,E,4.097,211.51,110420,,,A*63
$GPRMC,053426.60,A,3724.51225,N,12641.82677,E,4.097,211.51,110420,,,A*63
$GPRMC,053426.80,A,3724.51225,N,12641.82677,E,4.097,211.51,110420,,,A*63
$GPRMC,053427.00,A,3724.51225,N,12641.82677,E,4.097,211.51,110420,,,A*63
$GPRMC,053427.20,A,3724.51225,N,12641.82677,E,4.097,211.51,110420,,,A*63
$GPRMC,053427.40,A,3724.51225,N,12641.82677,E,4.097,211.51,110420,,,A*63
$GPRMC,053427.60,A,3724.51225,N,12641.82677,E,4.097,211.51,110420,,,A*63
$GPRMC,053427.80,A,3724.51225,N,12641.82677,E,4.097,211.51,110420,,,A*63
$GPRMC,053428.00,A,3724.51225,N,12641.82677,E,4.097,211.51,110420,,,A*63
$GPRMC,053428.20,A,3724.51225,N,12641.82677,E,4.097,211.51,110420,,,A*63
$GPRMC,053428.40,A,3724.51225,N,12641.82677,E,4.097,211.51,110420,,,A*63
$GPRMC,053428.60,A,3724.51225,N,12641.82677,E,4.097,211.51,110420,,,A*63
$GPRMC,053428.80,A,3724.51225,N,12641.82677,E,4.097,211.51,110420,,,A*63
$GPRMC,053429.00,A,3724.51225,N,12641.82677,E,4.097,211.51,110420,,,A*63
$GPRMC,053429.20,A,3724.51225,N,12641.82677,E,4.097,211.51,110420,,,A*63
$GPRMC,053429.40,A,3724.51225,N,12641.82677,E,4.097,211.51,110420,,,A*63
$GPRMC,053429.60,A,3724.51225,N,12641.82677,E,4.097,211.51,110420,,,A*63
$GPRMC,053429.80,A,3724.51225,N,12641.82677,E,4.097,211.51,110420,,,A*63
$GPRMC,053430.00,A,3724.51225,N,12641.82677,E,4.097,211.51,110420,,,A*63
$GPRMC,053430.20,A,3724.51225,N,12641.82677,E,4.097,211.51,110420,,,A*63
$GPRMC,053430.40,A,3724.51225,N,12641.82677,E,4.097,211.51,110420,,,A*63
$GPRMC,053430.60,A,3724.51225,N,12641.82677,E,4.097,211.51,110420,,,A*63
$GPRMC,053430.80,A,3724.51225,N,12641.82677,E,4.097,211.51,110420,,,A*63
$GPRMC,053431.00,A,3724.51225,N,12641.82677,E,4.097,211.51,110420,,,A*63
$GPRMC,053431.20,A,3724.51225,N,12641.82677,E,4.097,211.51,110420,,,A*63
$GPRMC,053431.40,A,3724.51225,N,12641.82677,E,4.097,211.51,110420,,,A*63
$GPRMC,053431.60,A,3724.51225,N,12641.82677,E,4.097,211.51,110420,,,A*63
$GPRMC,053431.80,A,3724.51225,N,12641.82677,E,4.097,211.51,110420,,,A*63
$GPRMC,053432.00,A,3724.51225,N,12641.82677,E,4.097,211.51,110420,,,A*63
$GPRMC,053432.20,A,3724.51225,N,12641.82677,E,4.097,211.51,110420,,,A*63
$GPRMC,053432.40,A,3724.51225,N,12641.82677,E,4.097,211.51,110420,,,A*63
$GPRMC,053432.60,A,3724.51225,N,12641.82677,E,4.097,211.51,110420,,,A*63
$GPRMC,053432.80,A,3724.51225,N,12641.82677,E,4.097,211.51,110420,,,A*63
$GPRMC,053433.00,A,3724.51225,N,12641.82677,E,4.097,211.51,110420,,,A*63
$GPRMC,053433.20,A,3724.51225,N,12641.82677,E,4.097,211.51,110420,,,A*63
$GPRMC,053433.40,A,3724.51225,N,12641.82677,E,4.097,211.51,110420,,,A*63
$GPRMC,053433.60,A,3724.51225,N,12641.82677,E,4.097,211.51,110420,,,A*63
$GPRMC,053433.80,A,3724.51225,N,12641.82677,E,4.097,211.51,110420,,,A*63
$GPRMC,053434.00,A,3724.51225,N,12641.82677,E,4.097,211.51,110420,,,A*63
$GPRMC,053434.20,A,3724.51225,N,12641.82677,E,4.097,211.51,110420,,,A*63
$GPRMC,053434.40,A,3724.51225,N,12641.82677,E,4.097,211.51,110420,,,A*63
$GPRMC,053434.60,A,3724.51225,N,12641.82677,E,4.097,211.51,110420,,,A*63
$GPRMC,053434.80,A,3724.51225,N,12641.82677,E,4.097,211.51,110420,,,A*63
$GPRMC,053435.00,A,3724.51225,N,12641.82677,E,4.097,211.51,110420,,,A*63
$GPRMC,053435.20,A,3724.51225,N,12641.82677,E,4.097,211.51,110420,,,A*63
$GPRMC,053435.40,A,3724.51225,N,12641.82677,E,4.097,211.51,110420,,,A*63
$GPRMC,053435.60,A,3724.51225,N,12641.82677,E,4.097,211.51,110420,,,A*63
$GPRMC,053435.80,A,3724.51225,N,12641.82677,E,4.097,211.51,110420,,,A*63
$GPRMC,053436.00,A,3724.51225,N,12641.82677,E,4.097,211.51,110420,,,A*63
$GPRMC,053436.20,A,3724.51225,N,12641.82677,E,4.097,211.51,110420,,,A*63
$GPRMC,053436.40,A,3724.51225,N,12641.82677,E,4.097,211.51,110420,,,A*63
$GPRMC,053436.60,A,3724.51225,N,12641.82677,E,4.097,211.51,110420,,,A*63
$GPRMC,053436.80,A,3724.51225,N,12641.82677,E,4.097,211.51,110420,,,A*63
$GPRMC,053437.00,A,3724.51225,N,12641.82677,E,4.097,211.51,110420,,,A*63
$GPRMC,053437.20,A,3724.51225,N,12641.82677,E,4.097,211.51,110420,,,A*63
$GPRMC,053437.40,A,3724.51225,N,12641.82677,E,4.097,211.51,110420,,,A*63
$GPRMC,053437.60,A,3724.51225,N,12641.82677,E,4.097,211.51,110420,,,A*63
$GPRMC,053437.80,A,3724.51225,N,12641.82677,E,4.097,211.51,110420,,,A*63
$GPRMC,053438.00,A,3724.51225,N,12641.82677,E,4.097,211.51,110420,,,A*63
$GPRMC,053438.20,A,3724.51225,N,12641.82677,E,4.097,211.51,110420,,,A*63
$GPRMC,053438.40,A,3724.51225,N,12641.82677,E,4.097,211.51,110420,,,A*63
$GPRMC,053438.60,A,3724.51225,N,12641.82677,E,4.097,211.51,110420,,,A*63
$GPRMC,053438.80,A,3724.51225,N,12641.82677,E,4.097,211.51,110420,,,A*63
$GPRMC,053439.00,A,3724.51225,N,12641.82677,E,4.097,211.51,110420,,,A*63
$GPRMC,053439.20,A,3724.51225,N,12641.82677,E,4.097,211.51,110420,,,A*63
$GPRMC,053439.40,A,3724.51225,N,12641.82677,E,4.097,211.51,110420,,,A*63
$GPRMC,053439.60,A,3724.51225,N,12641.82677,E,4.097,211.51,110420,,,A*63
$GPRMC,053439.80,A,3724.51225,N,12641.82677,E,4.097,211.51,110420,,,A*63
$GPRMC,053440.00,A,3724.51225,N,12641.82677,E,4.097,211.51,110420,,,A*63
$GPRMC,053440.20,A,3724.51225,N,12641.82677,E,4.097,211.51,110420,,,A*63
$GPRMC,053440.40,A,3724.51225,N,12641.82677,E,4.097,211.51,110420,,,A*63
$GPRMC,053440.60,A,3724.51225,N,12641.82677,E,4.097,211.51,110420,,,A*63
$GPRMC,053440.80,A,3724.51225,N,12641.82677,E,4.097,211.51,110420,,,A*63
$GPRMC,053441.00,A,3724.51225,N,12641.82677,E,4.097,211.51,110420,,,A*63
$GPRMC,053441.20,A,3724.51225,N,12641.82677,E,4.097,211.51,110420,,,A*63
$GPRMC,053441.40,A,3724.51225,N,12641.82677,E,4.097,211.51,110420,,,A*63
$GPRMC,053441.60,A,3724.51225,N,12641.82677,E,4.097,211.51,110420,,,A*63
$GPRMC,053441.80,A,3724.51225,N,12641.82677,E,4.097,211.51,110420,,,A*63
$GPRMC,053442.00,A,3724.51225,N,12641.82677,E,4.097,211.51,110420,,,A*63
$GPRMC,053442.20,A,3724.51225,N,12641.82677,E,4.097,211.51,110420,,,A*63
$GPRMC,053442.40,A,3724.51225,N,12641.82677,E,4.097,211.51,110420,,,A*63
$GPRMC,053442.60,A,3724.51225,N,12641.82677,E,4.097,211.51,110420,,,A*63
$GPRMC,053442.80,A,3724.51225,N,12641.82677,E,4.097,211.51,110420,,,A*63
$GPRMC,053443.00,A,3724.51225,N,12641.82677,E,4.097,211.51,110420,,,A*63
$GPRMC,053443.20,A,3724.51225,N,12641.82677,E,4.097,211.51,110420,,,A*63
$GPRMC,053443.40,A,3724.51225,N,12641.82677,E,4.097,211.51,110420,,,A*63
$GPRMC,053443.60,A,3724.51225,N,12641.82677,E,4.097,211.51,110420,,,A*63
$GPRMC,053443.80,A,3724.51225,N,12641.82677,E,4.097,211.51,110420,,,A*63
$GPRMC,053444.00,A,3724.51225,N,12641.82677,E,4.097,211.51,110420,,,A*63
$GPRMC,053444.20,A,3724.51225,N,12641.82677,E,4.097,211.51,110420,,,A*63
$GPRMC,053444.40,A,3724.51225,N,12641.82677,E,4.097,211.51,110420,,,A*63
$GPRMC,053444.60,A,3724.51225,N,12641.82677,E,4.097,211.51,110420,,,A*63
$GPRMC,053444.80,A,3724.51225,N,12641.82677,E,4.097,211.51,110420,,,A*63
$GPRMC,053445.00,A,3724.51225,N,12641.82677,E,4.097,211.51,110420,,,A*63
$GPRMC,053445.20,A,3724.51225,N,12641.82677,E,4.097,211.51,110420,,,A*63
$GPRMC,053445.40,A,3724.51225,N,12641.82677,E,4.097,211.51,110420,,,A*63
$GPRMC,053445.60,A,3724.51225,N,12641.82677,E,4.097,211.51,110420,,,A*63
$GPRMC,053445.80,A,3724.51225,N,12641.82677,E,4.097,211.51,110420,,,A*63
$GPRMC,053446.00,A,3724.51225,N,12641.82677,E,4.097,211.51,110420,,,A*63
$GPRMC,053446.20,A,3724.51225,N,12641.82677,E,4.097,211.51,110420,,,A*63
$GPRMC,053446.40,A,3724.51225,N,12641.82677,E,4.097,211.51,110420,,,A*63
$GPRMC,053446.60,A,3724.51225,N,12641.82677,E,4.097,211.51,110420,,,A*63
$GPRMC,053446.80,A,3724.51225,N,12641.82677,E,4.097,211.51,110420,,,A*63
$GPRMC,053447.00,A,3724.51225,N,12641.82677,E,4.097,211.51,110420,,,A*63
$GPRMC,053447.20,A,3724.51225,N,12641.82677,E,4.097,211.51,110420,,,A*63
$GPRMC,053447.40,A,3724.51225,N,12641.82677,E,4.097,211.51,110420,,,A*63
$GPRMC,053447.60,A,3724.51225,N,12641.82677,E,4.097,211.51,110420,,,A*63
$GPRMC,053447.80,A,3724.51225,N,12641.82677,E,4.097,211.51,110420,,,A*63
$GPRMC,053448.00,A,3724.51225,N,12641.82677,E,4.097,211.51,110420,,,A*63
$GPRMC,053448.20,A,3724.51225,N,12641.82677,E,4.097,211.51,110420,,,A*63
$GPRMC,053448.40,A,3724.51225,N,12641.82677,E,4.097,211.51,110420,,,A*63
$GPRMC,053448.60,A,3724.51225,N,12641.82677,E,4.097,211.51,110420,,,A*63
$GPRMC,053448.80,A,3724.51225,N,12641.82677,E,4.097,211.51,110420,,,A*63
$GPRMC,053449.00,A,3724.51225,N,12641.82677,E,4.097,211.51,110420,,,A*63
$GPRMC,053449.20,A,3724.51225,N,12641.82677,E,4.097,211.51,110420,,,A*63
$GPRMC,053449.40,A,3724.51225,N,12641.82677,E,4.097,211.51,110420,,,A*63
$GPRMC,053449.60,A,3724.51225,N,12641.82677,E,4.097,211.51,110420,,,A*63
$GPRMC,053449.80,A,3724.51225,N,12641.82677,E,4.097,211.51,110420,,,A*63
$GPRMC,053450.00,A,3724.51225,N,12641.82677,E,4.097,211.51,110420,,,A*63
$GPRMC,053450.20,A,3724.51225,N,12641.82677,E,4.097,211.51,110420,,,A*63
$GPRMC,053450.40,A,3724.51225,N,12641.82677,E,4.097,211.51,110420,,,A*63
$GPRMC,053450.60,A,3724.51225,N,12641.82677,E,4.097,211.51,110420,,,A*63
$GPRMC,053450.80,A,3724.51225,N,12641.82677,E,4.097,211.51,110420,,,A*63
$GPRMC,053451.00,A,3724.51225,N,12641.82677,E,4.097,211.51,110420,,,A*63
$GPRMC,053451.20,A,3724.51225,N,12641.82677,E,4.097,211.51,110420,,,A*63
$GPRMC,053451.40,A,3724.51225,N,12641.82677,E,4.097,211.51,110420,,,A*63
$GPRMC,053451.60,A,3724.51225,N,12641.82677,E,4.097,211.51,110420,,,A*63
$GPRMC,053451.80,A,3724.51225,N,12641.82677,E,4.097,211.51,110420,,,A*63
$GPRMC,053452.00,A,3724.51225,N,12641.82677,E,4.097,211.51,110420,,,A*63
$GPRMC,053452.20,A,3724.51225,N,12641.82677,E,4.097,211.51,110420,,,A*63
$GPRMC,053452.40,A,3724.51225,N,12641.82677,E,4.097,211.51,110420,,,A*63
$GPRMC,053452.60,A,3724.51225,N,12641.82677,E,4.097,211.51,110420,,,A*63
$GPRMC,053452.80,A,3724.51225,N,12641.82677,E,4.097,211.51,110420,,,A*63
$GPRMC,053453.00,A,3724.51225,N,12641.82677,E,4.097,211.51,110420,,,A*63
$GPRMC,053453.20,A,3724.51225,N,12641.82677,E,4.097,211.51,110420,,,A*63
$GPRMC,053453.40,A,3724.51225,N,12641.82677,E,4.097,211.51,110420,,,A*63
$GPRMC,053453.60,A,3724.51225,N,12641.82677,E,4.097,211.51,110420,,,A*63
$GPRMC,053453.80,A,3724.51225,N,12641.82677,E,4.097,211.51,110420,,,A*63
$GPRMC,053454.00,A,3724.51225,N,12641.82677,E,4.097,211.51,110420,,,A*63
$GPRMC,053454.20,A,3724.51225,N,12641.82677,E,4.097,211.51,110420,,,A*63
$GPRMC,053454.40,A,3724.51225,N,12641.82677,E,4.097,211.51,110420,,,A*63
$GPRMC,053454.60,A,3724.51225,N,12641.82677,E,4.097,211.51,110420,,,A*63
$GPRMC,053454.80,A,3724.51225,N,12641.82677,E,4.097,211.51,110420,,,A*63
$GPRMC,053455.00,A,3724.51225,N,12641.82677,E,4.097,211.51,110420,,,A*63
$GPRMC,053455.20,A,3724.51225,N,12641.82677,E,4.097,211.51,110420,,,A*63
$GPRMC,053455.40,A,3724.51225,N,12641.82677,E,4.097,211.51,110420,,,A*63
$GPRMC,053455.60,A,3724.51225,N,12641.82677,E,4.097,211.51,110420,,,A*63
$GPRMC,053455.80,A,3724.51225,N,12641.82677,E,4.097,211.51,110420,,,A*63
$GPRMC,053456.00,A,3724.51225,N,12641.82677,E,4.097,211.51,110420,,,A*63
$GPRMC,053456.20,A,3724.51225,N,12641.82677,E,4.097,211.51,110420,,,A*63
$GPRMC,053456.40,A,3724.51225,N,12641.82677,E,4.097,211.51,110420,,,A*63
$GPRMC,053456.60,A,3724.51225,N,12641.82677,E,4.097,211.51,110420,,,A*63
$GPRMC,053456.80,A,3724.51225,N,12641.82677,E,4.097,211.51,110420,,,A*63
$GPRMC,053457.00,A,3724.51225,N,12641.82677,E,4.097,211.51,110420,,,A*63
$GPRMC,053457.20,A,3724.51225,N,12641.82677,E,4.097,211.51,110420,,,A*63
$GPRMC,053457.40,A,3724.51225,N,12641.82677,E,4.097,211.51,110420,,,A*63
$GPRMC,053457.60,A,3724.51225,N,12641.82677,E,4.097,211.51,110420,,,A*63
$GPRMC,053457.80,A,3724.51225,N,12641.82677,E,4.097,211.51,110420,,,A*63
$GPRMC,053458.00,A,3724.51225,N,12641.82677,E,4.097,211.51,110420,,,A*63
$GPRMC,053458.20,A,3724.51225,N,12641.82677,E,4.097,211.51,110420,,,A*63
$GPRMC,053458.40,A,3724.51225,N,12641.82677,E,4.097,211.51,110420,,,A*63
$GPRMC,053458.60,A,3724.51225,N,12641.82677,E,4.097,211.51,110420,,,A*63
$GPRMC,053458.80,A,3724.51225,N,12641.82677,E,4.097,211.51,110420,,,A*63
$GPRMC,053459.00,A,3724.51225,N,12641.82677,E,4.097,211.51,110420,,,A*63
$GPRMC,053459.20,A,3724.51225,N,12641.82677,E,4.097,211.51,110420,,,A*63
$GPRMC,053459.40,A,3724.51225,N,12641.82677,E,4.097,211.51,110420,,,A*63
$GPRMC,053459.60,A,3724.51225,N,12641.82677,E,4.097,211.51,110420,,,A*63
$GPRMC,053459.80,A,3724.51225,N,12641.82677,E,4.097,211.51,110420,,,A*63
$GPRMC,053500.00,A,3724.51225,N,12641.82677,E,4.097,211.51,110420,,,A*63
$GPRMC,053500.20,A,3724.51225,N,12641.82677,E,4.097,211.51,110420,,,A*63
$GPRMC,053500.40,A,3724.51225,N,12641.82677,E,4.097,211.51,110420,,,A*63
$GPRMC,053500.60,A,3724.51225,N,12641.82677,E,4.097,211.51,110420,,,A*63
$GPRMC,053500.80,A,3724.51225,N,12641.82677,E,4.097,211.51,110420,,,A*63
$GPRMC,053501.00,A,3724.51225,N,12641.82677,E,4.097,211.51,110420,,,A*63
$GPRMC,053501.20,A,3724.51225,N,12641.82677,E,4.097,211.51,110420,,,A*63
$GPRMC,053501.40,A,3724.51225,N,12641.82677,E,4.097,211.51,110420,,,A*63
$GPRMC,053501.60,A,3724.51225,N,12641.82677,E,4.097,211.51,110420,,,A*63
$GPRMC,053501.80,A,3724.51225,N,12641.82677,E,4.097,211.51,110420,,,A*63
$GPRMC,053502.00,A,3724.51225,N,12641.82677,E,4.097,211.51,110420,,,A*63
$GPRMC,053502.20,A,3724.51225,N,12641.82677,E,4.097,211.51,110420,,,A*63
$GPRMC,053502.40,A,3724.51225,N,12641.82677,E,4.097,211.51,110420,,,A*63
$GPRMC,053502.60,A,3724.51225,N,12641.82677,E,4.097,211.51,110420,,,A*63
$GPRMC,053502.80,A,3724.51225,N,12641.82677,E,4.097,211.51,110420,,,A*63
$GPRMC,053503.00,A,3724.51225,N,12641.82677,E,4.097,211.51,110420,,,A*63
$GPRMC,053503.20,A,3724.51225,N,12641.82677,E,4.097,211.51,110420,,,A*63
$GPRMC,053503.40,A,3724.51225,N,12641.82677,E,4.097,211.51,110420,,,A*63
$GPRMC,053503.60,A,3724.51225,N,12641.82677,E,4.097,211.51,110420,,,A*63
$GPRMC,053503.80,A,3724.51225,N,12641.82677,E,4.097,211.51,110420,,,A*63
$GPRMC,053504.00,A,3724.51225,N,12641.82677,E,4.097,211.51,110420,,,A*63
$GPRMC,053504.20,A,3724.51225,N,12641.82677,E,4.097,211.51,110420,,,A*63
$GPRMC,053504.40,A,3724.51225,N,12641.82677,E,4.097,211.51,110420,,,A*63
$GPRMC,053504.60,A,3724.51225,N,12641.82677,E,4.097,211.51,110420,,,A*63
$GPRMC,053504.80,A,3724.51225,N,12641.82677,E,4.097,211.51,110420,,,A*63
$GPRMC,053505.00,A,3724.51225,N,12641.82677,E,4.097,211.51,110420,,,A*63
$GPRMC,053505.20,A,3724.51225,N,12641.82677,E,4.097,211.51,110420,,,A*63
$GPRMC,053505.40,A,3724.51225,N,12641.82677,E,4.097,211.51,110420,,,A*63
$GPRMC,053505.60,A,3724.51225,N,12641.82677,E,4.097,211.51,110420,,,A*63
$GPRMC,053505.80,A,3724.51225,N,12641.82677,E,4.097,211.51,110420,,,A*63
$GPRMC,053506.00,A,3724.51225,N,12641.82677,E,4.097,211.51,110420,,,A*63
$GPRMC,053506.20,A,3724.51225,N,12641.82677,E,4.097,211.51,110420,,,A*63
$GPRMC,053506.40,A,3724.51225,N,12641.82677,E,4.097,211.51,110420,,,A*63
$GPRMC,053506.60,A,3724.51225,N,12641.82677,E,4.097,211.51,110420,,,A*63
$GPRMC,053506.80,A,3724.51225,N,12641.82677,E,4.097,211.51,110420,,,A*63
$GPRMC,053507.00,A,3724.51225,N,12641.82677,E,4.097,211.51,110420,,,A*63
$GPRMC,053507.20,A,3724.51225,N,12641.82677,E,4.097,211.51,110420,,,A*63
$GPRMC,053507.40,A,3724.51225,N,12641.82677,E,4.097,211.51,110420,,,A*63
$GPRMC,053507.60,A,3724.51225,N,12641.82677,E,4.097,211.51,110420,,,A*63
$GPRMC,053507.80,A,3724.51225,N,12641.82677,E,4.097,211.51,110420,,,A*63
$GPRMC,053508.00,A,3724.51225,N,12641.82677,E,4.097,211.51,110420,,,A*63
$GPRMC,053508.20,A,3724.51225,N,12641.82677,E,4.097,211.51,110420,,,A*63
$GPRMC,053508.40,A,3724.51225,N,12641.82677,E,4.097,211.51,110420,,,A*63
$GPRMC,053508.60,A,3724.51225,N,12641.82677,E,4.097,211.51,110420,,,A*63
$GPRMC,053508.80,A,3724.51225,N,12641.82677,E,4.097,211.51,110420,,,A*63
$GPRMC,053509.00,A,3724.51225,N,12641.82677,E,4.097,211.51,110420,,,A*63
$GPRMC,053509.20,A,3724.51225,N,12641.82677,E,4.097,211.51,110420,,,A*63
$GPRMC,053509.40,A,3724.51225,N,12641.82677,E,4.097,211.51,110420,,,A*63
$GPRMC,053509.60,A,3724.51225,N,12641.82677,E,4.097,211.51,110420,,,A*63
$GPRMC,053509.80,A,3724.51225,N,12641.82677,E,4.097,211.51,110420,,,A*63
$GPRMC,053510.00,A,3724.51225,N,12641.82677,E,4.097,211.51,110420,,,A*63
$GPRMC,053510.20,A,3724.51225,N,12641.82677,E,4.097,211.51,110420,,,A*63
$GPRMC,053510.40,A,3724.51225,N,12641.82677,E,4.097,211.51,110420,,,A*63
$GPRMC,053510.60,A,3724.51225,N,12641.82677,E,4.097,211.51,110420,,,A*63
$GPRMC,053510.80,A,3724.51225,N,12641.82677,E,4.097,211.51,110420,,,A*63
$GPRMC,053511.00,A,3724.51225,N,12641.82677,E,4.097,211.51,110420,,,A*63
$GPRMC,053511.20,A,3724.51225,N,12641.82677,E,4.097,211.51,110420,,,A*63
$GPRMC,053511.40,A,3724.51225,N,12641.82677,E,4.097,211.51,110420,,,A*63
$GPRMC,053511.60,A,3724.51225,N,12641.82677,E,4.097,211.51,110420,,,A*63
$GPRMC,053511.80,A,3724.51225,N,12641.82677,E,4.097,211.51,110420,,,A*63
$GPRMC,053512.00,A,3724.51225,N,12641.82677,E,4.097,211.51,110420,,,A*63
$GPRMC,053512.20,A,3724.51225,N,12641.82677,E,4.097,211.51,110420,,,A*63
$GPRMC,053512.40,A,3724.51225,N,12641.82677,E,4.097,211.51,110420,,,A*63
$GPRMC,053512.60,A,3724.51225,N,12641.82677,E,4.097,211.51,110420,,,A*63
$GPRMC,053512.80,A,3724.51225,N,12641.82677,E,4.097,211.51,110420,,,A*63
$GPRMC,053513.00,A,3724.51225,N,12641.82677,E,4.097,211.51,110420,,,A*63
$GPRMC,053513.20,A,3724.51225,N,12641.82677,E,4.097,211.51,110420,,,A*63
$GPRMC,053513.40,A,3724.51225,N,12641.82677,E,4.097,211.51,110420,,,A*63
$GPRMC,053513.60,A,3724.51225,N,12641.82677,E,4.097,211.51,110420,,,A*63
$GPRMC,053513.80,A,3724.51225,N,12641.82677,E,4.097,211.51,110420,,,A*63
$GPRMC,053514.00,A,3724.51225,N,12641.82677,E,4.097,211.51,110420,,,A*63
$GPRMC,053514.20,A,3724.51225,N,12641.82677,E,4.097,211.51,110420,,,A*63
$GPRMC,053514.40,A,3724.51225,N,12641.82677,E,4.097,211.51,110420,,,A*63
$GPRMC,053514.60,A,3724.51225,N,12641.82677,E,4.097,211.51,110420,,,A*63
$GPRMC,053514.80,A,3724.51225,N,12641.82677,E,4.097,211.51,110420,,,A*63
$GPRMC,053515.00,A,3724.51225,N,12641.82677,E,4.097,211.51,110420,,,A*63
$GPRMC,053515.20,A,3724.51225,N,12641.82677,E,4.097,211.51,110420,,,A*63
$GPRMC,053515.40,A,3724.51225,N,12641.82677,E,4.097,211.51,110420,,,A*63
$GPRMC,053515.60,A,3724.51225,N,12641.82677,E,4.097,211.51,110420,,,A*63
$GPRMC,053515.80,A,3724.51225,N,12641.82677,E,4.097,211.51,110420,,,A*63
$GPRMC,053516.00,A,3724.51225,N,12641.82677,E,4.097,211.51,110420,,,A*63
